,station,lat,lon,time,weather,weatherfont,weathersymbol,weathercolour,temperature,pressure,sl_pressure,dewpoint,windspeed,winddir,visibility,visual_range,cloudcover,pressure3h_change,rain,wwletter
191,ETNG,50.9608001709,6.0424199104,2023-08-15 23:50:00,,,,,18.0,99999,99999,16.0,2.0,10.0,10000.0,99999,,98979.8,0.0,11160001021018020160399904999051989798600007000080000
709,EGNS,54.0833015442,-4.6238899231,2023-08-15 23:50:00,,,,,15.0,99999,99999,12.0,2.0,360.0,10000.0,99999,1.0,98980.0,0.0,11160136021015020120399904999051989800600007000081000
784,LIMC,45.6305999756,8.7281103134,2023-08-15 23:50:00,,,,,24.0,99999,99999,20.0,4.0,20.0,10000.0,99999,3.0,98981.0,0.0,11160302041024020200399904999051989810600007000083000
877,EGJB,49.4350013733,-2.6019699574,2023-08-15 23:50:00,42.0,36.0,K,yellow,14.0,99999,99999,14.0,4.0,300.0,10000.0,99999,1.0,98978.6,0.0,11160130041014020140399904999051989786600007420081000
889,LGAL,40.8558998108,25.9563007355,2023-08-15 23:50:00,,,,,24.0,99999,99999,21.0,0.0,0.0,10000.0,99999,1.0,98985.8,0.0,11160100001024020210399904999051989858600007000081000
914,LGAD,37.9207000732,21.2926006317,2023-08-15 23:50:00,,,,,20.0,99999,99999,20.0,0.0,0.0,10000.0,99999,1.0,98984.3,0.0,11160100001020020200399904999051989843600007000081000
915,LGKL,37.0682983398,22.0254993439,2023-08-15 23:50:00,,,,,22.0,99999,99999,18.0,6.0,330.0,10000.0,99999,,98984.9,0.0,11160033061022020180399904999051989848600007000080000
917,LGLM,39.917098999,25.2362995148,2023-08-15 23:50:00,,,,,25.0,99999,99999,22.0,4.0,340.0,10000.0,99999,,98986.1,0.0,11160034041025020220399904999051989861600007000080000
919,LGSM,37.6899986267,26.911699295,2023-08-15 23:50:00,,,,,23.0,99999,99999,22.0,0.0,0.0,10000.0,99999,,98988.0,0.0,11160000001023020220399904999051989880600007000080000
1069,LGBL,39.2196006775,22.7943000793,2023-08-15 23:50:00,,,,,22.0,99999,99999,17.0,4.0,250.0,10000.0,99999,,98985.4,0.0,11160025041022020170399904999051989853600007000080000
1070,LGLR,39.6562825886,22.3400008678,2023-08-15 23:50:00,,,,,23.0,99999,99999,17.0,0.0,0.0,10000.0,99999,1.0,98984.6,0.0,11160100001023020170399904999051989846600007000081000
1073,LGTG,38.3398017883,23.5650005341,2023-08-15 23:50:00,,,,,22.0,99999,99999,14.0,0.0,0.0,10000.0,99999,,98985.2,0.0,11160000001022020140399904999051989851600007000080000
1091,LGPZ,38.9254989624,20.7653007507,2023-08-15 23:50:00,,,,,24.0,99999,99999,23.0,5.0,270.0,10000.0,99999,,98984.4,0.0,11160027051024020230399904999051989843600007000080000
1092,LGRX,38.1511001587,21.4256000519,2023-08-15 23:50:00,,,,,22.0,99999,99999,21.0,0.0,0.0,10000.0,99999,,98984.6,0.0,11160000001022020210399904999051989846600007000080000
1121,LBPG,42.2904014587,24.7140007019,2023-08-16 00:00:00,,,,,19.0,99999,99999,16.0,0.0,0.0,10000.0,99999,6.0,98983.0,0.0,11160600001019020160399904999051989830600007000086000
1122,LBIA,42.4548988342,26.3521995544,2023-08-16 00:00:00,,,,,23.0,99999,99999,16.0,2.0,10.0,10000.0,99999,1.0,0.0,0.0,11160101021023020160399904999051000600007000081000
1158,LTCT,39.9766273499,43.8766479492,2023-08-15 23:50:00,,,,,23.0,99999,99999,6.0,6.0,260.0,10000.0,99999,,0.0,0.0,1116002606102302060399904999051000600007000080000
1185,ETEK,49.6502990723,7.300069809,2023-08-15 23:55:00,10.0,36.0,+,yellow,17.3,99999,99999,17.1,0.0,0.0,9000.0,99999,3.0,98980.0,0.0,11150300001017320173399904999051989800600007100083000
1206,LTAY,37.7855987549,29.7012996674,2023-08-15 23:50:00,,,,,22.0,99999,99999,19.0,6.0,230.0,10000.0,99999,,98987.4,0.0,11160023061022020190399904999051989873600007000080000
1207,LTBD,37.8149986267,27.8952999115,2023-08-15 23:50:00,,,,,23.0,99999,99999,21.0,1.0,200.0,10000.0,99999,,98987.9,0.0,11160020011023020210399904999051989878600007000080000
1209,LTBH,40.1376991272,26.4267997742,2023-08-15 23:50:00,,,,,23.0,99999,99999,22.0,4.0,120.0,10000.0,99999,,98987.0,0.0,11160012041023020220399904999051989870600007000080000
1211,LTBY,39.8098983765,30.5193996429,2023-08-15 23:50:00,,,,,21.0,99999,99999,16.0,2.0,,10000.0,99999,1.0,0.0,0.0,11160136021021020160399904999051000600007000081000
1213,LTCB,40.966667,38.08,2023-08-15 23:50:00,,,,,24.0,99999,99999,22.0,0.0,0.0,10000.0,99999,3.0,98985.2,0.0,11160300001024020220399904999051989851600007000083000
1217,LTCN,37.5388259888,36.9535217285,2023-08-15 23:50:00,,,,,24.0,99999,99999,13.0,6.0,70.0,10000.0,99999,,98991.2,0.0,11160007061024020130399904999051989911600007000080000
1218,LTDA,36.36277771,36.2822227478,2023-08-15 23:50:00,,,,,28.0,99999,99999,24.0,14.0,240.0,10000.0,99999,,98992.0,0.0,11160024141028020240399904999051989920600007000080000
1219,LTFD,39.554599762,27.0137996674,2023-08-15 23:50:00,,,,,26.0,99999,99999,21.0,7.0,90.0,10000.0,99999,,98987.5,0.0,11160009071026020210399904999051989875600007000080000
1220,LTFG,36.2992172241,32.3005981445,2023-08-15 23:50:00,,,,,26.0,99999,99999,24.0,3.0,80.0,10000.0,99999,,98992.1,0.0,11160008031026020240399904999051989921600007000080000
1237,EGQL,56.3728981018,-2.8684399128,2023-08-15 23:50:00,,,,,16.0,99999,99999,13.0,7.0,100.0,10000.0,99999,6.0,98981.3,0.0,11160610071016020130399904999051989813600007000086000
1338,ETIC,49.6986999512,11.940199852,2023-08-15 23:55:00,,,,,19.2,99999,99999,17.9,0.0,0.0,10000.0,99999,,98980.5,0.0,11160000001019120171399904999051989805600007000080000
1445,LTBI,39.7840995789,30.5820999146,2023-08-15 23:50:00,,,,,21.0,99999,99999,17.0,0.0,0.0,10000.0,99999,,98987.3,0.0,11160000001021020170399904999051989873600007000080000
1452,LTAE,40.0788993835,32.5656013489,2023-08-15 23:50:00,,,,,25.0,99999,99999,5.0,7.0,20.0,10000.0,99999,,98987.3,0.0,1116000207102502050399904999051989873600007000080000
1752,LTAB,39.9350013733,32.7407989502,2023-08-15 23:50:00,,,,,28.0,99999,99999,6.0,4.0,100.0,10000.0,99999,,98987.9,0.0,1116001004102802060399904999051989878600007000080000
1754,LTAD,39.949798584,32.6885986328,2023-08-15 23:50:00,,,,,25.0,99999,99999,6.0,2.0,,10000.0,99999,,98988.1,0.0,1116003602102502060399904999051989881600007000080000
1755,LTAN,37.9790000916,32.5619010925,2023-08-15 23:50:00,,,,,27.0,99999,99999,1.0,8.0,10.0,10000.0,99999,,98990.5,0.0,1116000108102702010399904999051989905600007000080000
1756,LTAR,39.8138008118,36.9034996033,2023-08-15 23:50:00,,,,,12.0,99999,99999,4.0,2.0,10.0,10000.0,99999,,98985.0,0.0,1116000102101202040399904999051989850600007000080000
1758,LTBF,39.6193008423,27.9260005951,2023-08-15 23:50:00,,,,,26.0,99999,99999,23.0,5.0,330.0,10000.0,99999,3.0,98987.3,0.0,11160333051026020230399904999051989873600007000083000
1759,LTBG,40.3180007935,27.9776992798,2023-08-15 23:50:00,,,,,25.0,99999,99999,23.0,5.0,20.0,10000.0,99999,2.0,98987.4,0.0,11160202051025020230399904999051989873600007000082000
1760,LTBL,38.5130004883,27.010099411,2023-08-15 23:50:00,,,,,23.0,99999,99999,21.0,1.0,310.0,10000.0,99999,,98988.4,0.0,11160031011023020210399904999051989883600007000080000
1761,LTBQ,40.7350006104,30.0832996368,2023-08-15 23:50:00,,,,,23.0,99999,99999,22.0,1.0,,8000.0,99999,3.0,98988.2,0.0,11140336011023020220399904999051989881600007000083000
1763,LTCA,38.6068992615,39.2914009094,2023-08-15 23:50:00,,,,,20.0,99999,99999,-1.0,4.0,250.0,10000.0,99999,,98992.4,0.0,1116002504102002110399904999051989923600007000080000
1767,LTCI,38.4682006836,43.3322982788,2023-08-15 23:50:00,,,,,24.0,99999,99999,-1.0,11.0,100.0,10000.0,99999,,98990.9,0.0,1116001011102402110399904999051989908600007000080000
1813,LBPL,43.4514007568,24.5027999878,2023-08-16 00:00:00,,,,,20.0,99999,99999,16.0,4.0,260.0,10000.0,99999,3.0,98982.0,0.0,11160326041020020160399904999051989820600007000083000
2009,LFRK,49.1733016968,-0.4499999881,2023-08-16 00:00:00,,,,,14.0,99999,99999,14.0,3.0,290.0,10000.0,99999,5.0,98978.9,0.0,11160529031014020140399904999051989788600007000085000
2048,UMGG,52.5270004272,31.0167007446,2023-08-16 00:00:00,,,,,19.0,99999,99999,16.0,2.0,60.0,7000.0,99999,,98975.1,0.0,11140006021019020160399904999051989751600007000080000
2059,URMN,43.5129013062,43.6366004944,2023-08-16 00:00:00,,,,,23.0,99999,99999,18.0,3.0,260.0,10000.0,99999,6.0,98982.3,0.0,11160626031023020180399904999051989823600007000086000
2072,UWLW,54.4010009766,48.8027000427,2023-08-16 00:00:00,,,,,19.0,99999,99999,18.0,4.0,320.0,10000.0,99999,,98984.3,0.0,11160032041019020180399904999051989843600007000080000
2106,EGUL,52.4093017578,0.5609999895,2023-08-15 23:55:00,,,,,13.9,99999,99999,13.7,0.0,0.0,10000.0,99999,1.0,98981.0,0.0,11160100001013920139399904999051989810600007000081000
2108,EGVA,51.6822013855,-1.7900300026,2023-08-15 23:55:00,,,,,13.0,99999,99999,12.8,0.0,0.0,10000.0,99999,,98979.9,0.0,11160000001013020120399904999051989798600007000080000
2111,LIRN,40.8860015869,14.2908000946,2023-08-15 23:50:00,,,,,23.0,99999,99999,21.0,3.0,100.0,10000.0,99999,,98981.2,0.0,11160010031023020210399904999051989811600007000080000
2141,EGVN,51.75,-1.5836199522,2023-08-15 23:50:00,,,,,14.0,99999,99999,12.0,3.0,250.0,10000.0,99999,1.0,98980.0,0.0,11160125031014020120399904999051989800600007000081000
2146,EGXC,53.0929985046,-0.1660140008,2023-08-15 23:50:00,,,,,15.0,99999,99999,12.0,6.0,320.0,10000.0,99999,,98980.7,0.0,11160032061015020120399904999051989806600007000080000
2196,LKKB,50.1213989258,14.5436000824,2023-08-16 00:00:00,,,,,20.0,99999,99999,16.0,7.0,240.0,10000.0,99999,,0.0,0.0,11160024071020020160399904999051000600007000080000
2197,LKKV,50.202999115,12.9149999619,2023-08-16 00:00:00,41.0,36.0,J,yellow,16.0,99999,99999,16.0,2.0,,10000.0,99999,,98980.7,0.0,11160036021016020160399904999051989806600007410080000
2198,LKLN,49.675201416,13.274600029,2023-08-16 00:00:00,,,,,19.0,99999,99999,18.0,0.0,0.0,6000.0,99999,5.0,98979.8,0.0,11130500001019020180399904999051989798600007000085000
2203,LOXZ,47.2028007507,14.7441997528,2023-08-15 23:50:00,,,,,17.0,99999,99999,15.0,1.0,,10000.0,99999,3.0,98978.6,0.0,11160336011017020150399904999051989786600007000083000
2213,LTCD,39.7102012634,39.5270004272,2023-08-15 23:50:00,,,,,14.0,99999,99999,5.0,1.0,,10000.0,99999,,98986.7,0.0,1116003601101402050399904999051989866600007000080000
2214,LTCF,40.5621986389,43.1150016785,2023-08-15 23:50:00,,,,,14.0,99999,99999,8.0,0.0,0.0,10000.0,99999,,98981.2,0.0,1116000000101402080399904999051989811600007000080000
2217,LTFH,41.2545013428,36.5671005249,2023-08-15 23:50:00,,,,,22.0,99999,99999,21.0,1.0,190.0,6000.0,99999,2.0,0.0,0.0,11130219011022020210399904999051000600007000082000
2274,LICJ,38.1759986877,13.0909996033,2023-08-15 23:50:00,,,,,24.0,99999,99999,17.0,2.0,140.0,10000.0,99999,,98980.9,0.0,11160014021024020170399904999051989808600007000080000
2277,EIME,53.301700592,-6.4513301849,2023-08-16 00:00:00,,,,,12.0,99999,99999,11.0,3.0,,10000.0,99999,3.0,98979.5,0.0,11160336031012020110399904999051989795600007000083000
2288,LPBJ,38.0788993835,-7.9324002266,2023-08-16 00:00:00,,,,,20.0,99999,99999,15.0,7.0,310.0,10000.0,99999,,98984.6,0.0,11160031071020020150399904999051989846600007000080000
2298,LIPC,44.2242012024,12.3072004318,2023-08-15 23:55:00,,,,,21.0,99999,99999,18.0,5.0,230.0,10000.0,99999,,98982.0,0.0,11160023051021020180399904999051989820600007000080000
2300,LIPI,45.9786987305,13.0493001938,2023-08-15 23:55:00,,,,,24.0,99999,99999,20.0,99999.0,,10000.0,99999,,98982.7,0.0,11160036999991024020200399904999051989826600007000080000
2302,LIPS,45.6848983765,12.0829000473,2023-08-15 23:55:00,,,,,23.0,99999,99999,18.0,5.0,360.0,10000.0,99999,,98982.7,0.0,11160036051023020180399904999051989826600007000080000
2332,ETIH,49.2181015015,11.8360996246,2023-08-15 23:55:00,,,,,19.0,99999,99999,17.0,0.0,0.0,10000.0,99999,,98979.9,0.2,11160000001019020170399904999051989798600207000080000
2333,ETIK,49.4738998413,10.3880996704,2023-08-15 23:55:00,,,,,17.5,99999,99999,17.0,0.0,0.0,10000.0,99999,,98980.3,0.0,11160000001017520175399904999051989803600007000080000
2371,LIBA,41.5414009094,15.7180995941,2023-08-15 23:55:00,,,,,21.0,99999,99999,17.0,4.0,230.0,10000.0,99999,,98983.0,0.0,11160023041021020170399904999051989830600007000080000
2372,LIBN,40.239200592,18.1333007813,2023-08-15 23:55:00,,,,,20.0,99999,99999,20.0,2.0,,10000.0,99999,,98982.8,0.0,11160036021020020200399904999051989828600007000080000
2373,LIBV,40.7677993774,16.9333000183,2023-08-15 23:55:00,,,,,21.0,99999,99999,16.0,1.0,,10000.0,99999,,98981.9,0.0,11160036011021020160399904999051989818600007000080000
2375,LIED,39.3541984558,8.9724798203,2023-08-15 23:55:00,,,,,23.0,99999,99999,21.0,2.0,30.0,10000.0,99999,,98981.3,0.0,11160003021023020210399904999051989813600007000080000
2376,LIRE,41.654499054,12.4451999664,2023-08-15 23:55:00,,,,,23.0,99999,99999,21.0,1.0,,10000.0,99999,1.0,98981.6,0.0,11160136011023020210399904999051989816600007000081000
2377,LIRS,42.7597007751,11.0719003677,2023-08-15 23:55:00,,,,,24.0,99999,99999,21.0,1.0,350.0,10000.0,99999,1.0,98981.9,0.0,11160135011024020210399904999051989818600007000081000
2382,EGUN,52.3619003296,0.4864059985,2023-08-15 23:55:00,,,,,14.0,99999,99999,14.0,0.0,0.0,10000.0,99999,4.0,98980.6,0.0,11160400001014020140399904999051989806600007000084000
2383,LICZ,37.4016990662,14.9224004745,2023-08-15 23:55:00,,,,,23.0,99999,99999,19.0,4.0,270.0,10000.0,99999,3.0,98981.9,0.0,11160327041023020190399904999051989818600007000083000
2384,LIRM,41.060798645,14.0818996429,2023-08-15 23:55:00,,,,,20.0,99999,99999,18.0,2.0,300.0,10000.0,99999,,98981.4,0.0,11160030021020020180399904999051989813600007000080000
2398,ULOO,57.7839012146,28.3955993652,2023-08-16 00:00:00,,,,,16.0,99999,99999,14.0,2.0,130.0,10000.0,99999,,98976.2,0.0,11160013021016020140399904999051989761600007000080000
2399,ULPB,61.8852005005,34.1547012329,2023-08-16 00:00:00,,,,,15.0,99999,99999,15.0,1.0,,10000.0,99999,,98977.9,0.0,11160036011015020150399904999051989778600007000080000
2410,LATI,41.4146995544,19.7206001282,2023-08-16 00:20:00,,,,,19.0,99999,99999,18.0,3.0,,10000.0,99999,,98983.2,0.0,11160036031019020180399904999051989831600007000080000
2415,EVGA,56.778301239,24.8539009094,2023-08-16 00:20:00,,,,,22.0,99999,99999,18.0,5.0,140.0,10000.0,99999,,98980.0,0.0,11160014051022020180399904999051989800600007000080000
2453,EVVA,57.35779953,21.5442008972,2023-08-16 00:20:00,,,,,19.0,99999,99999,19.0,4.0,170.0,10000.0,99999,,0.0,0.0,11160017041019020190399904999051000600007000080000
2464,LSZC,46.9744444444,8.3969444444,2023-08-16 00:20:00,,,,,19.0,99999,99999,16.0,3.0,,10000.0,99999,,98980.5,0.0,11160036031019020160399904999051989805600007000080000
2493,EKRS,55.4258003235,11.8066997528,2023-08-16 00:20:00,,,,,15.0,99999,99999,15.0,1.0,,10000.0,99999,,98982.0,0.0,11160036011015020150399904999051989820600007000080000
2511,LSMA,46.943901062,8.2841701508,2023-08-16 00:20:00,,,,,19.0,99999,99999,18.0,2.0,,10000.0,99999,,98979.1,0.0,11160036021019020180399904999051989791600007000080000
2512,LSMD,47.398601532,8.648229599,2023-08-16 00:20:00,,,,,20.0,99999,99999,17.0,0.0,0.0,10000.0,99999,,98981.2,0.0,11160000001020020170399904999051989811600007000080000
2513,LSME,47.0923995972,8.3051204681,2023-08-16 00:20:00,,,,,19.0,99999,99999,17.0,0.0,0.0,10000.0,99999,,98981.4,0.0,11160000001019020170399904999051989813600007000080000
2514,LSMM,46.7433013916,8.1099996567,2023-08-16 00:20:00,,,,,18.0,99999,99999,16.0,6.0,100.0,10000.0,99999,,98978.0,0.0,11160010061018020160399904999051989780600007000080000
2515,LSMP,46.8432006836,6.9150600433,2023-08-16 00:20:00,,,,,19.0,99999,99999,16.0,1.0,190.0,10000.0,99999,1.0,98981.8,0.0,11160119011019020160399904999051989818600007000081000
2595,ESGT,58.3180999756,12.345000267,2023-08-16 00:20:00,,,,,12.0,99999,99999,11.0,6.0,150.0,10000.0,99999,,98986.7,0.0,11160015061012020110399904999051989866600007000080000
2596,ESMT,56.6911010742,12.8201999664,2023-08-16 00:20:00,,,,,15.0,99999,99999,14.0,3.0,,10000.0,99999,1.0,98983.2,0.0,11160136031015020140399904999051989831600007000081000
2597,ESTA,56.2961006165,12.8471002579,2023-08-16 00:20:00,,,,,15.0,99999,99999,14.0,4.0,190.0,10000.0,99999,,98983.5,0.0,11160019041015020140399904999051989835600007000080000
2598,ESTL,56.0828018188,13.2124996185,2023-08-16 00:20:00,,,,,16.0,99999,99999,16.0,3.0,220.0,10000.0,99999,,98983.4,0.0,11160022031016020160399904999051989833600007000080000
2602,EGHQ,50.4406013489,-4.9954099655,2023-08-16 00:20:00,,,,,14.0,99999,99999,13.0,4.0,10.0,10000.0,99999,1.0,98978.5,0.0,11160101041014020130399904999051989785600007000081000
2604,EGCK,53.1041984558,-4.340280056,2023-08-16 00:20:00,,,,,11.0,99999,99999,10.0,2.0,,10000.0,99999,,98979.3,0.0,11160036021011020100399904999051989793600007000080000
2677,EFHA,61.8559989929,24.7866001129,2023-08-16 00:20:00,,,,,19.0,99999,99999,13.0,8.0,150.0,10000.0,99999,,98979.5,0.0,11160015081019020130399904999051989795600007000080000
2681,EFKT,67.7009963989,24.8467998505,2023-08-16 00:20:00,,,,,13.0,99999,99999,12.0,3.0,140.0,10000.0,99999,,98983.3,0.0,11160014031013020120399904999051989833600007000080000
2683,EFSA,61.9430999756,28.9451007843,2023-08-16 00:20:00,,,,,14.0,99999,99999,14.0,3.0,140.0,10000.0,99999,,98977.3,0.0,11160014031014020140399904999051989773600007000080000
2684,EFSI,62.6921005249,22.8323001862,2023-08-16 00:20:00,,,,,99999.0,99999,99999,99999.0,9.0,180.0,9000.0,99999,,0.0,0.0,11150018091099999020999990399904999051000600007000080000
2685,EFUT,60.8964004517,26.9384002686,2023-08-16 00:20:00,,,,,16.0,99999,99999,14.0,8.0,130.0,10000.0,99999,,98977.8,0.0,11160013081016020140399904999051989778600007000080000
2718,ESNZ,63.1944007874,14.5003004074,2023-08-16 00:20:00,,,,,14.0,99999,99999,99999.0,3.0,250.0,9000.0,99999,7.0,98986.9,1.1,11150725031014020999990399904999051989868601107000087000
2729,ESOH,60.0200996399,13.5789003372,2023-08-16 00:20:00,,,,,17.0,99999,99999,17.0,3.0,160.0,9000.0,99999,3.0,98986.9,0.0,11150316031017020170399904999051989868600007000083000
2730,ESCF,58.4023017883,15.5256996155,2023-08-16 00:20:00,,,,,17.0,99999,99999,16.0,5.0,190.0,5000.0,99999,3.0,98984.5,0.0,11130319051017020160399904999051989845600007000083000
2732,ESIB,58.426399231,12.7144002914,2023-08-16 00:20:00,,,,,13.0,99999,99999,13.0,5.0,190.0,10000.0,99999,,98985.1,0.0,11160019051013020130399904999051989851600007000080000
2733,ESMV,57.2921981812,14.1372003555,2023-08-16 00:20:00,,,,,16.0,99999,99999,15.0,4.0,190.0,10000.0,99999,6.0,98984.2,0.0,11160619041016020150399904999051989841600007000086000
2735,ESPE,65.8752975464,20.1499004364,2023-08-16 00:20:00,81.0,36.0,r,green,14.0,99999,99999,14.0,3.0,120.0,10000.0,99999,,98983.1,0.0,11160012031014020140399904999051989831600007810080000
2737,ESIA,58.5138015747,14.5071001053,2023-08-16 00:20:00,,,,,17.0,99999,99999,17.0,5.0,250.0,10000.0,99999,6.0,98985.1,0.0,11160625051017020170399904999051989851600007000086000
2738,ESCM,59.8973007202,17.5886001587,2023-08-16 00:20:00,,,,,18.0,99999,99999,17.0,4.0,200.0,10000.0,99999,,98984.9,1.8,11160020041018020170399904999051989848601807000080000
2743,ESNV,64.5791015625,16.8335990906,2023-08-16 00:20:00,63.0,36.0,',green,14.0,99999,99999,12.0,3.0,90.0,8000.0,99999,7.0,98983.5,0.0,11140709031014020120399904999051989835600007630087000
2745,ESST,60.1576004028,12.9912996292,2023-08-16 00:20:00,,,,,17.0,99999,99999,16.0,5.0,220.0,10000.0,99999,7.0,0.0,0.0,11160722051017020160399904999051000600007000087000
2746,ESUP,67.2455978394,23.0688991547,2023-08-16 00:20:00,,,,,14.0,99999,99999,14.0,4.0,120.0,10000.0,99999,7.0,98983.6,0.0,11160712041014020140399904999051989836600007000087000
2747,ESND,62.0477981567,14.4229001999,2023-08-16 00:20:00,,,,,15.0,99999,99999,15.0,2.0,,6000.0,99999,8.0,98987.3,0.1,11130836021015020150399904999051989873600107000088000
2786,EVLA,56.5175018311,21.0969009399,2023-08-16 00:20:00,,,,,18.0,99999,99999,17.0,1.0,,10000.0,99999,,98981.8,0.0,11160036011018020170399904999051989818600007000080000
2788,EYKA,54.9639015198,24.0848007202,2023-08-16 00:20:00,,,,,23.0,99999,99999,16.0,5.0,170.0,10000.0,99999,,0.0,0.0,11160017051023020160399904999051000600007000080000
2789,EYPA,55.9732017517,21.0939006805,2023-08-16 00:20:00,,,,,18.0,99999,99999,17.0,1.0,50.0,10000.0,99999,,98981.5,0.0,11160005011018020170399904999051989815600007000080000
2794,LIMZ,44.547000885,7.6232199669,2023-08-16 00:20:00,,,,,22.0,99999,99999,20.0,3.0,270.0,10000.0,99999,6.0,0.0,0.0,11160627031022020200399904999051000600007000086000
2799,LICB,36.9946010208,14.6071815491,2023-08-16 00:20:00,,,,,18.0,99999,99999,10.0,2.0,90.0,10000.0,99999,,98980.8,0.0,11160009021018020100399904999051989808600007000080000
2801,LIPO,45.4289016724,10.3305997849,2023-08-16 00:20:00,,,,,25.0,99999,99999,18.0,11.0,40.0,10000.0,99999,3.0,0.0,0.0,11160304111025020180399904999051000600007000083000
2861,EFET,68.3626022339,23.4242992401,2023-08-16 00:20:00,,,,,9.0,99999,99999,9.0,3.0,60.0,10000.0,99999,,0.0,0.0,1116000603100902090399904999051000600007000080000
2862,EFJO,62.6628990173,29.6075000763,2023-08-16 00:20:00,,,,,15.0,99999,99999,14.0,2.0,,10000.0,99999,,98977.8,0.0,11160036021015020140399904999051989778600007000080000
2864,EFKS,65.9876022339,29.2394008636,2023-08-16 00:20:00,,,,,11.0,99999,99999,11.0,3.0,80.0,5000.0,99999,,98980.7,0.0,11130008031011020110399904999051989806600007000080000
2866,EFLP,61.0446014404,28.1443996429,2023-08-16 00:20:00,,,,,16.0,99999,99999,14.0,4.0,150.0,10000.0,99999,,98976.8,0.0,11160015041016020140399904999051989768600007000080000
2867,EFMI,61.6865997314,27.2017993927,2023-08-16 00:20:00,,,,,15.0,99999,99999,13.0,4.0,130.0,10000.0,99999,,98978.0,0.0,11160013041015020130399904999051989780600007000080000
2934,EDBC,51.8563995361,11.42029953,2023-08-16 00:20:00,,,,,18.0,99999,99999,18.0,5.0,230.0,7000.0,99999,4.0,98980.0,1.2,11140423051018020180399904999051989800601107000084000
3003,EDJA,47.9888000488,10.2395000458,2023-08-16 00:20:00,,,,,16.0,99999,99999,16.0,4.0,30.0,5000.0,99999,1.0,0.0,0.0,11130103041016020160399904999051000600007000081000
3010,EDTY,49.1183319092,9.7838888168,2023-08-16 00:20:00,,,,,17.0,99999,99999,15.0,2.0,20.0,10000.0,99999,1.0,98980.6,0.0,11160102021017020150399904999051989806600007000081000
3014,EDWE,53.3911094666,7.2274999619,2023-08-16 00:20:00,,,,,13.0,99999,99999,13.0,5.0,270.0,10000.0,99999,,98979.9,0.0,11160027051013020130399904999051989798600007000080000
3017,EKBI,55.7402992249,9.1517801285,2023-08-16 00:20:00,,,,,16.0,99999,99999,13.0,9.0,230.0,10000.0,99999,8.0,98982.4,0.0,11160823091016020130399904999051989823600007000088000
3018,EKCH,55.6179008484,12.6560001373,2023-08-16 00:20:00,,,,,15.0,99999,99999,14.0,4.0,220.0,10000.0,99999,,98982.0,0.0,11160022041015020140399904999051989820600007000080000
3019,EKEB,55.5259017944,8.5534000397,2023-08-16 00:20:00,,,,,17.0,99999,99999,14.0,15.0,240.0,10000.0,99999,8.0,98982.0,0.0,11160824151017020140399904999051989820600007000088000
3021,EKRK,55.5856018066,12.1314001083,2023-08-16 00:20:00,,,,,14.0,99999,99999,12.0,2.0,250.0,10000.0,99999,,98981.7,0.0,11160025021014020120399904999051989816600007000080000
3022,EKRN,55.0633010864,14.7595996857,2023-08-16 00:20:00,51.0,36.0,T,green,19.0,99999,99999,17.0,6.0,310.0,10000.0,99999,4.0,98982.0,0.0,11160431061019020170399904999051989820600007510084000
3023,EKSB,54.9644012451,9.7917299271,2023-08-16 00:20:00,,,,,15.0,99999,99999,14.0,4.0,220.0,10000.0,99999,1.0,98981.7,0.0,11160122041015020140399904999051989816600007000081000
3024,EKSP,55.2256011963,9.2639303207,2023-08-16 00:20:00,,,,,14.0,99999,99999,13.0,5.0,210.0,10000.0,99999,3.0,98982.0,0.0,11160321051014020130399904999051989820600007000083000
3025,EKVD,55.4362983704,9.3309202194,2023-08-16 00:20:00,,,,,15.0,99999,99999,14.0,7.0,220.0,10000.0,99999,,98982.6,0.0,11160022071015020140399904999051989826600007000080000
3028,LOWI,47.2602005005,11.3439998627,2023-08-16 00:20:00,,,,,18.0,99999,99999,17.0,2.0,,10000.0,99999,,98978.8,0.0,11160036021018020170399904999051989788600007000080000
3031,LOWS,47.7933006287,13.0043001175,2023-08-16 00:20:00,,,,,18.0,99999,99999,17.0,7.0,150.0,10000.0,99999,4.0,98979.9,0.0,11160415071018020170399904999051989798600007000084000
3033,EETN,59.4132995605,24.8327999115,2023-08-16 00:20:00,17.0,36.0,2,red,18.0,99999,99999,16.0,9.0,120.0,10000.0,99999,2.0,98979.2,0.0,11160212091018020160399904999051989791600007170082000
3034,EFHK,60.317199707,24.963300705,2023-08-16 00:20:00,,,,,20.0,99999,99999,16.0,9.0,130.0,10000.0,99999,1.0,98978.9,0.0,11160113091020020160399904999051989788600007000081000
3035,EFIV,68.6072998047,27.4053001404,2023-08-16 00:20:00,,,,,11.0,99999,99999,11.0,3.0,240.0,10000.0,99999,,98983.3,0.0,11160024031011020110399904999051989833600007000080000
3036,EFJY,62.3995018005,25.6783008575,2023-08-16 00:20:00,,,,,15.0,99999,99999,14.0,5.0,140.0,10000.0,99999,,98979.0,0.0,11160014051015020140399904999051989790600007000080000
3037,EFKE,65.7787017822,24.5820999146,2023-08-16 00:20:00,61.0,36.0,^,green,16.0,99999,99999,15.0,6.0,180.0,10000.0,99999,,98981.9,0.0,11160018061016020150399904999051989818600007610080000
3038,EFKK,63.7211990356,23.1431007385,2023-08-16 00:20:00,61.0,36.0,^,green,17.0,99999,99999,15.0,5.0,160.0,10000.0,99999,3.0,98981.5,0.0,11160316051017020150399904999051989815600007610083000
3040,EFMA,60.1222000122,19.8981990814,2023-08-16 00:20:00,,,,,17.0,99999,99999,17.0,5.0,200.0,10000.0,99999,2.0,98983.1,0.0,11160220051017020170399904999051989831600007000082000
3041,EFOU,64.9300994873,25.3546009064,2023-08-16 00:20:00,,,,,15.0,99999,99999,13.0,7.0,130.0,10000.0,99999,,98980.7,0.0,11160013071015020130399904999051989806600007000080000
3042,EFPO,61.4617004395,21.7999992371,2023-08-16 00:20:00,80.0,36.0,q,green,17.0,99999,99999,16.0,4.0,40.0,10000.0,99999,1.0,98981.9,0.0,11160104041017020160399904999051989818600007800081000
3043,EFRO,66.5647964478,25.8304004669,2023-08-16 00:20:00,,,,,14.0,99999,99999,14.0,8.0,160.0,6000.0,99999,8.0,98982.0,0.0,11130816081014020140399904999051989820600007000088000
3044,EFTP,61.414100647,23.6044006348,2023-08-16 00:20:00,,,,,19.0,99999,99999,13.0,9.0,140.0,10000.0,99999,,98980.0,0.0,11160014091019020130399904999051989800600007000080000
3045,EFTU,60.5140991211,22.2628002167,2023-08-16 00:20:00,,,,,19.0,99999,99999,17.0,5.0,140.0,10000.0,99999,7.0,98981.1,0.0,11160714051019020170399904999051989811600007000087000
3048,ENBR,60.2933998108,5.2181401253,2023-08-16 00:20:00,10.0,36.0,+,yellow,14.0,99999,99999,14.0,5.0,330.0,1200.0,99999,6.0,0.0,0.0,11100633051014020140399904999051000600007100086000
3049,ENCN,58.2042007446,8.0853700638,2023-08-16 00:20:00,,,,,15.0,99999,99999,14.0,3.0,50.0,10000.0,99999,7.0,98987.5,0.4,11160705031015020140399904999051989875600407000087000
3051,ENHD,59.3452987671,5.2083601952,2023-08-16 00:20:00,45.0,36.0,N,yellow,15.0,99999,99999,14.0,5.0,290.0,400.0,99999,,98988.3,0.0,11100029051015020140399904999051989883600007450080000
3054,ENVA,63.4578018188,10.9239997864,2023-08-16 00:20:00,61.0,36.0,^,green,16.0,99999,99999,15.0,3.0,80.0,10000.0,99999,3.0,98988.0,0.0,11160308031016020150399904999051989880600007610083000
3055,ENZV,58.876701355,5.6377801895,2023-08-16 00:20:00,,,,,15.0,99999,99999,15.0,3.0,360.0,10000.0,99999,8.0,0.0,0.0,11160836031015020150399904999051000600007000088000
3056,EVRA,56.9235992432,23.9710998535,2023-08-16 00:20:00,,,,,20.0,99999,99999,19.0,3.0,190.0,10000.0,99999,,0.0,0.0,11160019031020020190399904999051000600007000080000
3057,EYVI,54.6341018677,25.2858009338,2023-08-16 00:20:00,,,,,20.0,99999,99999,18.0,6.0,160.0,10000.0,99999,,98978.0,0.0,11160016061020020180399904999051989780600007000080000
3058,LGAV,37.9364013672,23.9444999695,2023-08-16 00:20:00,,,,,22.0,99999,99999,17.0,5.0,280.0,10000.0,99999,,0.0,0.0,11160028051022020170399904999051000600007000080000
3060,LGIR,35.3396987915,25.1802997589,2023-08-16 00:20:00,,,,,23.0,99999,99999,20.0,7.0,170.0,10000.0,99999,,98985.5,0.0,11160017071023020200399904999051989855600007000080000
3062,LGKR,39.6018981934,19.911699295,2023-08-16 00:20:00,,,,,23.0,99999,99999,20.0,0.0,0.0,10000.0,99999,,98984.7,0.0,11160000001023020200399904999051989846600007000080000
3063,LGRP,36.4053993225,28.0862007141,2023-08-16 00:20:00,,,,,26.0,99999,99999,25.0,11.0,230.0,10000.0,99999,,98989.1,0.0,11160023111026020250399904999051989891600007000080000
3068,LIBD,41.1389007568,16.7605991364,2023-08-16 00:20:00,,,,,21.0,99999,99999,14.0,4.0,210.0,10000.0,99999,,98982.1,0.0,11160021041021020140399904999051989821600007000080000
3069,LIBR,40.6576004028,17.9470005035,2023-08-16 00:20:00,,,,,24.0,99999,99999,21.0,5.0,350.0,10000.0,99999,,98982.7,0.0,11160035051024020210399904999051989826600007000080000
3070,LICC,37.4668006897,15.0663995743,2023-08-16 00:20:00,,,,,21.0,99999,99999,17.0,5.0,240.0,10000.0,99999,,98981.8,0.0,11160024051021020170399904999051989818600007000080000
3078,LIPE,44.5354003906,11.2887001038,2023-08-16 00:20:00,,,,,24.0,99999,99999,19.0,5.0,200.0,10000.0,99999,,98983.1,0.0,11160020051024020190399904999051989831600007000080000
3079,LIPH,45.648399353,12.1943998337,2023-08-16 00:20:00,,,,,24.0,99999,99999,17.0,2.0,,10000.0,99999,,98982.5,0.0,11160036021024020170399904999051989825600007000080000
3080,LIPQ,45.8274993896,13.4722003937,2023-08-16 00:20:00,,,,,22.0,99999,99999,19.0,2.0,,10000.0,99999,6.0,98982.7,0.0,11160636021022020190399904999051989826600007000086000
3081,LIPR,44.0203018188,12.611700058,2023-08-16 00:20:00,,,,,22.0,99999,99999,17.0,2.0,,10000.0,99999,,98982.9,0.0,11160036021022020170399904999051989828600007000080000
3088,LIPX,45.3956985474,10.8885002136,2023-08-16 00:20:00,,,,,24.0,99999,99999,17.0,2.0,,10000.0,99999,,98981.8,0.0,11160036021024020170399904999051989818600007000080000
3090,ENAL,62.5625,6.119699955,2023-08-16 00:20:00,,,,,14.0,99999,99999,12.0,11.0,360.0,10000.0,99999,8.0,98987.1,0.3,11160836111014020120399904999051989871600307000088000
3096,ENDU,69.0558013916,18.5403995514,2023-08-16 00:20:00,,,,,12.0,99999,99999,12.0,3.0,10.0,10000.0,99999,3.0,0.0,0.0,11160301031012020120399904999051000600007000083000
3111,ENRO,62.5783996582,11.342300415,2023-08-16 00:20:00,45.0,36.0,N,yellow,11.0,99999,99999,10.0,3.0,210.0,900.0,99999,4.0,98987.7,1.7,11100421031011020100399904999051989876601707450084000
3113,ENRY,59.3788986206,10.7855997086,2023-08-16 00:20:00,,,,,16.0,99999,99999,14.0,9.0,200.0,10000.0,99999,8.0,0.0,0.0,11160820091016020140399904999051000600007000088000
3118,ENTO,59.1866989136,10.258600235,2023-08-16 00:20:00,,,,,15.0,99999,99999,15.0,5.0,200.0,10000.0,99999,5.0,0.0,0.0,11160520051015020150399904999051000600007000085000
3120,ESDF,56.2667007446,15.2650003433,2023-08-16 00:20:00,,,,,17.0,99999,99999,17.0,2.0,280.0,3300.0,99999,6.0,98982.5,0.0,11120628021017020170399904999051989825600007000086000
3121,ESGG,57.6627998352,12.279800415,2023-08-16 00:20:00,,,,,14.0,99999,99999,13.0,6.0,220.0,10000.0,99999,6.0,98985.2,0.0,11160622061014020130399904999051989851600007000086000
3122,ESGJ,57.757598877,14.0686998367,2023-08-16 00:20:00,,,,,16.0,99999,99999,16.0,5.0,190.0,6000.0,99999,1.0,98984.0,0.0,11130119051016020160399904999051989840600007000081000
3123,ESGP,57.7747001648,11.8704004288,2023-08-16 00:20:00,,,,,14.0,99999,99999,13.0,5.0,180.0,10000.0,99999,3.0,98985.0,0.0,11160318051014020130399904999051989850600007000083000
3124,ESKN,58.7886009216,16.9122009277,2023-08-16 00:20:00,45.0,36.0,N,yellow,16.0,99999,99999,15.0,3.0,220.0,150.0,99999,,98984.1,0.0,11100022031016020150399904999051989841600007450080000
3125,ESMK,55.9216995239,14.0854997635,2023-08-16 00:20:00,,,,,18.0,99999,99999,15.0,3.0,290.0,10000.0,99999,3.0,98982.4,0.0,11160329031018020150399904999051989823600007000083000
3126,ESMS,55.536305364,13.3761978149,2023-08-16 00:20:00,,,,,17.0,99999,99999,15.0,3.0,310.0,10000.0,99999,,98982.2,0.0,11160031031017020150399904999051989821600007000080000
3127,ESMX,56.9291000366,14.7279996872,2023-08-16 00:20:00,,,,,17.0,99999,99999,16.0,7.0,220.0,10000.0,99999,,98983.3,0.0,11160022071017020160399904999051989833600007000080000
3128,ESNN,62.5280990601,17.4438991547,2023-08-16 00:20:00,63.0,36.0,',green,16.0,99999,99999,15.0,3.0,100.0,8000.0,99999,5.0,98985.3,0.4,11140510031016020150399904999051989853600407630085000
3129,ESNO,63.4082984924,18.9899997711,2023-08-16 00:20:00,,,,,16.0,99999,99999,16.0,7.0,130.0,10000.0,99999,8.0,98984.1,0.0,11160813071016020160399904999051989841600007000088000
3132,ESOK,59.4446983337,13.3374004364,2023-08-16 00:20:00,,,,,16.0,99999,99999,16.0,5.0,210.0,8000.0,99999,3.0,98986.5,0.0,11140321051016020160399904999051989865600007000083000
3133,ESOW,59.5894012451,16.633600235,2023-08-16 00:20:00,10.0,36.0,+,yellow,18.0,99999,99999,17.0,6.0,190.0,9000.0,99999,8.0,98985.5,0.0,11150819061018020170399904999051989855600007100088000
3134,ESPA,65.543800354,22.1219997406,2023-08-16 00:20:00,,,,,16.0,99999,99999,16.0,5.0,200.0,9000.0,99999,4.0,98983.0,0.0,11150420051016020160399904999051989830600007000084000
3137,ESSD,60.422000885,15.5151996613,2023-08-16 00:20:00,,,,,17.0,99999,99999,16.0,4.0,210.0,10000.0,99999,1.0,98986.5,0.0,11160121041017020160399904999051989865600007000081000
3138,ESSP,58.5862998962,16.2506008148,2023-08-16 00:20:00,45.0,36.0,N,yellow,16.0,99999,99999,15.0,2.0,100.0,150.0,99999,,98985.0,0.0,11100010021016020150399904999051989850600007450080000
3139,ESSV,57.6627998352,18.346200943,2023-08-16 00:20:00,,,,,17.0,99999,99999,16.0,6.0,210.0,10000.0,99999,,98983.3,0.0,11160021061017020160399904999051989833600007000080000
3140,LSGC,47.0839004517,6.792840004,2023-08-16 00:20:00,,,,,20.0,99999,99999,14.0,5.0,30.0,10000.0,99999,,98979.7,0.0,11160003051020020140399904999051989796600007000080000
3141,LSGG,46.2380981445,6.1089501381,2023-08-16 00:20:00,,,,,20.0,99999,99999,14.0,1.0,,10000.0,99999,,98982.1,0.0,11160036011020020140399904999051989821600007000080000
3142,LSGS,46.2196006775,7.3267598152,2023-08-16 00:20:00,,,,,23.0,99999,99999,15.0,2.0,,10000.0,99999,1.0,98981.9,0.0,11160136021023020150399904999051989818600007000081000
3143,LSZA,46.0042991638,8.9105796814,2023-08-16 00:20:00,61.0,36.0,^,green,21.0,99999,99999,21.0,2.0,,10000.0,99999,6.0,98981.5,0.0,11160636021021020210399904999051989815600007610086000
3144,LSZB,46.914100647,7.4971499443,2023-08-16 00:20:00,,,,,17.0,99999,99999,15.0,0.0,0.0,10000.0,99999,,98980.7,0.0,11160000001017020150399904999051989806600007000080000
3145,LSZG,47.1815986633,7.4171900749,2023-08-16 00:20:00,,,,,18.0,99999,99999,17.0,1.0,,10000.0,99999,,98981.5,0.0,11160036011018020170399904999051989815600007000080000
3146,LSZH,47.4646987915,8.5491695404,2023-08-16 00:20:00,,,,,18.0,99999,99999,16.0,2.0,,10000.0,99999,,98981.8,0.0,11160036021018020160399904999051989818600007000080000
3147,LSZL,46.1608009338,8.8786096573,2023-08-16 00:20:00,,,,,21.0,99999,99999,18.0,3.0,80.0,10000.0,99999,3.0,98980.8,0.0,11160308031021020180399904999051989808600007000083000
3148,LSZR,47.4850006104,9.5607700348,2023-08-16 00:20:00,45.0,36.0,N,yellow,20.0,99999,99999,20.0,6.0,220.0,10000.0,99999,,98981.2,0.0,11160022061020020200399904999051989811600007450080000
3149,LSZS,46.5340995789,9.8841104507,2023-08-16 00:20:00,,,,,11.0,99999,99999,11.0,5.0,20.0,10000.0,99999,6.0,98974.7,0.0,11160602051011020110399904999051989746600007000086000
3151,EGAA,54.6575012207,-6.2158298492,2023-08-16 00:20:00,,,,,12.0,99999,99999,11.0,3.0,160.0,10000.0,99999,8.0,98979.7,0.0,11160816031012020110399904999051989796600007000088000
3152,EGBB,52.4538993835,-1.7480299473,2023-08-16 00:20:00,,,,,14.0,99999,99999,12.0,3.0,330.0,10000.0,99999,,98979.5,0.0,11160033031014020120399904999051989795600007000080000
3153,EGCC,53.3536987305,-2.2749500275,2023-08-16 00:20:00,,,,,13.0,99999,99999,12.0,3.0,210.0,10000.0,99999,5.0,98980.2,0.0,11160521031013020120399904999051989801600007000085000
3154,EGFF,51.3967018127,-3.3433299065,2023-08-16 00:20:00,,,,,14.0,99999,99999,13.0,3.0,340.0,10000.0,99999,,98979.3,0.0,11160034031014020130399904999051989793600007000080000
3159,EGKK,51.1481018066,-0.1902779937,2023-08-16 00:20:00,,,,,14.0,99999,99999,13.0,1.0,190.0,10000.0,99999,,98979.8,0.0,11160019011014020130399904999051989798600007000080000
3160,EGLF,51.2757987976,-0.7763329744,2023-08-16 00:20:00,,,,,14.0,99999,99999,13.0,2.0,210.0,10000.0,99999,,98979.9,0.0,11160021021014020130399904999051989798600007000080000
3161,EGLL,51.4706001282,-0.4619410038,2023-08-16 00:20:00,,,,,16.0,99999,99999,14.0,3.0,270.0,10000.0,99999,,98980.0,0.0,11160027031016020140399904999051989800600007000080000
3162,EGMD,50.9561004639,0.9391670227,2023-08-16 00:20:00,,,,,12.0,99999,99999,11.0,2.0,,10000.0,99999,,0.0,0.0,11160036021012020110399904999051000600007000080000
3163,EGNJ,53.5744018555,-0.3508329988,2023-08-16 00:20:00,61.0,36.0,^,green,13.0,99999,99999,12.0,2.0,240.0,3300.0,99999,,98980.0,0.0,11120024021013020120399904999051989800600007610080000
3165,EGNM,53.8658981323,-1.6605700254,2023-08-16 00:20:00,,,,,12.0,99999,99999,11.0,8.0,270.0,10000.0,99999,,98980.0,0.0,11160027081012020110399904999051989800600007000080000
3167,EGPA,58.9578018188,-2.9049999714,2023-08-16 00:20:00,,,,,13.0,99999,99999,12.0,2.0,290.0,6000.0,99999,6.0,98981.5,0.0,11130629021013020120399904999051989815600007000086000
3168,EGPB,59.8788986206,-1.2955600023,2023-08-16 00:20:00,,,,,12.0,99999,99999,11.0,5.0,350.0,10000.0,99999,8.0,98982.9,0.0,11160835051012020110399904999051989828600007000088000
3178,EGGW,51.8746986389,-0.3683330119,2023-08-16 00:20:00,,,,,15.0,99999,99999,12.0,6.0,310.0,10000.0,99999,,98980.4,0.0,11160031061015020120399904999051989803600007000080000
3179,EGLC,51.5052986145,0.0552779995,2023-08-16 00:20:00,,,,,18.0,99999,99999,14.0,3.0,220.0,10000.0,99999,,98980.0,0.0,11160022031018020140399904999051989800600007000080000
3180,EGPC,58.4589004517,-3.0930600166,2023-08-16 00:20:00,,,,,13.0,99999,99999,11.0,3.0,300.0,10000.0,99999,8.0,98981.3,0.0,11160830031013020110399904999051989813600007000088000
3181,EGPE,57.5424995422,-4.0475001335,2023-08-16 00:20:00,,,,,14.0,99999,99999,12.0,0.0,0.0,10000.0,99999,6.0,98981.0,0.0,11160600001014020120399904999051989810600007000086000
3182,EGPF,55.8718986511,-4.4330601692,2023-08-16 00:20:00,,,,,11.0,99999,99999,10.0,4.0,240.0,10000.0,99999,,98981.0,0.0,11160024041011020100399904999051989810600007000080000
3183,EGPL,57.481098175,-7.3627800941,2023-08-16 00:20:00,,,,,14.0,99999,99999,14.0,6.0,40.0,10000.0,99999,,98980.1,0.0,11160004061014020140399904999051989801600007000080000
3186,EGSS,51.8849983215,0.2349999994,2023-08-16 00:20:00,,,,,15.0,99999,99999,13.0,3.0,260.0,10000.0,99999,,98980.4,0.0,11160026031015020130399904999051989803600007000080000
3192,EDGS,50.707698822,8.0829696655,2023-08-16 00:20:00,,,,,17.0,99999,99999,17.0,4.0,220.0,700.0,99999,3.0,98980.0,0.0,11100322041017020170399904999051989800600007000083000
3193,EDLV,51.6024017334,6.1421699524,2023-08-16 00:20:00,,,,,18.0,99999,99999,14.0,2.0,,10000.0,99999,4.0,0.0,0.0,11160436021018020140399904999051000600007000084000
3195,EGPI,55.6819000244,-6.2566699982,2023-08-16 00:20:00,,,,,14.0,99999,99999,13.0,6.0,310.0,10000.0,99999,8.0,98980.4,0.0,11160831061014020130399904999051989803600007000088000
3200,ESNG,67.1324005127,20.8145999908,2023-08-16 00:20:00,,,,,12.0,99999,99999,11.0,2.0,310.0,10000.0,99999,8.0,98983.1,0.0,11160831021012020110399904999051989831600007000088000
3201,ESNK,63.0485992432,17.7688999176,2023-08-16 00:20:00,,,,,17.0,99999,99999,16.0,6.0,160.0,10000.0,99999,7.0,98984.6,0.5,11160716061017020160399904999051989846600507000087000
3202,ESNL,64.5483016968,18.7161998749,2023-08-16 00:20:00,51.0,36.0,T,green,15.0,99999,99999,15.0,6.0,110.0,10000.0,99999,4.0,0.0,0.0,11160411061015020150399904999051000600007510084000
3203,ESNX,65.5903015137,19.2819004059,2023-08-16 00:20:00,63.0,36.0,',green,14.0,99999,99999,14.0,6.0,120.0,10000.0,99999,8.0,0.0,0.0,11160812061014020140399904999051000600007630088000
3205,ESSL,58.4062004089,15.6805000305,2023-08-16 00:20:00,,,,,18.0,99999,99999,17.0,7.0,190.0,10000.0,99999,,98984.9,0.0,11160019071018020170399904999051989848600007000080000
3206,ESUT,65.806098938,15.0827999115,2023-08-16 00:20:00,61.0,36.0,^,green,12.0,99999,99999,12.0,2.0,,8000.0,99999,7.0,98984.5,0.0,11140736021012020120399904999051989845600007610087000
3208,ENBS,70.6005020142,29.691400528,2023-08-16 00:20:00,,,,,11.0,99999,99999,10.0,6.0,340.0,10000.0,99999,8.0,98982.5,0.0,11160834061011020100399904999051989825600007000088000
3209,ENHK,70.4867019653,22.1396999359,2023-08-16 00:20:00,,,,,11.0,99999,99999,9.0,1.0,,10000.0,99999,3.0,98980.9,0.0,1116033601101102090399904999051989808600007000083000
3210,ENHV,71.0096969604,25.9836006165,2023-08-16 00:20:00,,,,,11.0,99999,99999,9.0,2.0,,10000.0,99999,8.0,98982.2,0.0,1116083602101102090399904999051989821600007000088000
3211,ENNM,64.4721984863,11.5785999298,2023-08-16 00:20:00,61.0,36.0,^,green,15.0,99999,99999,14.0,0.0,0.0,10000.0,99999,2.0,98987.0,0.0,11160200001015020140399904999051989870600007610082000
3212,ENRM,64.8383026123,11.1461000443,2023-08-16 00:20:00,,,,,13.0,99999,99999,13.0,4.0,10.0,10000.0,99999,,98986.7,0.0,11160001041013020130399904999051989866600007000080000
3213,LGKO,36.7933006287,27.0916996002,2023-08-16 00:20:00,,,,,24.0,99999,99999,21.0,10.0,310.0,10000.0,99999,,98988.1,0.0,11160031101024020210399904999051989881600007000080000
3214,LGSA,35.5317001343,24.1497001648,2023-08-16 00:20:00,,,,,23.0,99999,99999,21.0,9.0,310.0,10000.0,99999,,98985.2,0.0,11160031091023020210399904999051989851600007000080000
3215,LGTS,40.5196990967,22.9708995819,2023-08-16 00:20:00,,,,,22.0,99999,99999,16.0,4.0,110.0,10000.0,99999,1.0,98984.6,0.0,11160111041022020160399904999051989846600007000081000
3216,LIEA,40.6320991516,8.290769577,2023-08-16 00:20:00,,,,,23.0,99999,99999,22.0,3.0,170.0,10000.0,99999,,98981.7,0.0,11160017031023020220399904999051989816600007000080000
3217,LIEE,39.251499176,9.0542802811,2023-08-16 00:20:00,,,,,23.0,99999,99999,21.0,2.0,40.0,10000.0,99999,,98981.4,0.0,11160004021023020210399904999051989813600007000080000
3218,LIEO,40.8987007141,9.5176296234,2023-08-16 00:20:00,,,,,20.0,99999,99999,16.0,1.0,240.0,10000.0,99999,,98981.5,0.0,11160024011020020160399904999051989815600007000080000
3219,LIME,45.6739006042,9.7041702271,2023-08-16 00:20:00,,,,,25.0,99999,99999,17.0,6.0,20.0,10000.0,99999,3.0,98981.6,0.0,11160302061025020170399904999051989816600007000083000
3220,LIMF,45.2008018494,7.6496300697,2023-08-16 00:20:00,,,,,25.0,99999,99999,18.0,5.0,310.0,10000.0,99999,3.0,98980.1,0.0,11160331051025020180399904999051989801600007000083000
3221,LIMJ,44.4132995605,8.8374996185,2023-08-16 00:20:00,,,,,25.0,99999,99999,19.0,2.0,,10000.0,99999,,98981.7,0.0,11160036021025020190399904999051989816600007000080000
3222,LIML,45.445098877,9.2767400742,2023-08-16 00:20:00,,,,,26.0,99999,99999,19.0,5.0,90.0,10000.0,99999,1.0,98982.2,0.0,11160109051026020190399904999051989821600007000081000
3223,LIPZ,45.5052986145,12.3519001007,2023-08-16 00:20:00,,,,,24.0,99999,99999,19.0,6.0,340.0,10000.0,99999,,98982.5,0.0,11160034061024020190399904999051989825600007000080000
3224,LIRA,41.7994003296,12.5949001312,2023-08-16 00:20:00,,,,,23.0,99999,99999,21.0,4.0,150.0,10000.0,99999,,98981.3,0.0,11160015041023020210399904999051989813600007000080000
3225,LIRF,41.8045005798,12.2508001328,2023-08-16 00:20:00,,,,,23.0,99999,99999,22.0,3.0,150.0,10000.0,99999,,98981.0,0.0,11160015031023020220399904999051989810600007000080000
3226,LIRP,43.6838989258,10.3927001953,2023-08-16 00:15:00,,,,,21.0,99999,99999,21.0,3.0,150.0,10000.0,99999,,98981.4,0.0,11160015031021020210399904999051989813600007000080000
3227,LIRQ,43.8100013733,11.2051000595,2023-08-16 00:20:00,,,,,23.0,99999,99999,19.0,2.0,70.0,10000.0,99999,,98981.6,0.0,11160007021023020190399904999051989816600007000080000
3228,LOWG,46.9911003113,15.4395999908,2023-08-16 00:20:00,,,,,20.0,99999,99999,17.0,3.0,280.0,10000.0,99999,,98980.3,0.0,11160028031020020170399904999051989803600007000080000
3229,LOWK,46.6425018311,14.3376998901,2023-08-16 00:20:00,,,,,19.0,99999,99999,17.0,1.0,,10000.0,99999,,98980.2,0.0,11160036011019020170399904999051989801600007000080000
3230,LOWL,48.2332000732,14.1875,2023-08-16 00:20:00,,,,,20.0,99999,99999,18.0,5.0,230.0,10000.0,99999,,98981.0,0.0,11160023051020020180399904999051989810600007000080000
3231,LOWW,48.1102981567,16.5697002411,2023-08-16 00:20:00,,,,,22.0,99999,99999,17.0,4.0,170.0,10000.0,99999,,98981.2,0.0,11160017041022020170399904999051989811600007000080000
3235,ENAT,69.9760971069,23.3717002869,2023-08-16 00:20:00,,,,,12.0,99999,99999,11.0,8.0,300.0,10000.0,99999,8.0,98982.2,0.0,11160830081012020110399904999051989821600007000088000
3236,ENBN,65.4610977173,12.217499733,2023-08-16 00:20:00,,,,,13.0,99999,99999,13.0,5.0,360.0,10000.0,99999,4.0,0.0,0.0,11160436051013020130399904999051000600007000084000
3237,ENBV,70.8713989258,29.0342006683,2023-08-16 00:20:00,,,,,11.0,99999,99999,10.0,8.0,330.0,10000.0,99999,7.0,98982.6,0.0,11160733081011020100399904999051989826600007000087000
3238,ENEV,68.4913024902,16.6781005859,2023-08-16 00:20:00,,,,,13.0,99999,99999,12.0,5.0,10.0,10000.0,99999,4.0,0.0,0.0,11160401051013020120399904999051000600007000084000
3239,ENFL,61.5835990906,5.024720192,2023-08-16 00:20:00,,,,,15.0,99999,99999,13.0,8.0,360.0,10000.0,99999,6.0,98988.6,1.1,11160636081015020130399904999051989886601107000086000
3240,ENKB,63.1118011475,7.8245201111,2023-08-16 00:20:00,53.0,36.0,V,green,14.0,99999,99999,13.0,7.0,10.0,10000.0,99999,7.0,0.0,0.0,11160701071014020130399904999051000600007530087000
3241,ENKR,69.7257995605,29.8913002014,2023-08-16 00:20:00,,,,,13.0,99999,99999,12.0,7.0,70.0,10000.0,99999,3.0,0.0,0.0,11160307071013020120399904999051000600007000083000
3242,ENMH,71.0297012329,27.8267002106,2023-08-16 00:20:00,,,,,11.0,99999,99999,9.0,5.0,340.0,10000.0,99999,8.0,98983.0,0.0,1116083405101102090399904999051989830600007000088000
3243,ENML,62.7447013855,7.2624998093,2023-08-16 00:20:00,61.0,36.0,^,green,15.0,99999,99999,14.0,4.0,140.0,10000.0,99999,1.0,98988.4,0.6,11160114041015020140399904999051989883600607610081000
3244,ENMS,65.783996582,13.2149000168,2023-08-16 00:20:00,,,,,12.0,99999,99999,11.0,0.0,0.0,10000.0,99999,7.0,0.0,0.0,11160700001012020110399904999051000600007000087000
3245,ENRA,66.363899231,14.3014001846,2023-08-16 00:20:00,,,,,11.0,99999,99999,10.0,0.0,0.0,10000.0,99999,3.0,0.0,0.0,11160300001011020100399904999051000600007000083000
3246,ENRS,67.5278015137,12.1033000946,2023-08-16 00:20:00,,,,,13.0,99999,99999,12.0,7.0,30.0,10000.0,99999,6.0,0.0,0.0,11160603071013020120399904999051000600007000086000
3247,ENSK,68.5788269043,15.033416748,2023-08-16 00:20:00,,,,,12.0,99999,99999,10.0,5.0,50.0,10000.0,99999,,98982.4,0.0,11160005051012020100399904999051989823600007000080000
3248,ENVD,70.0652999878,29.8446998596,2023-08-16 00:20:00,51.0,36.0,T,green,13.0,99999,99999,12.0,6.0,100.0,10000.0,99999,8.0,0.0,0.0,11160810061013020120399904999051000600007510088000
3249,LGEL,38.0638008118,23.5559997559,2023-08-16 00:20:00,,,,,24.0,99999,99999,18.0,2.0,,10000.0,99999,,98985.1,0.0,11160036021024020180399904999051989851600007000080000
3250,LGMK,37.4351005554,25.3481006622,2023-08-16 00:20:00,,,,,24.0,99999,99999,19.0,5.0,320.0,10000.0,99999,1.0,98986.5,0.0,11160132051024020190399904999051989865600007000081000
3270,ENBL,61.3911018372,5.756939888,2023-08-16 00:20:00,,,,,13.0,99999,99999,12.0,0.0,0.0,10000.0,99999,8.0,98988.3,0.3,11160800001013020120399904999051989883600307000088000
3271,ENHF,70.6797027588,23.6686000824,2023-08-16 00:20:00,,,,,10.0,99999,99999,9.0,4.0,60.0,10000.0,99999,8.0,0.0,0.0,1116080604101002090399904999051000600007000088000
3272,ENNA,70.0688018799,24.9734992981,2023-08-16 00:20:00,,,,,12.0,99999,99999,11.0,11.0,340.0,10000.0,99999,4.0,98981.7,0.0,11160434111012020110399904999051989816600007000084000
3273,ENSG,61.1561012268,7.1377801895,2023-08-16 00:20:00,61.0,36.0,^,green,11.0,99999,99999,11.0,0.0,0.0,10000.0,99999,4.0,98988.0,0.1,11160400001011020110399904999051989880600107610084000
3274,ENSR,69.7867965698,20.959400177,2023-08-16 00:20:00,,,,,12.0,99999,99999,10.0,9.0,30.0,10000.0,99999,8.0,98981.5,0.0,11160803091012020100399904999051989815600007000088000
3275,ENSS,70.3554000854,31.0449008942,2023-08-16 00:20:00,,,,,12.0,99999,99999,11.0,9.0,340.0,10000.0,99999,4.0,98983.9,0.0,11160434091012020110399904999051989838600007000084000
3276,LGSR,36.3992004395,25.4792995453,2023-08-16 00:20:00,,,,,30.0,99999,99999,19.0,11.0,290.0,10000.0,99999,1.0,98986.2,0.0,11160129111030020190399904999051989861600007000081000
3289,EGGD,51.3827018738,-2.7190899849,2023-08-16 00:20:00,,,,,14.0,99999,99999,13.0,4.0,340.0,10000.0,99999,,98979.0,0.0,11160034041014020130399904999051989790600007000080000
3297,ESKM,60.957901001,14.5114002228,2023-08-16 00:20:00,,,,,99999.0,99999,99999,99999.0,2.0,,10000.0,99999,8.0,98987.2,2.0,11160836021099999020999990399904999051989871602007000088000
3298,ESNS,64.6248016357,21.0769004822,2023-08-16 00:20:00,61.0,36.0,^,green,16.0,99999,99999,16.0,6.0,120.0,9000.0,99999,7.0,98982.7,0.0,11150712061016020160399904999051989826600007610087000
3299,ESNU,63.7918014526,20.2828006744,2023-08-16 00:20:00,61.0,36.0,^,green,16.0,99999,99999,15.0,5.0,120.0,10000.0,99999,4.0,98982.7,0.0,11160412051016020150399904999051989826600007610084000
3300,ESOE,59.2237014771,15.0380001068,2023-08-16 00:20:00,,,,,15.0,99999,99999,15.0,5.0,220.0,2500.0,99999,,98985.8,0.0,11110022051015020150399904999051989858600007000080000
3301,ESSB,59.3544006348,17.9416999817,2023-08-16 00:20:00,,,,,17.0,99999,99999,17.0,4.0,250.0,9000.0,99999,8.0,98984.3,0.0,11150825041017020170399904999051989843600007000088000
3303,EDDB,52.362167,13.500667,2023-08-16 00:20:00,,,,,22.0,99999,99999,18.0,5.0,310.0,10000.0,99999,,98982.1,0.0,11160031051022020180399904999051989821600007000080000
3305,EDDE,50.979801178,10.9581003189,2023-08-16 00:20:00,45.0,36.0,N,yellow,18.0,99999,99999,18.0,4.0,220.0,300.0,99999,,98980.6,0.1,11100022041018020180399904999051989806600107450080000
3306,EDDF,50.0264015198,8.543129921,2023-08-16 00:20:00,,,,,18.0,99999,99999,18.0,3.0,240.0,10000.0,99999,1.0,98981.0,0.0,11160124031018020180399904999051989810600007000081000
3308,EDDH,53.6304016113,9.9882297516,2023-08-16 00:20:00,,,,,15.0,99999,99999,14.0,1.0,,10000.0,99999,,98980.7,0.0,11160036011015020140399904999051989806600007000080000
3310,EDDL,51.2895011902,6.7667798996,2023-08-16 00:20:00,,,,,19.0,99999,99999,17.0,4.0,20.0,10000.0,99999,,98980.1,0.0,11160002041019020170399904999051989801600007000080000
3311,EDDM,48.3538017273,11.7861003876,2023-08-16 00:20:00,,,,,18.0,99999,99999,17.0,2.0,130.0,10000.0,99999,,98980.5,0.0,11160013021018020170399904999051989805600007000080000
3312,EDDN,49.4986991882,11.0669002533,2023-08-16 00:20:00,10.0,36.0,+,yellow,20.0,99999,99999,19.0,1.0,,8000.0,99999,,98980.8,0.0,11140036011020020190399904999051989808600007100080000
3313,EDDP,51.4323997498,12.2416000366,2023-08-16 00:20:00,,,,,19.0,99999,99999,18.0,1.0,280.0,10000.0,99999,,98980.9,0.0,11160028011019020180399904999051989808600007000080000
3316,EDDV,52.461101532,9.6850795746,2023-08-16 00:20:00,41.0,36.0,J,yellow,16.0,99999,99999,16.0,4.0,310.0,10000.0,99999,,98980.7,0.0,11160031041016020160399904999051989806600007410080000
3319,EDFM,49.4730567932,8.514166832,2023-08-16 00:20:00,,,,,20.0,99999,99999,19.0,0.0,0.0,10000.0,99999,3.0,98980.7,0.0,11160300001020020190399904999051989806600007000083000
3328,EBCI,50.4592018127,4.4538202286,2023-08-16 00:20:00,,,,,17.0,99999,99999,14.0,6.0,20.0,10000.0,99999,3.0,98979.6,0.0,11160302061017020140399904999051989796600007000083000
3329,EBLG,50.6374015808,5.4432201385,2023-08-16 00:20:00,,,,,17.0,99999,99999,14.0,2.0,20.0,10000.0,99999,,98979.6,0.0,11160002021017020140399904999051989796600007000080000
3330,EBOS,51.1988983154,2.8622200489,2023-08-16 00:20:00,41.0,36.0,J,yellow,12.0,99999,99999,11.0,3.0,160.0,3000.0,99999,,98979.0,0.0,11110016031012020110399904999051989790600007410080000
3331,EDDC,51.1328010559,13.76720047,2023-08-16 00:20:00,,,,,21.0,99999,99999,20.0,3.0,270.0,10000.0,99999,,98981.7,0.0,11160027031021020200399904999051989816600007000080000
3332,EDDG,52.134601593,7.6848301888,2023-08-16 00:20:00,16.0,36.0,1,,17.0,99999,99999,16.0,1.0,,10000.0,99999,3.0,98980.3,0.0,11160336011017020160399904999051989803600007160083000
3333,EDDK,50.8658981323,7.1427397728,2023-08-16 00:20:00,,,,,18.0,99999,99999,18.0,5.0,60.0,10000.0,99999,1.0,98980.3,0.0,11160106051018020180399904999051989803600007000081000
3334,EDDR,49.2145996094,7.1095099449,2023-08-16 00:20:00,,,,,18.0,99999,99999,17.0,2.0,,10000.0,99999,,98980.7,0.0,11160036021018020170399904999051989806600007000080000
3335,EDDS,48.6898994446,9.2219600677,2023-08-16 00:20:00,80.0,36.0,q,green,19.0,99999,99999,17.0,5.0,260.0,10000.0,99999,1.0,98980.9,0.0,11160126051019020170399904999051989808600007800081000
3336,EDDW,53.0475006104,8.7866697311,2023-08-16 00:20:00,10.0,36.0,+,yellow,15.0,99999,99999,15.0,2.0,220.0,4800.0,99999,,98980.3,0.0,11120022021015020150399904999051989803600007100080000
3337,EDFH,49.9486999512,7.2638897896,2023-08-16 00:20:00,,,,,16.0,99999,99999,16.0,5.0,150.0,10000.0,99999,,98980.6,0.0,11160015051016020160399904999051989806600007000080000
3341,EDMO,48.081401825,11.2831001282,2023-08-16 00:20:00,,,,,18.0,99999,99999,17.0,5.0,150.0,10000.0,99999,6.0,98979.7,0.0,11160615051018020170399904999051989796600007000086000
3343,EDVK,51.4083328247,9.3774995804,2023-08-16 00:20:00,,,,,17.0,99999,99999,17.0,1.0,,250.0,99999,6.0,98980.1,0.0,11100636011017020170399904999051989801600007000086000
3344,EGJJ,49.207901001,-2.1955099106,2023-08-16 00:20:00,,,,,14.0,99999,99999,13.0,4.0,330.0,10000.0,99999,,98978.6,0.0,11160033041014020130399904999051989786600007000080000
3349,ELLX,49.6265983582,6.211520195,2023-08-16 00:20:00,,,,,18.0,99999,99999,18.0,1.0,,10000.0,99999,8.0,98980.1,0.0,11160836011018020180399904999051989801600007000088000
3368,EDHI,53.5352783203,9.8355560303,2023-08-16 00:20:00,,,,,16.0,99999,99999,15.0,2.0,,10000.0,99999,,98981.0,0.0,11160036021016020150399904999051989810600007000080000
3373,EDLW,51.5182991028,7.6122398377,2023-08-16 00:20:00,,,,,19.0,99999,99999,17.0,3.0,70.0,10000.0,99999,4.0,98980.2,0.0,11160407031019020170399904999051989801600007000084000
3374,EDMA,48.42527771,10.9316673279,2023-08-16 00:20:00,,,,,18.0,99999,99999,17.0,4.0,70.0,10000.0,99999,,98980.4,0.0,11160007041018020170399904999051989803600007000080000
3376,EDQM,50.2886123657,11.8563890457,2023-08-16 00:20:00,,,,,18.0,99999,99999,18.0,6.0,10.0,10000.0,99999,5.0,98980.5,0.0,11160501061018020180399904999051989805600007000085000
3394,ENOV,62.1800003052,6.0741000175,2023-08-16 00:20:00,61.0,36.0,^,green,14.0,99999,99999,13.0,2.0,,10000.0,99999,6.0,0.0,0.0,11160636021014020130399904999051000600007610086000
3395,ENSD,61.8300018311,6.1058301926,2023-08-16 00:20:00,61.0,36.0,^,green,14.0,99999,99999,14.0,0.0,0.0,10000.0,99999,5.0,0.0,0.0,11160500001014020140399904999051000600007610085000
3401,EDAC,50.9819450378,12.5063886642,2023-08-16 00:20:00,,,,,20.0,99999,99999,19.0,2.0,250.0,10000.0,99999,6.0,98980.5,0.0,11160625021020020190399904999051989805600007000086000
3402,EDAH,53.8787002563,14.152299881,2023-08-16 00:20:00,,,,,20.0,99999,99999,18.0,4.0,360.0,10000.0,99999,4.0,98981.9,0.2,11160436041020020180399904999051989818600207000084000
3403,EDHK,54.3794441223,10.145277977,2023-08-16 00:20:00,,,,,14.0,99999,99999,13.0,4.0,280.0,10000.0,99999,,98981.5,0.0,11160028041014020130399904999051989815600007000080000
3404,EDHL,53.8054008484,10.7192001343,2023-08-16 00:20:00,,,,,18.0,99999,99999,15.0,2.0,,10000.0,99999,6.0,98981.2,0.0,11160636021018020150399904999051989811600007000086000
3405,EDLN,51.2302780151,6.5044441223,2023-08-16 00:20:00,,,,,19.0,99999,99999,16.0,4.0,350.0,10000.0,99999,2.0,98980.1,0.0,11160235041019020160399904999051989801600007000082000
3406,EDLP,51.6141014099,8.6163196564,2023-08-16 00:20:00,,,,,17.0,99999,99999,16.0,2.0,,7000.0,99999,,98980.5,0.0,11140036021017020160399904999051989805600007000080000
3407,EDNY,47.6712989807,9.5114898682,2023-08-16 00:20:00,,,,,20.0,99999,99999,18.0,5.0,50.0,10000.0,99999,,98981.1,0.0,11160005051020020180399904999051989811600007000080000
3408,EDSB,48.7793998718,8.0804996491,2023-08-16 00:20:00,,,,,19.0,99999,99999,18.0,5.0,30.0,10000.0,99999,1.0,98980.9,0.0,11160103051019020180399904999051989808600007000081000
3409,EDVE,52.3191986084,10.5560998917,2023-08-16 00:20:00,,,,,19.0,99999,99999,18.0,1.0,290.0,5000.0,99999,1.0,98980.9,0.2,11130129011019020180399904999051989808600207000081000
3410,EDXW,54.9132003784,8.340470314,2023-08-16 00:20:00,,,,,17.0,99999,99999,13.0,14.0,270.0,10000.0,99999,3.0,98982.0,0.0,11160327141017020130399904999051989820600007000083000
3418,EBAW,51.1893997192,4.4602799416,2023-08-16 00:20:00,,,,,18.0,99999,99999,14.0,2.0,,10000.0,99999,,98979.3,0.0,11160036021018020140399904999051989793600007000080000
3419,EBBR,50.9014015198,4.4844398499,2023-08-16 00:20:00,,,,,18.0,99999,99999,15.0,0.0,0.0,10000.0,99999,3.0,98979.2,0.0,11160300001018020150399904999051989791600007000083000
3421,EGPH,55.9500007629,-3.3724999428,2023-08-16 00:20:00,,,,,12.0,99999,99999,12.0,4.0,260.0,7000.0,99999,1.0,98981.6,0.0,11140126041012020120399904999051989816600007000081000
3422,EGPK,55.5093994141,-4.5866699219,2023-08-16 00:20:00,,,,,12.0,99999,99999,11.0,4.0,120.0,10000.0,99999,3.0,98980.8,0.0,11160312041012020110399904999051989808600007000083000
3423,EGPO,58.2155990601,-6.3311100006,2023-08-16 00:20:00,,,,,14.0,99999,99999,13.0,5.0,350.0,10000.0,99999,5.0,98980.0,0.0,11160535051014020130399904999051989800600007000085000
3424,EGPU,56.4991989136,-6.8691701889,2023-08-16 00:20:00,,,,,15.0,99999,99999,14.0,5.0,320.0,10000.0,99999,8.0,98980.3,0.0,11160832051015020140399904999051989803600007000088000
3425,EKAH,56.2999992371,10.6190004349,2023-08-16 00:20:00,,,,,16.0,99999,99999,14.0,4.0,210.0,10000.0,99999,8.0,98982.7,0.0,11160821041016020140399904999051989826600007000088000
3427,EKYT,57.0927589138,9.8492431641,2023-08-16 00:20:00,,,,,16.0,99999,99999,14.0,11.0,200.0,10000.0,99999,8.0,98984.8,0.0,11160820111016020140399904999051989848600007000088000
3428,ENAN,69.2925033569,16.1441993713,2023-08-16 00:20:00,,,,,11.0,99999,99999,9.0,21.0,50.0,10000.0,99999,8.0,0.0,0.0,1116080521101102090399904999051000600007000088000
3429,ENBO,67.269203186,14.3653001785,2023-08-16 00:20:00,,,,,14.0,99999,99999,12.0,6.0,50.0,10000.0,99999,,98983.2,0.0,11160005061014020120399904999051989831600007000080000
3430,ENGM,60.193901062,11.100399971,2023-08-16 00:20:00,,,,,16.0,99999,99999,15.0,9.0,190.0,8000.0,99999,6.0,0.0,0.0,11140619091016020150399904999051000600007000086000
3431,ENOL,63.6988983154,9.6040000916,2023-08-16 00:20:00,,,,,14.0,99999,99999,14.0,6.0,350.0,10000.0,99999,3.0,98987.9,0.0,11160335061014020140399904999051989878600007000083000
3432,ENTC,69.6832962036,18.9188995361,2023-08-16 00:20:00,80.0,36.0,q,green,10.0,99999,99999,9.0,10.0,20.0,8000.0,99999,4.0,98980.4,0.0,1114040210101002090399904999051989803600007800084000
3434,EGSH,52.6758003235,1.2827800512,2023-08-16 00:20:00,,,,,15.0,99999,99999,14.0,0.0,0.0,10000.0,99999,,98980.9,0.0,11160000001015020140399904999051989808600007000080000
3441,EYSA,55.893901825,23.3950004578,2023-08-16 00:20:00,,,,,22.0,99999,99999,17.0,8.0,190.0,10000.0,99999,,0.0,0.0,11160019081022020170399904999051000600007000080000
3442,LIBP,42.4317016602,14.1810998917,2023-08-16 00:20:00,,,,,20.0,99999,99999,17.0,5.0,230.0,10000.0,99999,,98982.2,0.0,11160023051020020170399904999051989821600007000080000
3443,LICA,38.9053993225,16.2423000336,2023-08-16 00:20:00,,,,,19.0,99999,99999,17.0,3.0,60.0,10000.0,99999,,98980.6,0.0,11160006031019020170399904999051989806600007000080000
3444,LICR,38.0712013245,15.651599884,2023-08-16 00:20:00,,,,,24.0,99999,99999,16.0,9.0,360.0,10000.0,99999,,98981.2,0.0,11160036091024020160399904999051989811600007000080000
3445,LIPY,43.6162986755,13.3622999191,2023-08-16 00:20:00,,,,,20.0,99999,99999,18.0,3.0,180.0,10000.0,99999,,98982.1,0.0,11160018031020020180399904999051989821600007000080000
3447,LICD,35.4978981018,12.6181001663,2023-08-16 00:20:00,,,,,26.0,99999,99999,21.0,6.0,150.0,10000.0,99999,,98982.0,0.0,11160015061026020210399904999051989820600007000080000
3448,LIRZ,43.0959014893,12.5131998062,2023-08-16 00:20:00,,,,,21.0,99999,99999,19.0,4.0,20.0,10000.0,99999,,98982.5,0.0,11160002041021020190399904999051989825600007000080000
3454,EHLE,52.4603004456,5.5272197723,2023-08-16 00:25:00,10.0,36.0,+,yellow,11.0,99999,99999,11.0,1.0,60.0,10000.0,99999,,98979.8,0.0,11160006011011020110399904999051989798600007100080000
3460,ETHS,52.9193992615,10.1975002289,2023-08-16 00:20:00,,,,,17.0,99999,99999,15.0,0.0,0.0,10000.0,99999,3.0,98981.2,0.0,11160300001017020150399904999051989811600007000083000
3468,EEKE,58.2299003601,22.5095005035,2023-08-16 00:20:00,,,,,19.0,99999,99999,18.0,6.0,220.0,10000.0,99999,,98981.8,0.0,11160022061019020180399904999051989818600007000080000
3469,EETU,58.3074989319,26.6903991699,2023-08-16 00:20:00,,,,,19.0,99999,99999,14.0,8.0,140.0,10000.0,99999,4.0,98979.0,0.0,11160414081019020140399904999051989790600007000084000
3470,EEPU,58.4189987183,24.4727993011,2023-08-16 00:20:00,,,,,18.0,99999,99999,18.0,4.0,110.0,10000.0,99999,1.0,0.0,0.0,11160111041018020180399904999051000600007000081000
3471,EHDL,52.0606002808,5.8730602264,2023-08-16 00:25:00,,,,,14.0,99999,99999,13.0,2.0,330.0,10000.0,99999,8.0,98979.6,0.0,11160833021014020130399904999051989796600007000088000
3473,EHGR,51.567401886,4.9318299294,2023-08-16 00:25:00,,,,,15.0,99999,99999,13.0,1.0,,10000.0,99999,5.0,98979.8,0.0,11160536011015020130399904999051989798600007000085000
3476,EHVK,51.6563987732,5.7086100578,2023-08-16 00:25:00,,,,,17.0,99999,99999,15.0,2.0,,10000.0,99999,6.0,98979.7,0.0,11160636021017020150399904999051989796600007000086000
3477,EHWO,51.4491004944,4.3420300484,2023-08-16 00:25:00,,,,,15.0,99999,99999,14.0,1.0,,10000.0,99999,4.0,98979.5,0.0,11160436011015020140399904999051989795600007000084000
3478,EFKI,64.2854995728,27.6923999786,2023-08-16 00:20:00,,,,,16.0,99999,99999,13.0,5.0,150.0,10000.0,99999,,98979.7,0.0,11160015051016020130399904999051989796600007000080000
3479,EFKU,63.0070991516,27.7978000641,2023-08-16 00:20:00,,,,,17.0,99999,99999,16.0,5.0,140.0,10000.0,99999,,98978.8,0.0,11160014051017020160399904999051989788600007000080000
3525,ETNN,50.831199646,6.6581702232,2023-08-16 00:20:00,,,,,18.0,99999,99999,17.0,5.0,240.0,10000.0,99999,2.0,98980.1,0.0,11160224051018020170399904999051989801600007000082000
3528,ETSL,48.1855010986,10.8612003326,2023-08-16 00:20:00,,,,,19.0,99999,99999,17.0,2.0,,10000.0,99999,3.0,98980.2,0.0,11160336021019020170399904999051989801600007000083000
3529,ETSN,48.7109985352,11.2115001678,2023-08-16 00:20:00,,,,,20.0,99999,99999,17.0,2.0,80.0,10000.0,99999,6.0,98980.7,0.0,11160608021020020170399904999051989806600007000086000
3539,ETHN,49.3919448853,9.9588890076,2023-08-16 00:20:00,,,,,18.0,99999,99999,17.0,2.0,330.0,10000.0,99999,1.0,98980.7,0.0,11160133021018020170399904999051989806600007000081000
3541,ETNL,53.9182014465,12.2783002853,2023-08-16 00:20:00,,,,,18.0,99999,99999,16.0,5.0,330.0,10000.0,99999,6.0,98981.0,1.8,11160633051018020160399904999051989810601807000086000
3577,EGAC,54.6180992126,-5.8724999428,2023-08-16 00:20:00,,,,,12.0,99999,99999,11.0,2.0,,10000.0,99999,,98980.1,0.0,11160036021012020110399904999051989801600007000080000
3579,EGGP,53.3335990906,-2.8497200012,2023-08-16 00:20:00,,,,,16.0,99999,99999,13.0,6.0,310.0,10000.0,99999,1.0,0.0,0.0,11160131061016020130399904999051000600007000081000
3580,EGNX,52.8311004639,-1.3280600309,2023-08-16 00:20:00,,,,,13.0,99999,99999,11.0,4.0,290.0,10000.0,99999,,98980.3,0.0,11160029041013020110399904999051989803600007000080000
3581,EGOS,52.7981987,-2.6680400372,2023-08-16 00:20:00,,,,,11.0,99999,99999,11.0,3.0,270.0,10000.0,99999,3.0,98979.5,0.0,11160327031011020110399904999051989795600007000083000
3582,EGPD,57.2019004822,-2.1977798939,2023-08-16 00:20:00,,,,,12.0,99999,99999,11.0,1.0,320.0,10000.0,99999,8.0,98981.0,0.0,11160832011012020110399904999051989810600007000088000
3584,EGTE,50.7344017029,-3.4138898849,2023-08-16 00:20:00,,,,,12.0,99999,99999,11.0,2.0,,10000.0,99999,1.0,98978.8,0.0,11160136021012020110399904999051989788600007000081000
3585,ESSA,59.6519012451,17.9186000824,2023-08-16 00:20:00,,,,,16.0,99999,99999,16.0,8.0,240.0,10000.0,99999,8.0,98985.0,0.0,11160824081016020160399904999051989850600007000088000
3611,EHBK,50.9117012024,5.7701401711,2023-08-16 00:25:00,,,,,18.0,99999,99999,16.0,3.0,350.0,10000.0,99999,3.0,98979.8,0.0,11160335031018020160399904999051989798600007000083000
3612,EHEH,51.4500999451,5.3745298386,2023-08-16 00:25:00,,,,,18.0,99999,99999,15.0,1.0,,10000.0,99999,8.0,98979.9,0.0,11160836011018020150399904999051989798600007000088000
3613,EHGG,53.1197013855,6.5794401169,2023-08-16 00:25:00,,,,,10.0,99999,99999,10.0,1.0,290.0,10000.0,99999,,98979.8,0.0,11160029011010020100399904999051989798600007000080000
3615,EHRD,51.9569015503,4.4372200966,2023-08-16 00:25:00,,,,,13.0,99999,99999,13.0,1.0,330.0,10000.0,99999,,98979.4,0.0,11160033011013020130399904999051989793600007000080000
3616,ETMN,53.7677001953,8.6584997177,2023-08-16 00:20:00,42.0,36.0,K,yellow,14.0,99999,99999,13.0,3.0,260.0,10000.0,99999,1.0,98980.3,0.0,11160126031014020130399904999051989803600007420081000
3617,ETNW,52.4572982788,9.4271697998,2023-08-16 00:20:00,,,,,18.0,99999,99999,17.0,4.0,350.0,10000.0,99999,1.0,98981.0,0.0,11160135041018020170399904999051989810600007000081000
3618,ETSH,51.7677993774,13.1676998138,2023-08-16 00:20:00,,,,,20.0,99999,99999,19.0,3.0,320.0,10000.0,99999,6.0,98981.5,0.0,11160632031020020190399904999051989815600007000086000
3641,LTCS,37.4456634521,38.8955917358,2023-08-16 00:20:00,,,,,31.0,99999,99999,2.0,6.0,330.0,10000.0,99999,,98994.7,0.0,1116003306103102020399904999051989946600007000080000
3645,LTFM,41.275333,28.752,2023-08-16 00:20:00,,,,,25.0,99999,99999,22.0,8.0,330.0,10000.0,99999,4.0,0.0,0.0,11160433081025020220399904999051000600007000084000
3651,EGDR,50.086101532,-5.255710125,2023-08-16 00:20:00,,,,,14.0,99999,99999,13.0,2.0,330.0,10000.0,99999,1.0,98978.4,0.0,11160133021014020130399904999051989783600007000081000
3653,EGQS,57.7052001953,-3.3391699791,2023-08-16 00:20:00,,,,,15.0,99999,99999,13.0,2.0,40.0,10000.0,99999,3.0,98980.8,0.0,11160304021015020130399904999051989808600007000083000
3680,LTAT,38.4352989197,38.0909996033,2023-08-16 00:20:00,,,,,19.0,99999,99999,-1.0,3.0,360.0,10000.0,99999,,98991.5,0.0,1116003603101902110399904999051989915600007000080000
3692,LTAZ,38.771900177,34.5345001221,2023-08-16 00:20:00,,,,,20.0,99999,99999,2.0,7.0,210.0,10000.0,99999,,0.0,0.0,1116002107102002020399904999051000600007000080000
3693,LTBR,40.2551994324,29.5625991821,2023-08-16 00:20:00,,,,,21.0,99999,99999,21.0,3.0,300.0,10000.0,99999,3.0,98987.3,0.0,11160330031021020210399904999051989873600007000083000
3694,LTBU,41.1381988525,27.9190998077,2023-08-16 00:20:00,,,,,23.0,99999,99999,21.0,10.0,360.0,10000.0,99999,,98986.6,0.0,11160036101023020210399904999051989866600007000080000
3695,LTFC,37.8554000854,30.3684005737,2023-08-16 00:20:00,,,,,25.0,99999,99999,16.0,5.0,70.0,10000.0,99999,,98988.5,0.0,11160007051025020160399904999051989885600007000080000
3696,LTFJ,40.898601532,29.3092002869,2023-08-16 00:20:00,,,,,25.0,99999,99999,21.0,4.0,300.0,10000.0,99999,3.0,98988.0,0.0,11160330041025020210399904999051989880600007000083000
3726,LFCK,43.5563011169,2.2891800404,2023-08-16 00:30:00,,,,,22.0,99999,99999,16.0,4.0,130.0,10000.0,99999,3.0,0.0,0.0,11160313041022020160399904999051000600007000083000
3727,LFLP,45.9291992188,6.098760128,2023-08-16 00:30:00,,,,,19.0,99999,99999,13.0,6.0,50.0,10000.0,99999,,98981.1,0.0,11160005061019020130399904999051989811600007000080000
3731,LFQA,49.2086982727,4.1565799713,2023-08-16 00:30:00,,,,,19.0,99999,99999,17.0,5.0,270.0,10000.0,99999,4.0,98980.0,0.0,11160427051019020170399904999051989800600007000084000
3765,LFGA,48.1099014282,7.3590102196,2023-08-16 00:30:00,,,,,21.0,99999,99999,17.0,5.0,270.0,10000.0,99999,,98980.9,0.0,11160027051021020170399904999051989808600007000080000
3766,LFJR,47.5602989197,-0.3122220039,2023-08-16 00:30:00,,,,,18.0,99999,99999,16.0,5.0,10.0,10000.0,99999,5.0,98980.4,0.0,11160501051018020160399904999051989803600007000085000
3774,EPBY,53.0968017578,17.9776992798,2023-08-16 00:30:00,,,,,18.0,99999,99999,14.0,3.0,80.0,10000.0,99999,,0.0,0.0,11160008031018020140399904999051000600007000080000
3779,EPSY,53.481944,20.937778,2023-08-16 00:30:00,,,,,17.0,99999,99999,12.0,1.0,,10000.0,99999,,98981.1,0.0,11160036011017020120399904999051989811600007000080000
3785,LHKE,46.9174995422,19.7492008209,2023-08-16 00:15:00,,,,,18.0,99999,99999,15.0,0.0,0.0,10000.0,99999,,98979.6,0.2,11160000001018020150399904999051989796600207000080000
3786,LHPA,47.3636016846,17.5007991791,2023-08-16 00:15:00,,,,,21.0,99999,99999,17.0,4.0,210.0,10000.0,99999,,98980.8,0.0,11160021041021020170399904999051989808600007000080000
3788,LHPR,47.6244010925,17.8136005402,2023-08-16 00:15:00,,,,,21.0,99999,99999,18.0,0.0,0.0,10000.0,99999,,98980.9,0.0,11160000001021020180399904999051989808600007000080000
3789,LHSM,46.6864013672,17.1590995789,2023-08-16 00:15:00,,,,,20.0,99999,99999,17.0,0.0,0.0,10000.0,99999,,0.0,0.0,11160000001020020170399904999051000600007000080000
3790,LHSN,47.1228981018,20.2355003357,2023-08-16 00:15:00,,,,,18.0,99999,99999,15.0,0.0,0.0,10000.0,99999,,98980.2,0.0,11160000001018020150399904999051989801600007000080000
3794,LYBT,44.935299,20.2575,2023-08-16 00:30:00,95.0,36.0,2,red,19.0,99999,99999,19.0,5.0,60.0,10000.0,99999,3.0,98981.1,0.0,11160306051019020190399904999051989811600007950083000
3795,LYKV,43.818298,20.5872,2023-08-16 00:30:00,,,,,17.0,99999,99999,17.0,3.0,60.0,8000.0,99999,,98980.9,0.0,11140006031017020170399904999051989808600007000080000
3799,LYVR,45.1469,21.3099,2023-08-16 00:30:00,63.0,36.0,',green,19.0,99999,99999,19.0,5.0,220.0,10000.0,99999,,98980.3,0.0,11160022051019020190399904999051989803600007630080000
3800,EHAM,52.3086013794,4.7638897896,2023-08-16 00:25:00,42.0,36.0,K,yellow,13.0,99999,99999,12.0,2.0,350.0,10000.0,99999,,98979.4,0.0,11160035021013020120399904999051989793600007420080000
3814,EGXV,53.8758010864,-0.4350000024,2023-08-16 00:20:00,,,,,13.0,99999,99999,11.0,4.0,240.0,10000.0,99999,,98981.0,0.0,11160024041013020110399904999051989810600007000080000
3827,LBGO,43.1514015198,25.7129001617,2023-08-16 00:30:00,,,,,20.0,99999,99999,17.0,5.0,250.0,10000.0,99999,1.0,98982.0,0.0,11160125051020020170399904999051989820600007000081000
3866,LFRL,48.2817001343,-4.4450201988,2023-08-16 00:30:00,,,,,14.0,99999,99999,14.0,5.0,40.0,10000.0,99999,6.0,98978.2,0.0,11160604051014020140399904999051989781600007000086000
3922,LFYR,47.3208007813,1.6888899803,2023-08-16 00:30:00,,,,,15.0,99999,99999,15.0,0.0,0.0,10000.0,99999,,98980.6,0.0,11160000001015020150399904999051989806600007000080000
3935,LFLN,46.4124984741,4.0132598877,2023-08-16 00:30:00,,,,,18.0,99999,99999,18.0,2.0,160.0,10000.0,99999,,98981.7,0.0,11160016021018020180399904999051989816600007000080000
3960,LTAC,40.1281013489,32.995098114,2023-08-16 00:20:00,,,,,24.0,99999,99999,5.0,9.0,40.0,10000.0,99999,,98990.3,0.0,1116000409102402050399904999051989903600007000080000
3961,LTAF,36.9822006226,35.2803993225,2023-08-16 00:20:00,,,,,27.0,99999,99999,26.0,1.0,,10000.0,99999,1.0,98991.3,0.0,11160136011027020260399904999051989913600007000081000
3962,LTAG,37.0021018982,35.4258995056,2023-08-16 00:20:00,,,,,27.0,99999,99999,25.0,0.0,0.0,10000.0,99999,3.0,98990.6,0.0,11160300001027020250399904999051989906600007000083000
3963,LTAI,36.8987007141,30.8005008698,2023-08-16 00:20:00,,,,,27.0,99999,99999,22.0,2.0,,10000.0,99999,,98990.9,0.0,11160036021027020220399904999051989908600007000080000
3964,LTAJ,36.9472007751,37.4786987305,2023-08-16 00:20:00,,,,,27.0,99999,99999,8.0,2.0,20.0,10000.0,99999,,98996.6,0.0,1116000202102702080399904999051989966600007000080000
3965,LTAP,40.8293991089,35.5219993591,2023-08-16 00:20:00,,,,,17.0,99999,99999,14.0,4.0,250.0,10000.0,99999,,98985.0,0.0,11160025041017020140399904999051989850600007000080000
3966,LTAU,38.770401001,35.4953994751,2023-08-16 00:20:00,,,,,15.0,99999,99999,3.0,4.0,60.0,10000.0,99999,,98990.5,0.0,1116000604101502030399904999051989905600007000080000
3967,LTBA,40.9768981934,28.8145999908,2023-08-16 00:20:00,,,,,25.0,99999,99999,21.0,8.0,10.0,10000.0,99999,3.0,98986.6,0.0,11160301081025020210399904999051989866600007000083000
3968,LTBJ,38.2924003601,27.156999588,2023-08-16 00:20:00,,,,,25.0,99999,99999,22.0,8.0,360.0,10000.0,99999,,98987.6,0.0,11160036081025020220399904999051989876600007000080000
3969,LTBS,36.7131004333,28.7924995422,2023-08-16 00:20:00,,,,,25.0,99999,99999,23.0,4.0,60.0,10000.0,99999,,98988.9,0.0,11160006041025020230399904999051989888600007000080000
3970,LTCC,37.893901825,40.2010002136,2023-08-16 00:20:00,,,,,23.0,99999,99999,6.0,0.0,0.0,10000.0,99999,,98998.0,0.0,1116000000102302060399904999051989980600007000080000
3971,LTCE,39.9565010071,41.1702003479,2023-08-16 00:20:00,,,,,12.0,99999,99999,3.0,4.0,270.0,10000.0,99999,,98988.8,0.0,1116002704101202030399904999051989888600007000080000
3972,LTCG,40.995098114,39.7896995544,2023-08-16 00:20:00,,,,,26.0,99999,99999,21.0,6.0,220.0,10000.0,99999,3.0,98983.9,0.0,11160322061026020210399904999051989838600007000083000
3973,LTCJ,37.9290008545,41.1166000366,2023-08-16 00:20:00,,,,,22.0,99999,99999,9.0,6.0,20.0,10000.0,99999,,98994.6,0.0,1116000206102202090399904999051989946600007000080000
3974,LTFE,37.2505989075,27.6643009186,2023-08-16 00:20:00,,,,,23.0,99999,99999,21.0,3.0,110.0,10000.0,99999,,0.0,0.0,11160011031023020210399904999051000600007000080000
3992,LFBY,43.689201355,-1.0688899755,2023-08-16 00:30:00,,,,,22.0,99999,99999,18.0,6.0,20.0,10000.0,99999,,98982.3,0.0,11160002061022020180399904999051989823600007000080000
4023,EPLL,51.7219009399,19.3980998993,2023-08-16 00:30:00,,,,,20.0,99999,99999,16.0,2.0,,10000.0,99999,,98980.6,0.0,11160036021020020160399904999051989806600007000080000
4024,EPWR,51.1026992798,16.885799408,2023-08-16 00:30:00,,,,,19.0,99999,99999,16.0,3.0,140.0,10000.0,99999,,98981.6,0.0,11160014031019020160399904999051989816600007000080000
4025,LFBE,44.8252983093,0.5186110139,2023-08-16 00:30:00,,,,,19.0,99999,99999,18.0,5.0,250.0,10000.0,99999,,98982.6,0.0,11160025051019020180399904999051989826600007000080000
4026,LFBG,45.6582984924,-0.3174999952,2023-08-16 00:30:00,,,,,17.0,99999,99999,14.0,0.0,0.0,10000.0,99999,,98980.8,0.0,11160000001017020140399904999051989808600007000080000
4027,LFCR,44.4079017639,2.4826700687,2023-08-16 00:30:00,,,,,20.0,99999,99999,15.0,6.0,140.0,10000.0,99999,,98980.0,0.0,11160014061020020150399904999051989800600007000080000
4029,LFMK,43.2159996033,2.306319952,2023-08-16 00:30:00,,,,,21.0,99999,99999,20.0,2.0,270.0,10000.0,99999,,98982.8,0.0,11160027021021020200399904999051989828600007000080000
4030,LFMO,44.140499115,4.8667201996,2023-08-16 00:30:00,,,,,18.0,99999,99999,11.0,2.0,20.0,10000.0,99999,,98981.2,0.0,11160002021018020110399904999051989811600007000080000
4031,LFMU,43.3235015869,3.3538999557,2023-08-16 00:30:00,,,,,24.0,99999,99999,18.0,7.0,80.0,10000.0,99999,8.0,98982.7,0.0,11160808071024020180399904999051989826600007000088000
4032,LHDC,47.488899231,21.6152992249,2023-08-16 00:15:00,,,,,19.0,99999,99999,18.0,0.0,0.0,10000.0,99999,,98979.8,0.0,11160000001019020180399904999051989798600007000080000
4033,LHPP,45.9908981323,18.2409992218,2023-08-16 00:15:00,,,,,19.0,99999,99999,15.0,4.0,20.0,10000.0,99999,,98979.4,0.0,11160002041019020150399904999051989793600007000080000
4034,LKCV,49.9397010803,15.3817996979,2023-08-16 00:30:00,,,,,21.0,99999,99999,15.0,3.0,110.0,10000.0,99999,,98981.8,0.0,11160011031021020150399904999051989818600007000080000
4035,LKNA,49.1657981873,16.1249008179,2023-08-16 00:30:00,,,,,21.0,99999,99999,15.0,8.0,100.0,10000.0,99999,,98981.2,0.0,11160010081021020150399904999051989811600007000080000
4036,LKPD,50.0134010315,15.7385997772,2023-08-16 00:30:00,,,,,18.0,99999,99999,15.0,3.0,80.0,10000.0,99999,,98981.8,0.0,11160008031018020150399904999051989818600007000080000
4040,LZPP,48.6251983643,17.8283996582,2023-08-16 00:30:00,,,,,20.0,99999,99999,18.0,6.0,360.0,10000.0,99999,,0.0,0.0,11160036061020020180399904999051000600007000080000
4041,LZZI,49.2314987183,18.6135005951,2023-08-16 00:30:00,,,,,18.0,99999,99999,17.0,2.0,,10000.0,99999,,0.0,0.0,11160036021018020170399904999051000600007000080000
4050,LFOV,48.0313987732,-0.7429860234,2023-08-16 00:30:00,,,,,15.0,99999,99999,14.0,8.0,350.0,10000.0,99999,1.0,98979.9,0.0,11160135081015020140399904999051989798600007000081000
4053,LFRV,47.7233009338,-2.7185599804,2023-08-16 00:30:00,,,,,14.0,99999,99999,13.0,8.0,20.0,10000.0,99999,,98980.0,0.0,11160002081014020130399904999051989800600007000080000
4054,LFSG,48.3250007629,6.0699801445,2023-08-16 00:30:00,63.0,36.0,',green,19.0,99999,99999,18.0,3.0,,8000.0,99999,,98980.3,0.0,11140036031019020180399904999051989803600007630080000
4060,LFAQ,49.9715003967,2.6976599693,2023-08-16 00:30:00,,,,,15.0,99999,99999,14.0,6.0,300.0,10000.0,99999,,98979.1,0.0,11160030061015020140399904999051989791600007000080000
4061,LFBU,45.7291984558,0.2214560062,2023-08-16 00:30:00,,,,,18.0,99999,99999,14.0,3.0,310.0,10000.0,99999,,98981.8,0.0,11160031031018020140399904999051989818600007000080000
4063,LFOZ,47.896900177,2.1633300781,2023-08-16 00:30:00,,,,,15.0,99999,99999,15.0,2.0,,10000.0,99999,,98980.9,0.0,11160036021015020150399904999051989808600007000080000
4065,LFPT,49.0965995789,2.0408298969,2023-08-16 00:30:00,,,,,17.0,99999,99999,15.0,0.0,0.0,10000.0,99999,4.0,98980.0,0.0,11160400001017020150399904999051989800600007000084000
4099,LEMI,37.803,-1.125,2023-08-16 00:30:00,,,,,24.0,99999,99999,21.0,3.0,320.0,10000.0,99999,,0.0,0.0,11160032031024020210399904999051000600007000080000
4101,LECH,40.9000015259,-1.3041199446,2023-08-16 00:30:00,,,,,20.0,99999,99999,18.0,2.0,,10000.0,99999,,98984.7,0.0,11160036021020020180399904999051989846600007000080000
4118,LJCE,45.9000015259,15.5302000046,2023-08-16 00:30:00,,,,,18.0,99999,99999,17.0,1.0,,10000.0,99999,,0.0,0.0,11160036011018020170399904999051000600007000080000
4144,LQMO,43.2829017639,17.8458995819,2023-08-16 00:30:00,,,,,21.0,99999,99999,19.0,3.0,160.0,10000.0,99999,3.0,98982.2,0.0,11160316031021020190399904999051989821600007000083000
4176,UWKS,56.0903015137,47.3473014832,2023-08-16 00:30:00,,,,,17.0,99999,99999,17.0,4.0,340.0,10000.0,99999,1.0,98983.5,0.0,11160134041017020170399904999051989835600007000081000
4178,UUBW,55.5532989502,38.1500015259,2023-08-16 00:30:00,,,,,17.0,99999,99999,16.0,3.0,280.0,10000.0,99999,,98976.9,0.0,11160028031017020160399904999051989768600007000080000
4179,UUOL,52.7028007507,39.5377998352,2023-08-16 00:30:00,,,,,17.0,99999,99999,15.0,3.0,10.0,10000.0,99999,,0.0,0.0,11160001031017020150399904999051000600007000080000
4182,UUDL,57.5606994629,40.1573982239,2023-08-16 00:30:00,,,,,16.0,99999,99999,13.0,1.0,280.0,10000.0,99999,,98979.4,0.0,11160028011016020130399904999051989793600007000080000
4185,UUMO,55.5116996765,37.5071983337,2023-08-16 00:30:00,10.0,36.0,+,yellow,13.0,99999,99999,13.0,2.0,250.0,5000.0,99999,,98976.5,0.0,11130025021013020130399904999051989765600007100080000
4192,URMG,43.3883018494,45.698600769,2023-08-16 00:30:00,,,,,29.0,99999,99999,10.0,2.0,290.0,10000.0,99999,,98987.0,0.0,11160029021029020100399904999051989870600007000080000
4195,URMO,43.2051010132,44.6066017151,2023-08-16 00:30:00,,,,,20.0,99999,99999,18.0,2.0,100.0,10000.0,99999,6.0,98981.9,0.0,11160610021020020180399904999051989818600007000086000
4197,URRP,47.50083333,39.93361111,2023-08-16 00:30:00,,,,,19.0,99999,99999,18.0,3.0,330.0,10000.0,99999,,0.0,0.0,11160033031019020180399904999051000600007000080000
4208,EKKA,56.2975006104,9.1246299744,2023-08-16 00:30:00,,,,,15.0,99999,99999,14.0,10.0,210.0,3100.0,99999,6.0,98983.5,0.0,11110621101015020140399904999051989835600007000086000
4210,ETOU,50.0498008728,8.3254003525,2023-08-16 00:29:00,,,,,18.0,99999,99999,17.0,0.0,0.0,10000.0,99999,6.0,98980.7,0.0,11160600001018020170399904999051989806600007000086000
4214,LEHC,42.0760993958,-0.3166669905,2023-08-16 00:30:00,,,,,24.0,99999,99999,9.0,9.0,90.0,10000.0,99999,,98983.0,0.0,1116000909102402090399904999051989830600007000080000
4217,LESB,39.5988998413,2.7027800083,2023-08-16 00:30:00,,,,,26.0,99999,99999,17.0,3.0,40.0,10000.0,99999,,98983.3,0.0,11160004031026020170399904999051989833600007000080000
4220,LEBG,42.3576011658,-3.620759964,2023-08-16 00:30:00,,,,,16.0,99999,99999,15.0,9.0,50.0,9000.0,99999,8.0,98980.0,0.0,11150805091016020150399904999051989800600007000088000
4246,EBBL,51.1683006287,5.4699997902,2023-08-16 00:25:00,61.0,36.0,^,green,18.0,99999,99999,16.0,3.0,130.0,10000.0,99999,7.0,98979.6,0.0,11160713031018020160399904999051989796600007610087000
4248,EBDT,50.9991989136,5.065559864,2023-08-16 00:25:00,,,,,18.0,99999,99999,15.0,1.0,,10000.0,99999,8.0,98979.5,0.0,11160836011018020150399904999051989795600007000088000
4251,EBLB,50.4817008972,6.1819400787,2023-08-16 00:25:00,,,,,13.0,99999,99999,12.0,1.0,,10000.0,99999,3.0,98979.2,0.0,11160336011013020120399904999051989791600007000083000
4254,LFBX,45.1981010437,0.8155559897,2023-08-16 00:30:00,,,,,17.0,99999,99999,17.0,0.0,0.0,10000.0,99999,,98982.3,0.0,11160000001017020170399904999051989823600007000080000
4261,LFPM,48.6046981812,2.6711199284,2023-08-16 00:30:00,,,,,17.0,99999,99999,15.0,3.0,,10000.0,99999,,98980.4,0.0,11160036031017020150399904999051989803600007000080000
4265,LFRJ,48.5303001404,-4.1516399384,2023-08-16 00:30:00,10.0,36.0,+,yellow,12.0,99999,99999,11.0,1.0,160.0,5000.0,99999,,98978.0,0.0,11130016011012020110399904999051989780600007100080000
4293,LRSB,45.7855987549,24.091299057,2023-08-16 00:30:00,,,,,16.0,99999,99999,14.0,2.0,110.0,10000.0,99999,,98977.4,0.0,11160011021016020140399904999051989773600007000080000
4297,LUKK,46.9277000427,28.9309997559,2023-08-16 00:30:00,,,,,19.0,99999,99999,14.0,3.0,350.0,10000.0,99999,,98978.3,0.0,11160035031019020140399904999051989783600007000080000
4303,GEML,35.279800415,-2.9562599659,2023-08-16 00:30:00,,,,,26.0,99999,99999,26.0,3.0,80.0,10000.0,99999,6.0,98985.3,0.0,11160608031026020260399904999051989853600007000086000
4304,EBBE,50.7585983276,4.7683300972,2023-08-16 00:25:00,,,,,18.0,99999,99999,15.0,2.0,,10000.0,99999,3.0,98979.2,0.0,11160336021018020150399904999051989791600007000083000
4305,EBCV,50.5758018494,3.8310000896,2023-08-16 00:25:00,,,,,17.0,99999,99999,15.0,1.0,,10000.0,99999,4.0,98980.0,0.0,11160436011017020150399904999051989800600007000084000
4306,EBFS,50.2433013916,4.6458301544,2023-08-16 00:25:00,,,,,18.0,99999,99999,16.0,5.0,20.0,10000.0,99999,6.0,98979.8,0.0,11160602051018020160399904999051989798600007000086000
4307,EPGD,54.3776016235,18.4661998749,2023-08-16 00:30:00,,,,,18.0,99999,99999,17.0,2.0,250.0,10000.0,99999,,98981.8,0.0,11160025021018020170399904999051989818600007000080000
4308,EPKK,50.0777015686,19.7847995758,2023-08-16 00:30:00,,,,,20.0,99999,99999,18.0,1.0,,10000.0,99999,,98979.8,0.0,11160036011020020180399904999051989798600007000080000
4309,EPKT,50.4743003845,19.0799999237,2023-08-16 00:30:00,,,,,17.0,99999,99999,15.0,2.0,,10000.0,99999,,98979.9,0.0,11160036021017020150399904999051989798600007000080000
4310,EPLB,51.240278,22.713611,2023-08-16 00:30:00,,,,,17.0,99999,99999,16.0,2.0,60.0,10000.0,99999,,0.0,0.0,11160006021017020160399904999051000600007000080000
4311,EPMO,52.4510993958,20.6518001556,2023-08-16 00:30:00,,,,,21.0,99999,99999,14.0,3.0,110.0,10000.0,99999,,98980.5,0.0,11160011031021020140399904999051989805600007000080000
4312,EPPO,52.4210014343,16.8262996674,2023-08-16 00:30:00,,,,,21.0,99999,99999,14.0,4.0,130.0,10000.0,99999,,98981.9,0.0,11160013041021020140399904999051989818600007000080000
4313,EPRZ,50.1100006104,22.0189990997,2023-08-16 00:30:00,,,,,19.0,99999,99999,16.0,5.0,100.0,10000.0,99999,,98979.0,0.0,11160010051019020160399904999051989790600007000080000
4314,EPSC,53.5847015381,14.9021997452,2023-08-16 00:30:00,,,,,21.0,99999,99999,20.0,5.0,10.0,10000.0,99999,4.0,98981.3,0.0,11160401051021020200399904999051989813600007000084000
4315,EPWA,52.1656990051,20.9671001434,2023-08-16 00:30:00,,,,,20.0,99999,99999,15.0,6.0,120.0,10000.0,99999,,98980.3,0.0,11160012061020020150399904999051989803600007000080000
4317,LBBG,42.5695991516,27.5151996613,2023-08-16 00:30:00,,,,,25.0,99999,99999,19.0,10.0,40.0,10000.0,99999,,98984.7,0.0,11160004101025020190399904999051989846600007000080000
4318,LBPD,42.0677986145,24.8507995605,2023-08-16 00:30:00,,,,,21.0,99999,99999,19.0,2.0,,10000.0,99999,3.0,98983.0,0.0,11160336021021020190399904999051989830600007000083000
4319,LBSF,42.6966934204,23.4114360809,2023-08-16 00:30:00,,,,,17.0,99999,99999,15.0,2.0,200.0,10000.0,99999,3.0,98982.5,0.2,11160320021017020150399904999051989825600207000083000
4320,LBWN,43.2321014404,27.8250999451,2023-08-16 00:30:00,,,,,24.0,99999,99999,19.0,9.0,30.0,10000.0,99999,,98983.1,0.0,11160003091024020190399904999051989831600007000080000
4321,LHBP,47.4369010925,19.2555999756,2023-08-16 00:30:00,,,,,18.0,99999,99999,16.0,0.0,0.0,10000.0,99999,,98980.2,0.0,11160000001018020160399904999051989801600007000080000
4322,LRBS,44.503200531,26.1021003723,2023-08-16 00:30:00,,,,,23.0,99999,99999,14.0,8.0,30.0,10000.0,99999,,98980.1,0.0,11160003081023020140399904999051989801600007000080000
4324,LROP,44.5722007751,26.1021995544,2023-08-16 00:30:00,95.0,36.0,2,red,23.0,99999,99999,14.0,9.0,40.0,10000.0,99999,1.0,98978.7,0.0,11160104091023020140399904999051989786600007950081000
4328,LDDU,42.5614013672,18.2681999207,2023-08-16 00:30:00,,,,,20.0,99999,99999,17.0,7.0,80.0,10000.0,99999,,98983.5,0.0,11160008071020020170399904999051989835600007000080000
4329,LDOS,45.4626998901,18.8101997375,2023-08-16 00:30:00,,,,,18.0,99999,99999,16.0,2.0,10.0,10000.0,99999,,98980.4,0.0,11160001021018020160399904999051989803600007000080000
4330,LDPL,44.8935012817,13.9222002029,2023-08-16 00:30:00,,,,,24.0,99999,99999,16.0,8.0,40.0,10000.0,99999,,98982.6,0.0,11160004081024020160399904999051989826600007000080000
4332,LDSP,43.538898468,16.2980003357,2023-08-16 00:30:00,,,,,24.0,99999,99999,21.0,4.0,,10000.0,99999,3.0,98982.7,0.0,11160336041024020210399904999051989826600007000083000
4333,LDZA,45.7429008484,16.0687999725,2023-08-16 00:30:00,,,,,19.0,99999,99999,17.0,3.0,260.0,10000.0,99999,,98980.5,0.0,11160026031019020170399904999051989805600007000080000
4334,LDZD,44.1082992554,15.3466997147,2023-08-16 00:30:00,,,,,20.0,99999,99999,19.0,0.0,0.0,10000.0,99999,,98982.8,0.0,11160000001020020190399904999051989828600007000080000
4335,LJLJ,46.2237014771,14.4575996399,2023-08-16 00:30:00,,,,,17.0,99999,99999,16.0,3.0,260.0,10000.0,99999,1.0,98980.0,0.0,11160126031017020160399904999051989800600007000081000
4337,LJPZ,45.473400116,13.6149997711,2023-08-16 00:30:00,,,,,20.0,99999,99999,16.0,5.0,120.0,10000.0,99999,,98982.9,0.0,11160012051020020160399904999051989828600007000080000
4338,LKMT,49.6963005066,18.1110992432,2023-08-16 00:30:00,,,,,19.0,99999,99999,17.0,3.0,140.0,10000.0,99999,,98980.5,0.0,11160014031019020170399904999051989805600007000080000
4339,LKPR,50.1007995605,14.2600002289,2023-08-16 00:30:00,,,,,20.0,99999,99999,16.0,10.0,230.0,10000.0,99999,,98982.2,0.0,11160023101020020160399904999051989821600007000080000
4340,LKTB,49.1512985229,16.6944007874,2023-08-16 00:30:00,,,,,21.0,99999,99999,15.0,4.0,,10000.0,99999,,98981.2,0.0,11160036041021020150399904999051989811600007000080000
4341,LQSA,43.8246002197,18.3314990997,2023-08-16 00:30:00,,,,,16.0,99999,99999,16.0,2.0,130.0,10000.0,99999,3.0,98979.6,0.0,11160313021016020160399904999051989796600007000083000
4342,LYBE,44.8184013367,20.3090991974,2023-08-16 00:30:00,95.0,36.0,2,red,19.0,99999,99999,19.0,4.0,60.0,10000.0,99999,3.0,98980.1,0.0,11160306041019020190399904999051989801600007950083000
4343,LYNI,43.337299,21.853701,2023-08-16 00:30:00,,,,,20.0,99999,99999,18.0,9.0,340.0,10000.0,99999,3.0,98980.4,0.0,11160334091020020180399904999051989803600007000083000
4344,LYPG,42.3594017029,19.2518997192,2023-08-16 00:30:00,,,,,20.0,99999,99999,17.0,2.0,,10000.0,99999,,0.0,0.0,11160036021020020170399904999051000600007000080000
4345,LYTV,42.4047012329,18.7233009338,2023-08-16 00:30:00,,,,,17.0,99999,99999,16.0,0.0,0.0,10000.0,99999,,98983.0,0.0,11160000001017020160399904999051989830600007000080000
4346,LZIB,48.1702003479,17.2126998901,2023-08-16 00:30:00,,,,,21.0,99999,99999,18.0,2.0,,10000.0,99999,,98980.8,0.0,11160036021021020180399904999051989808600007000080000
4347,LZKZ,48.6631011963,21.2411003113,2023-08-16 00:30:00,,,,,21.0,99999,99999,18.0,3.0,310.0,10000.0,99999,,0.0,0.0,11160031031021020180399904999051000600007000080000
4348,LZTT,49.073600769,20.2411003113,2023-08-16 00:30:00,,,,,17.0,99999,99999,15.0,4.0,270.0,10000.0,99999,,98978.7,0.0,11160027041017020150399904999051989786600007000080000
4350,LFAT,50.5173988342,1.6205899715,2023-08-16 00:30:00,,,,,13.0,99999,99999,12.0,4.0,140.0,10000.0,99999,1.0,98979.0,0.0,11160114041013020120399904999051989790600007000081000
4352,LFBH,46.1791992188,-1.1952799559,2023-08-16 00:30:00,,,,,18.0,99999,99999,15.0,6.0,340.0,10000.0,99999,,98980.5,0.0,11160034061018020150399904999051989805600007000080000
4353,LFBI,46.5876998901,0.3066659868,2023-08-16 00:30:00,,,,,17.0,99999,99999,15.0,3.0,320.0,10000.0,99999,,98981.3,0.0,11160032031017020150399904999051989813600007000080000
4354,LFBO,43.6291007996,1.3638199568,2023-08-16 00:30:00,,,,,23.0,99999,99999,18.0,5.0,290.0,10000.0,99999,6.0,98983.6,0.0,11160629051023020180399904999051989836600007000086000
4355,LFBP,43.3800010681,-0.41861099,2023-08-16 00:30:00,,,,,21.0,99999,99999,19.0,3.0,120.0,10000.0,99999,4.0,98982.2,0.0,11160412031021020190399904999051989821600007000084000
4356,LFBT,43.1786994934,-0.0064389999,2023-08-16 00:30:00,,,,,21.0,99999,99999,19.0,2.0,,10000.0,99999,8.0,98982.1,0.0,11160836021021020190399904999051989821600007000088000
4357,LFBZ,43.4683990479,-1.5233199596,2023-08-16 00:30:00,,,,,21.0,99999,99999,20.0,3.0,170.0,10000.0,99999,8.0,98981.0,0.0,11160817031021020200399904999051989810600007000088000
4358,LFGJ,47.0390014648,5.4272499084,2023-08-16 00:30:00,,,,,21.0,99999,99999,18.0,5.0,10.0,10000.0,99999,,98981.1,0.0,11160001051021020180399904999051989811600007000080000
4359,LFKB,42.5527000427,9.4837303162,2023-08-16 00:30:00,,,,,21.0,99999,99999,14.0,4.0,180.0,10000.0,99999,,98981.7,0.0,11160018041021020140399904999051989816600007000080000
4360,LFKC,42.5307998657,8.7931900024,2023-08-16 00:30:00,,,,,23.0,99999,99999,10.0,5.0,170.0,10000.0,99999,,98981.7,0.0,11160017051023020100399904999051989816600007000080000
4361,LFKJ,41.9235992432,8.8029203415,2023-08-16 00:30:00,,,,,19.0,99999,99999,15.0,6.0,50.0,10000.0,99999,,98981.6,0.0,11160005061019020150399904999051989816600007000080000
4362,LFLB,45.6380996704,5.88022995,2023-08-16 00:30:00,,,,,18.0,99999,99999,13.0,2.0,,10000.0,99999,,98982.0,0.0,11160036021018020130399904999051989820600007000080000
4363,LFLC,45.7867012024,3.1691699028,2023-08-16 00:30:00,,,,,19.0,99999,99999,17.0,0.0,0.0,10000.0,99999,,98981.2,0.0,11160000001019020170399904999051989811600007000080000
4364,LFLL,45.726398468,5.0908298492,2023-08-16 00:30:00,,,,,22.0,99999,99999,17.0,3.0,220.0,10000.0,99999,,98983.0,0.0,11160022031022020170399904999051989830600007000080000
4365,LFLS,45.3628997803,5.3293700218,2023-08-16 00:30:00,,,,,17.0,99999,99999,10.0,6.0,90.0,10000.0,99999,,98981.8,0.0,11160009061017020100399904999051989818600007000080000
4366,LFLY,45.7271995544,4.944270134,2023-08-16 00:30:00,,,,,21.0,99999,99999,18.0,2.0,160.0,10000.0,99999,,98982.8,0.0,11160016021021020180399904999051989828600007000080000
4367,LFMD,43.5419998169,6.9534797668,2023-08-16 00:30:00,,,,,21.0,99999,99999,17.0,4.0,20.0,10000.0,99999,,98982.3,0.0,11160002041021020170399904999051989823600007000080000
4368,LFMH,45.540599823,4.2963900566,2023-08-16 00:30:00,,,,,18.0,99999,99999,17.0,4.0,170.0,10000.0,99999,,98982.0,0.0,11160017041018020170399904999051989820600007000080000
4369,LFML,43.439271922,5.2214241028,2023-08-16 00:30:00,,,,,22.0,99999,99999,12.0,5.0,150.0,10000.0,99999,,98981.9,0.0,11160015051022020120399904999051989818600007000080000
4370,LFMN,43.6584014893,7.2158699036,2023-08-16 00:30:00,,,,,24.0,99999,99999,18.0,4.0,350.0,10000.0,99999,,98982.2,0.0,11160035041024020180399904999051989821600007000080000
4371,LFMP,42.740398407,2.8706700802,2023-08-16 00:30:00,,,,,23.0,99999,99999,20.0,2.0,,10000.0,99999,,98983.8,0.0,11160036021023020200399904999051989838600007000080000
4372,LFMT,43.5761985779,3.9630100727,2023-08-16 00:30:00,,,,,20.0,99999,99999,18.0,5.0,40.0,10000.0,99999,,98982.1,0.0,11160004051020020180399904999051989821600007000080000
4373,LFOB,49.4543991089,2.1127800941,2023-08-16 00:30:00,,,,,17.0,99999,99999,14.0,4.0,320.0,10000.0,99999,4.0,98979.0,0.0,11160432041017020140399904999051989790600007000084000
4374,LFOH,49.5339012146,0.0880559981,2023-08-16 00:30:00,,,,,15.0,99999,99999,14.0,4.0,360.0,10000.0,99999,,98979.0,0.0,11160036041015020140399904999051989790600007000080000
4375,LFOT,47.4322013855,0.7276059985,2023-08-16 00:30:00,,,,,20.0,99999,99999,16.0,3.0,,10000.0,99999,3.0,98980.9,0.0,11160336031020020160399904999051989808600007000083000
4378,LFPN,48.7518997192,2.1061899662,2023-08-16 00:30:00,,,,,18.0,99999,99999,15.0,7.0,50.0,10000.0,99999,,98979.8,0.0,11160005071018020150399904999051989798600007000080000
4379,LFPO,48.7252998352,2.3594400883,2023-08-16 00:30:00,,,,,19.0,99999,99999,14.0,6.0,30.0,10000.0,99999,,98980.0,0.0,11160003061019020140399904999051989800600007000080000
4383,LFRD,48.5876998901,-2.0799601078,2023-08-16 00:30:00,,,,,14.0,99999,99999,13.0,3.0,10.0,10000.0,99999,1.0,98979.0,0.0,11160101031014020130399904999051989790600007000081000
4384,LFRG,49.3652992249,0.1543059945,2023-08-16 00:30:00,,,,,13.0,99999,99999,12.0,2.0,,10000.0,99999,,98978.9,0.0,11160036021013020120399904999051989788600007000080000
4386,LFRQ,47.9749984741,-4.1677899361,2023-08-16 00:30:00,,,,,14.0,99999,99999,13.0,5.0,10.0,10000.0,99999,8.0,98979.0,0.0,11160801051014020130399904999051989790600007000088000
4389,LFRZ,47.3121986389,-2.1491799355,2023-08-16 00:30:00,,,,,16.0,99999,99999,14.0,5.0,10.0,10000.0,99999,8.0,98980.3,0.0,11160801051016020140399904999051989803600007000088000
4390,LFSB,47.5895996094,7.5299100876,2023-08-16 00:30:00,,,,,18.0,99999,99999,17.0,2.0,340.0,10000.0,99999,,98981.2,0.0,11160034021018020170399904999051989811600007000080000
4392,LFST,48.5382995605,7.6282300949,2023-08-16 00:30:00,,,,,20.0,99999,99999,18.0,4.0,320.0,10000.0,99999,,98980.2,0.0,11160032041020020180399904999051989801600007000080000
4393,LFTW,43.7574005127,4.4163498878,2023-08-16 00:30:00,,,,,20.0,99999,99999,12.0,2.0,90.0,10000.0,99999,,98981.7,0.0,11160009021020020120399904999051989816600007000080000
4394,LFBA,44.1747016907,0.5905560255,2023-08-16 00:30:00,,,,,21.0,99999,99999,18.0,4.0,290.0,10000.0,99999,,98982.2,0.0,11160029041021020180399904999051989821600007000080000
4396,LFBL,45.8628005981,1.1794400215,2023-08-16 00:30:00,,,,,20.0,99999,99999,17.0,7.0,30.0,10000.0,99999,,98981.4,0.0,11160003071020020170399904999051989813600007000080000
4397,LFBM,43.9117012024,-0.5074999928,2023-08-16 00:30:00,,,,,22.0,99999,99999,17.0,3.0,330.0,10000.0,99999,,98982.4,0.0,11160033031022020170399904999051989823600007000080000
4398,LFKF,41.5005989075,9.0977802277,2023-08-16 00:30:00,,,,,16.0,99999,99999,13.0,3.0,50.0,10000.0,99999,,98981.5,0.0,11160005031016020130399904999051989815600007000080000
4399,LFOE,49.0287017822,1.2198599577,2023-08-16 00:30:00,,,,,17.0,99999,99999,14.0,4.0,20.0,10000.0,99999,5.0,98980.0,0.0,11160502041017020140399904999051989800600007000085000
4400,LFOP,49.3842010498,1.1748000383,2023-08-16 00:30:00,,,,,16.0,99999,99999,12.0,6.0,10.0,10000.0,99999,7.0,98979.0,0.0,11160701061016020120399904999051989790600007000087000
4401,LFPB,48.9693984985,2.4413900375,2023-08-16 00:30:00,,,,,18.0,99999,99999,15.0,3.0,,10000.0,99999,7.0,98979.8,0.0,11160736031018020150399904999051989798600007000087000
4402,LFPG,49.0127983093,2.5499999523,2023-08-16 00:30:00,,,,,18.0,99999,99999,15.0,6.0,20.0,10000.0,99999,4.0,98979.8,0.0,11160402061018020150399904999051989798600007000084000
4403,LFPV,48.7743988037,2.2015399933,2023-08-16 00:30:00,,,,,18.0,99999,99999,15.0,5.0,20.0,10000.0,99999,,98980.0,0.0,11160002051018020150399904999051989800600007000080000
4404,LFQB,48.322101593,4.016699791,2023-08-16 00:30:00,,,,,20.0,99999,99999,17.0,5.0,320.0,10000.0,99999,,98980.4,0.0,11160032051020020170399904999051989803600007000080000
4405,LFQQ,50.5619010925,3.0894401073,2023-08-16 00:30:00,,,,,16.0,99999,99999,12.0,4.0,270.0,10000.0,99999,,98979.4,0.0,11160027041016020120399904999051989793600007000080000
4407,LFSD,47.268901825,5.0900001526,2023-08-16 00:30:00,,,,,21.0,99999,99999,18.0,5.0,340.0,10000.0,99999,,98981.4,0.0,11160034051021020180399904999051989813600007000080000
4408,LFSI,48.6360015869,4.8994197845,2023-08-16 00:30:00,,,,,20.0,99999,99999,19.0,2.0,,10000.0,99999,7.0,98981.0,0.2,11160736021020020190399904999051989810600207000087000
4409,LFSL,48.7799987793,5.9800000191,2023-08-16 00:30:00,,,,,20.0,99999,99999,18.0,0.0,0.0,10000.0,99999,,98980.1,0.0,11160000001020020180399904999051989801600007000080000
4412,LFTH,43.0973014832,6.1460299492,2023-08-16 00:30:00,,,,,22.0,99999,99999,13.0,2.0,,10000.0,99999,,98981.8,0.0,11160036021022020130399904999051989818600007000080000
4416,LPMA,32.6978988647,-16.7744998932,2023-08-16 00:30:00,,,,,24.0,99999,99999,16.0,6.0,20.0,10000.0,99999,1.0,98978.5,0.0,11160102061024020160399904999051989785600007000081000
4418,UMMS,53.8824996948,28.0307006836,2023-08-16 00:30:00,,,,,19.0,99999,99999,19.0,2.0,110.0,10000.0,99999,,98975.9,0.0,11160011021019020190399904999051989758600007000080000
4422,UUDD,55.4087982178,37.9062995911,2023-08-16 00:30:00,,,,,15.0,99999,99999,13.0,3.0,300.0,10000.0,99999,,98976.6,0.0,11160030031015020130399904999051989766600007000080000
4426,URKK,45.0346984863,39.170501709,2023-08-16 00:30:00,,,,,23.0,99999,99999,14.0,4.0,60.0,10000.0,99999,,98986.6,0.0,11160006041023020140399904999051989866600007000080000
4427,URMM,44.2251014709,43.0819015503,2023-08-16 00:30:00,,,,,20.0,99999,99999,14.0,0.0,0.0,10000.0,99999,,98982.1,0.0,11160000001020020140399904999051989821600007000080000
4428,URMT,45.1091995239,42.1128005981,2023-08-16 00:30:00,,,,,20.0,99999,99999,13.0,3.0,60.0,10000.0,99999,,98981.3,0.0,11160006031020020130399904999051989813600007000080000
4430,URWA,46.2832984924,48.0063018799,2023-08-16 00:30:00,,,,,24.0,99999,99999,15.0,2.0,350.0,10000.0,99999,,98983.6,0.0,11160035021024020150399904999051989836600007000080000
4431,URWI,46.3739013672,44.3308982849,2023-08-16 00:30:00,,,,,21.0,99999,99999,13.0,3.0,320.0,10000.0,99999,,98981.6,0.0,11160032031021020130399904999051989816600007000080000
4432,URWW,48.7825012207,44.345500946,2023-08-16 00:30:00,,,,,19.0,99999,99999,13.0,2.0,310.0,10000.0,99999,,98980.1,0.0,11160031021019020130399904999051989801600007000080000
4433,UUEE,55.9725990295,37.4146003723,2023-08-16 00:30:00,,,,,16.0,99999,99999,14.0,3.0,320.0,10000.0,99999,,98976.4,0.0,11160032031016020140399904999051989763600007000080000
4438,UWKD,55.6062011719,49.2787017822,2023-08-16 00:30:00,,,,,19.0,99999,99999,17.0,4.0,310.0,10000.0,99999,,98984.8,0.0,11160031041019020170399904999051989848600007000080000
4439,UWKE,55.5647010803,52.0924987793,2023-08-16 00:30:00,,,,,18.0,99999,99999,16.0,2.0,350.0,10000.0,99999,,98986.1,0.0,11160035021018020160399904999051989861600007000080000
4440,UWWW,53.504901886,50.1642990112,2023-08-16 00:30:00,,,,,18.0,99999,99999,15.0,4.0,300.0,10000.0,99999,,98984.3,0.0,11160030041018020150399904999051989843600007000080000
4441,LEAL,38.2821998596,-0.5581560135,2023-08-16 00:30:00,,,,,26.0,99999,99999,23.0,2.0,,10000.0,99999,1.0,98984.7,0.0,11160136021026020230399904999051989846600007000081000
4442,LEAM,36.8438987732,-2.3701000214,2023-08-16 00:30:00,,,,,26.0,99999,99999,22.0,3.0,40.0,10000.0,99999,,98985.1,0.0,11160004031026020220399904999051989851600007000080000
4443,LEAS,43.5635986328,-6.0346198082,2023-08-16 00:30:00,,,,,19.0,99999,99999,19.0,6.0,90.0,1900.0,99999,6.0,98980.5,0.0,11110609061019020190399904999051989805600007000086000
4444,LEBB,43.3011016846,-2.9106099606,2023-08-16 00:30:00,,,,,21.0,99999,99999,21.0,1.0,,10000.0,99999,5.0,98980.4,0.0,11160536011021020210399904999051989803600007000085000
4445,LEBL,41.2971000671,2.0784599781,2023-08-16 00:30:00,,,,,25.0,99999,99999,22.0,2.0,,10000.0,99999,,98983.6,0.0,11160036021025020220399904999051989836600007000080000
4446,LECO,43.3021011353,-8.3772602081,2023-08-16 00:30:00,,,,,18.0,99999,99999,18.0,2.0,,10000.0,99999,6.0,98981.2,0.0,11160636021018020180399904999051989811600007000086000
