,station,lat,lon,time,weather,weatherfont,weathersymbol,weathercolour,temperature,pressure,sl_pressure,dewpoint,windspeed,winddir,visibility,visual_range,cloudcover,pressure3h_change,rain,wwletter
464,EEEI,59.2602996826,24.2084999084,2024-02-05 23:50:00,71.0,36.0,h,magenta,-2.0,994.0,(193.04123269170066+0j),-6.0,8.0,320.0,10000.0,99999,8.0,(-799.9587673082993+0j),0.0,1116083208110202160399404000051000600007710088000
720,EGJB,49.4350013733,-2.6019699574,2024-02-05 23:50:00,,,,,11.0,1021.0,(2285.5326674963735+0j),8.0,17.0,230.0,10000.0,99999,6.0,(1263.1326674963734+0j),0.0,1116062317101102080302104000051000600007000086000
727,EGNS,54.0833015442,-4.6238899231,2024-02-05 23:50:00,,,,,10.0,1005.0,(1190.1934608061026+0j),8.0,23.0,230.0,10000.0,99999,6.0,(183.29346080610264+0j),0.0,1116062323101002080300504000051000600007000086000
767,ETNG,50.9608001709,6.0424199104,2024-02-05 23:50:00,,,,,9.0,1017.0,(2386.1584698840566+0j),6.0,13.0,230.0,10000.0,99999,6.0,(1367.3584698840566+0j),0.0,1116062313100902060301704000051000600007000086000
789,LGSM,37.6899986267,26.911699295,2024-02-05 23:50:00,,,,,9.0,1023.0,(1097.92700952144+0j),6.0,6.0,270.0,10000.0,99999,,(74.92700952143991+0j),0.0,1116002706100902060302304000051000600007000080000
856,LGLM,39.917098999,25.2362995148,2024-02-05 23:50:00,,,,,10.0,1019.0,(1068.2447557993587+0j),6.0,0.0,0.0,10000.0,99999,,(49.2447557993587+0j),0.0,1116000000101002060301904000051000600007000080000
920,LGAL,40.8558998108,25.9563007355,2024-02-05 23:50:00,,,,,5.0,1018.0,(1190.696106123738+0j),3.0,0.0,0.0,10000.0,99999,,(171.59610612373797+0j),0.0,1116000000100502030301804000051000600007000080000
921,LGBL,39.2196006775,22.7943000793,2024-02-05 23:50:00,,,,,9.0,1022.0,(1364.7437460427434+0j),2.0,0.0,0.0,10000.0,99999,1.0,(342.94374604274344+0j),0.0,1116010000100902020302204000051000600007000081000
922,LGLR,39.6562825886,22.3400008678,2024-02-05 23:50:00,,,,,5.0,1022.0,(3147.1536769245517+0j),1.0,0.0,0.0,10000.0,99999,1.0,(2125.353676924552+0j),0.0,1116010000100502010302204000051000600007000081000
1034,LGTG,38.3398017883,23.5650005341,2024-02-05 23:50:00,,,,,10.0,1022.0,(3162.2630690942697+0j),5.0,4.0,300.0,10000.0,99999,,(2138.8630690942696+0j),0.0,1116003004101002050302204000051000600007000080000
1126,LTCM,42.0158004761,35.0663986206,2024-02-05 23:50:00,,,,,15.0,1011.0,(1057.5093762182232+0j),5.0,14.0,270.0,10000.0,99999,,(46.10937621822325+0j),0.0,1116002714101502050301104000051000600007000080000
1137,LTAY,37.7855987549,29.7012996674,2024-02-05 23:50:00,,,,,-1.0,1023.0,(45.49314939461855+0j),-3.0,0.0,0.0,10000.0,99999,,(-979.3068506053814+0j),0.0,1116000000110102130302304000051000600007000080000
1138,LTBD,37.8149986267,27.8952999115,2024-02-05 23:50:00,,,,,5.0,1023.0,(1830.8287024056917+0j),3.0,7.0,70.0,8000.0,99999,,(807.2287024056917+0j),0.0,1114000707100502030302304000051000600007000080000
1140,LTBH,40.1376991272,26.4267997742,2024-02-05 23:50:00,,,,,9.0,1020.0,(1110.7180962102661+0j),6.0,2.0,,10000.0,99999,,(91.71809621026614+0j),0.0,1116003602100902060302004000051000600007000080000
1142,LTBY,39.8098983765,30.5193996429,2024-02-05 23:50:00,,,,,2.0,1020.0,(29.27418399878647+0j),-0.0,4.0,260.0,10000.0,99999,,0j,0.0,1116002604100202100302004000051000600007000080000
1144,LTCB,40.966667,38.08,2024-02-05 23:50:00,,,,,16.0,1012.0,(1051.2224480920956+0j),0.0,17.0,210.0,10000.0,99999,4.0,(34.622448092095624+0j),0.0,1116042117101602000301204000051000600007000084000
1148,LTCN,37.5388259888,36.9535217285,2024-02-05 23:50:00,,,,,6.0,1020.0,(14.240176804705703+0j),6.0,2.0,100.0,10000.0,99999,2.0,(-1004.7598231952943+0j),0.0,1116021002100602060302004000051000600007000082000
1149,LTCT,39.9766273499,43.8766479492,2024-02-05 23:50:00,,,,,1.0,1009.0,(34.026032175546646+0j),-3.0,7.0,,10000.0,99999,3.0,0j,0.0,1116033607100102130300904000051000600007000083000
1150,LTDA,36.36277771,36.2822227478,2024-02-05 23:50:00,10.0,36.0,+,yellow,7.0,1021.0,(2660.8683611583524+0j),6.0,3.0,10.0,3700.0,99999,3.0,(1640.8683611583524+0j),0.0,1112030103100702060302104000051000600007100083000
1151,LTFD,39.554599762,27.0137996674,2024-02-05 23:50:00,10.0,36.0,+,yellow,4.0,1022.0,(1495.7988710723323+0j),4.0,4.0,100.0,3500.0,99999,,(473.7988710723323+0j),0.0,1112001004100402040302204000051000600007100080000
1152,LTFG,36.2992172241,32.3005981445,2024-02-05 23:50:00,,,,,9.0,1022.0,(1377.8634242912924+0j),5.0,7.0,120.0,10000.0,99999,,(356.2634242912924+0j),0.0,1116001207100902050302204000051000600007000080000
1228,LBPG,42.2904014587,24.7140007019,2024-02-06 00:00:00,,,,,12.0,1019.0,(1628.7553341183618+0j),-1.0,2.0,270.0,10000.0,99999,1.0,(609.0553341183618+0j),0.0,1116012702101202110301904000051000600007000081000
1229,LBPL,43.4514007568,24.5027999878,2024-02-06 00:00:00,,,,,10.0,1020.0,(2398.442760271544+0j),3.0,14.0,270.0,10000.0,99999,,(1379.542760271544+0j),0.0,1116002714101002030302004000051000600007000080000
1239,LTAN,37.9790000916,32.5619010925,2024-02-05 23:50:00,,,,,5.0,1021.0,(23.41604250868403+0j),-1.0,3.0,90.0,10000.0,99999,,(-1000.283957491316+0j),0.0,1116000903100502110302104000051000600007000080000
1241,LTAR,39.8138008118,36.9034996033,2024-02-05 23:50:00,,,,,1.0,1017.0,(36.06015038311889+0j),-2.0,12.0,280.0,10000.0,99999,5.0,(-979.9398496168811+0j),0.0,1116052812100102120301704000051000600007000085000
1244,LTBF,39.6193008423,27.9260005951,2024-02-05 23:50:00,10.0,36.0,+,yellow,3.0,1022.0,(6557.733882035701+0j),3.0,0.0,0.0,3000.0,99999,,(5535.6338820357005+0j),0.0,1111000000100302030302204000051000600007100080000
1245,LTBQ,40.7350006104,30.0832996368,2024-02-05 23:50:00,,,,,4.0,1018.0,(3000.022019451153+0j),4.0,1.0,,10000.0,99999,,(1981.622019451153+0j),0.0,1116003601100402040301804000051000600007000080000
1247,LTCA,38.6068992615,39.2914009094,2024-02-05 23:50:00,,,,,2.0,1016.0,(30.072163232181875+0j),-1.0,5.0,300.0,10000.0,99999,4.0,(-988.7278367678181+0j),0.0,1116043005100202110301604000051000600007000084000
1252,LTCI,38.4682006836,43.3322982788,2024-02-05 23:50:00,,,,,1.0,1014.0,(36.07245704075995+0j),-6.0,17.0,260.0,10000.0,99999,3.0,(-981.6275429592401+0j),0.2,1116032617100102160301404000051000600207000083000
1268,EGQL,56.3728981018,-2.8684399128,2024-02-05 23:50:00,,,,,9.0,996.0,(1144.046893872928+0j),7.0,12.0,270.0,10000.0,99999,,(146.84689387292792+0j),0.0,1116002712100902070399604000051000600007000080000
1269,EGQS,57.7052001953,-3.3391699791,2024-02-05 23:50:00,,,,,3.0,995.0,(1516.106401097119+0j),3.0,9.0,250.0,10000.0,99999,1.0,(520.106401097119+0j),0.0,1116012509100302030399504000051000600007000081000
1405,ETEK,49.6502990723,7.300069809,2024-02-05 23:55:00,10.0,36.0,+,yellow,3.2,30.14,(1030.14+0j),2.8,12.0,270.0,6000.0,99999,8.0,(8.740000000000123+0j),0.0,111308271210032202233014000051000600007100088000
1800,ULPB,61.8852005005,34.1547012329,2024-02-06 00:00:00,71.0,36.0,h,magenta,-13.0,993.0,(634.5166204385276+0j),-15.0,4.0,30.0,8000.0,99999,,(-357.48337956147236+0j),0.0,11140003041113021150399304000051000600007710080000
2121,LPBJ,38.0788993835,-7.9324002266,2024-02-06 00:00:00,,,,,12.0,1029.0,(3413.6879097851306+0j),11.0,5.0,250.0,10000.0,99999,,(2384.1879097851306+0j),0.0,11160025051012020110302904000051000600007000080000
2124,LPMR,39.831199646,-8.887260437,2024-02-06 00:00:00,10.0,36.0,+,yellow,11.0,1028.0,(1692.652252493454+0j),10.0,1.0,,5000.0,99999,6.0,(663.052252493454+0j),0.0,11130636011011020100302804000051000600007100086000
2125,LPMT,38.7038993835,-9.0359201431,2024-02-06 00:00:00,,,,,11.0,1028.0,(1179.2996603801712+0j),11.0,1.0,,6000.0,99999,,(149.8996603801711+0j),0.0,11130036011011020110302804000051000600007000080000
2130,UMGG,52.5270004272,31.0167007446,2024-02-06 00:00:00,,,,,-1.0,998.0,(119.13823705158148+0j),-2.0,6.0,260.0,10000.0,99999,8.0,(-878.2617629484184+0j),0.0,1116082606110102120399804000051000600007000088000
2141,URMN,43.5129013062,43.6366004944,2024-02-06 00:00:00,,,,,1.0,992.0,(29.349866151430316+0j),-1.0,1.0,230.0,10000.0,99999,3.0,(-967.6501338485697+0j),0.2,1116032301100102110399204000051000600207000083000
2154,UWLW,54.4010009766,48.8027000427,2024-02-06 00:00:00,,,,,-1.0,980.0,(785.1597287981991+0j),-1.0,8.0,140.0,5000.0,99999,8.0,(-196.84027120180087+0j),0.5,1113081408110102110398004000051000600507000088000
2189,EGUL,52.4093017578,0.5609999895,2024-02-05 23:55:00,,,,,13.0,29.85,(1118.0163665799462+0j),7.4,15.0,220.0,10000.0,99999,8.0,(106.01636657994618+0j),0.0,111608221510130207032984000051000600007000088000
2232,EGXC,53.0929985046,-0.1660140008,2024-02-05 23:50:00,,,,,12.0,1008.0,(1080.8426613148536+0j),8.0,18.0,240.0,10000.0,99999,6.0,(70.44266131485358+0j),0.0,1116062418101202080300804000051000600007000086000
2282,LGHI,38.3432006836,26.1406002045,2024-02-05 23:50:00,,,,,12.0,1020.0,(1063.9644373702777+0j),11.0,0.0,0.0,10000.0,99999,,(42.26443737027762+0j),0.0,11160000001012020110302004000051000600007000080000
2283,LGNX,37.0811004639,25.3680992126,2024-02-05 23:50:00,,,,,12.0,1022.0,(1051.2791594953146+0j),11.0,3.0,,10000.0,99999,,0j,0.0,11160036031012020110302204000051000600007000080000
2288,LKKB,50.1213989258,14.5436000824,2024-02-06 00:00:00,,,,,8.0,1013.0,(6708.519164003496+0j),2.0,19.0,220.0,10000.0,99999,,0j,0.0,1116002219100802020301304000051000600007000080000
2289,LKKV,50.202999115,12.9149999619,2024-02-06 00:00:00,,,,,4.0,1014.0,(20.022444900257565+0j),1.0,9.0,250.0,10000.0,99999,1.0,(-998.0775550997424+0j),0.0,1116012509100402010301404000051000600007000081000
2290,LKLN,49.675201416,13.274600029,2024-02-06 00:00:00,,,,,7.0,1016.0,(9.324654842607758+0j),2.0,7.0,240.0,10000.0,99999,,(-1007.6753451573923+0j),0.0,1116002407100702020301604000051000600007000080000
2295,LOXZ,47.2028007507,14.7441997528,2024-02-05 23:50:00,,,,,2.0,1020.0,(28.038683609417664+0j),-5.0,3.0,80.0,10000.0,99999,,(-996.3613163905824+0j),0.0,1116000803100202150302004000051000600007000080000
2305,LTCD,39.7102012634,39.5270004272,2024-02-05 23:50:00,,,,,3.0,1016.0,(28.959324420360137+0j),-1.0,8.0,340.0,10000.0,99999,5.0,(-988.8406755796398+0j),0.1,1116053408100302110301604000051000600107000085000
2306,LTCF,40.5621986389,43.1150016785,2024-02-05 23:50:00,,,,,-4.0,1007.0,(51.88270386974506+0j),-7.0,19.0,250.0,10000.0,99999,4.0,(-960.817296130255+0j),0.0,1116042519110402170300704000051000600007000084000
2309,LTFH,41.2545013428,36.5671005249,2024-02-05 23:50:00,,,,,16.0,1013.0,(1052.2612054518704+0j),1.0,16.0,240.0,10000.0,99999,,0j,0.0,1116002416101602010301304000051000600007000080000
2314,ULOO,57.7839012146,28.3955993652,2024-02-06 00:00:00,85.0,36.0,v,magenta,-2.0,992.0,(-4.465650727591152e-12-4.667556138856931e-12j),-5.0,3.0,260.0,10000.0,99999,3.0,(-992.0000000000044-4.667556138856931e-12j),0.0,1116032603110202150399204000051000600007850083000
2342,EIME,53.301700592,-6.4513301849,2024-02-06 00:00:00,,,,,10.0,1007.0,(2316.7403864567664+0j),9.0,17.0,230.0,10000.0,99999,3.0,(1308.7403864567664+0j),0.0,1116032317101002090300704000051000600007000083000
2384,EGYM,52.648399353,0.5506920218,2024-02-05 23:50:00,,,,,11.0,1010.0,(1256.6399290935663+0j),6.0,15.0,220.0,10000.0,99999,8.0,(244.8399290935663+0j),0.0,1116082215101102060301004000051000600007000088000
2398,ETAR,49.4369010925,7.600279808,2024-02-05 23:55:00,,,,,6.3,30.15,(7124.642900037562+0j),2.9,11.0,250.0,10000.0,99999,8.0,(6102.242900037562+0j),0.0,111608251110062202233014000051000600007000088000
2399,ETIH,49.2181015015,11.8360996246,2024-02-05 23:55:00,,,,,5.2,30.07,(14.111776715121247+0j),0.8,0.0,0.0,10000.0,99999,,(-1003.8882232848788+0j),0.0,111600000010052200233004000051000600007000080000
2400,ETIK,49.4738998413,10.3880996704,2024-02-05 23:55:00,,,,,5.2,30.11,(11.191670700907483+0j),3.0,13.0,260.0,10000.0,99999,8.0,(-1009.6083292990925+0j),0.0,111608261310052203233014000051000600007000088000
2403,LICT,37.9113998413,12.4879999161,2024-02-05 23:55:00,,,,,9.0,1028.0,(1127.5344194550016+0j),7.0,5.0,120.0,10000.0,99999,3.0,(98.93441945500172+0j),0.0,1116031205100902070302804000051000600007000083000
2404,LIBA,41.5414009094,15.7180995941,2024-02-05 23:55:00,,,,,9.0,1025.0,(1831.4925571589745+0j),5.0,5.0,240.0,8000.0,99999,,(805.9925571589745+0j),0.0,1114002405100902050302504000051000600007000080000
2405,LIBN,40.239200592,18.1333007813,2024-02-05 23:55:00,45.0,36.0,N,yellow,6.0,1025.0,(2084.5142047608615+0j),6.0,2.0,,800.0,99999,6.0,(1058.8142047608615+0j),0.0,1110063602100602060302504000051000600007450086000
2407,LIPL,45.4322013855,10.2677001953,2024-02-05 23:55:00,10.0,36.0,+,yellow,6.0,1024.0,(3525.2838329790166+0j),6.0,4.0,100.0,3000.0,99999,,(2500.9838329790164+0j),0.0,1111001004100602060302404000051000600007100080000
2408,LIPS,45.6848983765,12.0829000473,2024-02-05 23:55:00,10.0,36.0,+,yellow,6.0,1024.0,(1939.9515869008849+0j),5.0,4.0,40.0,1000.0,99999,6.0,(914.9515869008849+0j),0.0,1110060404100602050302404000051000600007100086000
2409,LIRE,41.654499054,12.4451999664,2024-02-05 23:55:00,,,,,14.0,1027.0,(1131.9457605722116+0j),12.0,8.0,100.0,10000.0,99999,1.0,(105.04576057221152+0j),0.0,11160110081014020120302704000051000600007000081000
2410,LIRS,42.7597007751,11.0719003677,2024-02-05 23:55:00,,,,,9.0,1025.0,(1092.0655392369572+0j),6.0,3.0,40.0,10000.0,99999,4.0,(66.26553923695724+0j),0.0,1116040403100902060302504000051000600007000084000
2412,LICZ,37.4016990662,14.9224004745,2024-02-05 23:55:00,,,,,7.0,1026.0,(1452.385703378088+0j),7.0,6.0,250.0,8000.0,99999,,(424.9857033780879+0j),0.0,1114002506100702070302604000051000600007000080000
2414,LIRM,41.060798645,14.0818996429,2024-02-05 23:55:00,,,,,12.0,1027.0,(1113.292455062125+0j),12.0,2.0,170.0,7000.0,99999,4.0,(85.99245506212515+0j),0.0,11140417021012020120302704000051000600007000084000
2434,EGUN,52.3619003296,0.4864059985,2024-02-05 23:55:00,,,,,11.0,29.85,(1137.7072652557474+0j),6.0,13.0,230.0,10000.0,99999,6.0,(125.70726525574742+0j),0.0,111606231310110206032984000051000600007000086000
2436,ETIC,49.6986999512,11.940199852,2024-02-06 00:10:00,,,,,5.0,30.03,(13.84295071533035+0j),2.0,6.0,260.0,10000.0,99999,6.0,(-1003.1570492846696+0j),0.0,111606260610050202033004000051000600007000086000
2438,LIPI,45.9786987305,13.0493001938,2024-02-05 23:55:00,45.0,36.0,N,yellow,4.0,1024.0,(2980.24904169589+0j),3.0,3.0,320.0,50.0,99999,6.0,(1955.64904169589+0j),0.0,1110063203100402030302404000051000600007450086000
2447,ETOU,50.0498008728,8.3254003525,2024-02-06 00:15:00,,,,,8.0,30.12,(3656.5373264501654+0j),4.0,12.0,260.0,10000.0,99999,8.0,(2635.6373264501653+0j),0.0,111608261210080204033014000051000600007000088000
2453,LBIA,42.4548988342,26.3521995544,2024-02-06 00:00:00,,,,,11.0,1017.0,(3035.499965326442+0j),-1.0,6.0,160.0,10000.0,99999,3.0,0j,0.0,1116031606101102110301704000051000600007000083000
2459,EVGA,56.778301239,24.8539009094,2024-02-06 00:20:00,71.0,36.0,h,magenta,-2.0,996.0,(-306.18791053624005-320.03158075869305j),-3.0,5.0,290.0,3100.0,99999,4.0,(-1302.18791053624-320.03158075869305j),0.0,1111042905110202130399604000051000600007710084000
2463,ETAD,49.9726982117,6.6925001144,2024-02-06 00:17:00,,,,,5.0,30.09,(12.543942253130096+0j),4.0,15.0,240.0,8000.0,99999,8.0,(-1009.3560577468699+0j),0.0,111408241510050204033004000051000600007000088000
2494,LATI,41.4146995544,19.7206001282,2024-02-06 00:20:00,,,,,4.0,1026.0,(2341.583937305867+0j),3.0,2.0,170.0,8000.0,99999,,(1315.583937305867+0j),0.0,1114001702100402030302604000051000600007000080000
2500,LMML,35.857498,14.4775,2024-02-06 00:15:00,,,,,14.0,1027.0,(1883.2487137702135+0j),11.0,11.0,290.0,10000.0,99999,,(854.1487137702136+0j),0.0,11160029111014020110302704000051000600007000080000
2503,LGRX,38.1511001587,21.4256000519,2024-02-05 23:50:00,,,,,5.0,1026.0,(1369.2088580419925+0j),5.0,0.0,0.0,10000.0,99999,,(343.20885804199247+0j),0.0,1116000000100502050302604000051000600007000080000
2504,LIED,39.3541984558,8.9724798203,2024-02-05 23:55:00,10.0,36.0,+,yellow,6.0,1027.0,(1676.821267721601+0j),4.0,2.0,10.0,1500.0,99999,3.0,(648.421267721601+0j),0.0,1110030102100602040302704000051000600007100083000
2508,EVVA,57.35779953,21.5442008972,2024-02-06 00:20:00,,,,,-0.0,998.0,(38.16418209823065+0j),-5.0,9.0,310.0,10000.0,99999,,0j,0.0,1116003109110002150399804000051000600007000080000
2524,LSZC,46.9744444444,8.3969444444,2024-02-06 00:20:00,,,,,-2.0,1024.0,(75.07336959180353+0j),-2.0,2.0,,10000.0,99999,,(-948.9266304081965+0j),0.0,1116003602110202120302404000051000600007000080000
2529,EKRS,55.4258003235,11.8066997528,2024-02-06 00:20:00,61.0,36.0,^,green,7.0,999.0,(1609.5041824588295+0j),7.0,9.0,240.0,7000.0,99999,7.0,(607.9041824588295+0j),1.3,1114072409100702070399904000051000601307610087000
2616,EGHQ,50.4406013489,-4.9954099655,2024-02-06 00:20:00,,,,,11.0,1018.0,(2510.1508784354296+0j),10.0,19.0,240.0,10000.0,99999,6.0,(1490.5508784354297+0j),0.0,11160624191011020100301804000051000600007000086000
2618,EGCK,53.1041984558,-4.340280056,2024-02-06 00:20:00,,,,,11.0,1009.0,(1012.1364771621152+0j),9.0,19.0,220.0,10000.0,99999,8.0,(0.9364771621151249+0j),0.0,1116082219101102090300904000051000600007000088000
2667,ESOH,60.0200996399,13.5789003372,2024-02-06 00:20:00,,,,,-15.0,999.0,(207.3724644877821+0j),-16.0,1.0,,10000.0,99999,,(-793.2275355122179+0j),0.0,11160036011115021160399904000051000600007000080000
2675,ESNZ,63.1944007874,14.5003004074,2024-02-06 00:20:00,,,,,-8.0,997.0,(263200461094783.25+0j),-8.0,3.0,70.0,10000.0,99999,6.0,(263200461093783.84+0j),0.0,1116060703110802180399704000051000600007000086000
2677,ESCF,58.4023017883,15.5256996155,2024-02-06 00:20:00,,,,,-7.0,1000.0,(67.85790878632048+0j),-7.0,3.0,200.0,10000.0,99999,,(-931.5420912136794+0j),0.0,1116002003110702170300004000051000600007000080000
2679,ESIB,58.426399231,12.7144002914,2024-02-06 00:20:00,,,,,-3.0,999.0,(4.304191939343967+0j),-4.0,2.0,40.0,10000.0,99999,8.0,(-995.095808060656+0j),0.0,1116080402110302140399904000051000600007000088000
2680,ESMV,57.2921981812,14.1372003555,2024-02-06 00:20:00,,,,,-2.0,999.0,(481.86453412548303+0j),-3.0,0.0,0.0,10000.0,99999,8.0,(-519.4354658745169+0j),0.0,1116080000110202130399904000051000600007000088000
2682,ESPE,65.8752975464,20.1499004364,2024-02-06 00:20:00,71.0,36.0,h,magenta,-9.0,999.0,(0.5759836627270251+0j),-10.0,2.0,320.0,10000.0,99999,8.0,(-999.124016337273+0j),0.0,11160832021109021100399904000051000600007710088000
2684,ESIA,58.5138015747,14.5071001053,2024-02-06 00:20:00,,,,,-7.0,999.0,(67.79005087753416+0j),-7.0,0.0,0.0,10000.0,99999,,(-932.8099491224659+0j),0.0,1116000000110702170399904000051000600007000080000
2685,ESCM,59.8973007202,17.5886001587,2024-02-06 00:20:00,,,,,-8.0,999.0,(727.7527928497973+0j),-9.0,0.0,0.0,10000.0,99999,,(-270.54720715020267+0j),0.0,1116000000110802190399904000051000600007000080000
2689,EFJO,62.6628990173,29.6075000763,2024-02-06 00:20:00,71.0,36.0,h,magenta,-13.0,994.0,(221.47493369498355+0j),-15.0,4.0,30.0,10000.0,99999,4.0,(-771.5250663050165+0j),0.0,11160403041113021150399404000051000600007710084000
2692,EFKS,65.9876022339,29.2394008636,2024-02-06 00:20:00,71.0,36.0,h,magenta,-21.0,997.0,(90.68140372306513+0j),-23.0,4.0,300.0,10000.0,99999,8.0,(-906.3185962769348+0j),0.0,11160830041121021230399704000051000600007710088000
2697,EFSI,62.6921005249,22.8323001862,2024-02-06 00:20:00,71.0,36.0,h,magenta,-7.0,996.0,(74.26649983928247+0j),-10.0,4.0,10.0,10000.0,99999,8.0,0j,0.0,11160801041107021100399604000051000600007710088000
2700,EFUT,60.8964004517,26.9384002686,2024-02-06 00:20:00,71.0,36.0,h,magenta,-10.0,992.0,(173.04486258918521+0j),-12.0,6.0,350.0,10000.0,99999,1.0,(-816.9551374108148+0j),0.0,11160135061110021120399204000051000600007710081000
2744,EFET,68.3626022339,23.4242992401,2024-02-06 00:20:00,71.0,36.0,h,magenta,-22.0,999.0,(55.80581851219146+0j),-24.0,5.0,40.0,10000.0,99999,8.0,0j,0.0,11160804051122021240399904000051000600007710088000
2745,EFHA,61.8559989929,24.7866001129,2024-02-06 00:20:00,85.0,36.0,v,magenta,-7.0,993.0,(0.20406752951097282+0j),-9.0,4.0,340.0,10000.0,99999,8.0,(-993.195932470489+0j),0.0,1116083404110702190399304000051000600007850088000
2748,EFKT,67.7009963989,24.8467998505,2024-02-06 00:20:00,85.0,36.0,v,magenta,-22.0,1000.0,(244.59783109253664+0j),-24.0,2.0,,10000.0,99999,6.0,(-754.4021689074634+0j),0.0,11160636021122021240300004000051000600007850086000
2749,EFLP,61.0446014404,28.1443996429,2024-02-06 00:20:00,71.0,36.0,h,magenta,-10.0,992.0,(159.80101335539516+0j),-11.0,6.0,360.0,10000.0,99999,3.0,(-830.8989866446049+0j),0.0,11160336061110021110399204000051000600007710083000
2750,EFMI,61.6865997314,27.2017993927,2024-02-06 00:20:00,,,,,-10.0,993.0,(187.1114564259434+0j),-12.0,3.0,360.0,10000.0,99999,6.0,(-804.8885435740566+0j),0.0,11160636031110021120399304000051000600007000086000
2752,EFSA,61.9430999756,28.9451007843,2024-02-06 00:20:00,71.0,36.0,h,magenta,-11.0,993.0,(259.75592520714054+0j),-14.0,7.0,40.0,10000.0,99999,1.0,(-733.0440747928594+0j),0.0,11160104071111021140399304000051000600007710081000
2798,ESNV,64.5791015625,16.8335990906,2024-02-06 00:20:00,,,,,-20.0,998.0,(9.365114166902295+0j),-23.0,0.0,0.0,10000.0,99999,8.0,(-988.6348858330977+0j),0.0,11160800001120021230399804000051000600007000088000
2800,ESST,60.1576004028,12.9912996292,2024-02-06 00:20:00,,,,,-15.0,1000.0,(298.87821796921963+0j),-16.0,2.0,310.0,10000.0,99999,,0j,0.0,11160031021115021160300004000051000600007000080000
2801,ESUP,67.2455978394,23.0688991547,2024-02-06 00:20:00,,,,,-26.0,1001.0,(408.5229526623842+0j),-29.0,1.0,200.0,10000.0,99999,4.0,(-592.8770473376157+0j),0.0,11160420011126021290300104000051000600007000084000
2802,ESND,62.0477981567,14.4229001999,2024-02-06 00:20:00,,,,,-12.0,998.0,(-166.50554314824416-174.03375621687175j),-14.0,3.0,,10000.0,99999,8.0,(-1166.8055431482442-174.03375621687175j),0.0,11160836031112021140399804000051000600007000088000
2829,LIMZ,44.547000885,7.6232199669,2024-02-06 00:20:00,,,,,2.0,1024.0,(22.80897820450242+0j),2.0,4.0,30.0,10000.0,99999,,0j,0.0,1116000304100202020302404000051000600007000080000
2832,LICB,36.9946010208,14.6071815491,2024-02-06 00:20:00,,,,,5.0,1027.0,(7176.647945893082+0j),4.0,4.0,70.0,10000.0,99999,,(6149.447945893082+0j),0.0,1116000704100502040302704000051000600007000080000
2834,LIPO,45.4289016724,10.3305997849,2024-02-06 00:20:00,10.0,36.0,+,yellow,8.0,1024.0,(2961.5580943306677+0j),6.0,1.0,,3100.0,99999,6.0,0j,0.0,1111063601100802060302404000051000600007100086000
2971,EEKE,58.2299003601,22.5095005035,2024-02-06 00:20:00,71.0,36.0,h,magenta,-2.0,997.0,(771.227767964547+0j),-3.0,7.0,340.0,2400.0,99999,8.0,(-224.87223203545307+0j),0.0,1111083407110202130399704000051000600007710088000
2973,EEPU,58.4189987183,24.4727993011,2024-02-06 00:20:00,71.0,36.0,h,magenta,-2.0,995.0,(349.8921175068346+0j),-5.0,8.0,280.0,10000.0,99999,8.0,0j,0.0,1116082808110202150399504000051000600007710088000
2989,EDBC,51.8563995361,11.42029953,2024-02-06 00:20:00,,,,,9.0,1013.0,(4027.006944552957+0j),3.0,17.0,260.0,10000.0,99999,8.0,(3014.006944552957+0j),0.0,1116082617100902030301304000051000600007000088000
3076,EDJA,47.9888000488,10.2395000458,2024-02-06 00:20:00,,,,,3.0,1021.0,(23.656759624607375+0j),-0.0,10.0,190.0,10000.0,99999,2.0,0j,0.0,1116021910100302100302104000051000600007000082000
3083,EDTY,49.1183319092,9.7838888168,2024-02-06 00:20:00,,,,,4.0,1020.0,(15.526861400637689+0j),3.0,9.0,270.0,10000.0,99999,8.0,(-1006.5731385993623+0j),0.0,1116082709100402030302004000051000600007000088000
3087,EDWE,53.3911094666,7.2274999619,2024-02-06 00:20:00,,,,,10.0,1008.0,(1018.3559314788145+0j),6.0,21.0,240.0,10000.0,99999,8.0,(9.15593147881441+0j),0.0,1116082421101002060300804000051000600007000088000
3090,EKBI,55.7402992249,9.1517801285,2024-02-06 00:20:00,63.0,36.0,',green,7.0,998.0,(2452.9410593307193+0j),7.0,15.0,240.0,9000.0,99999,8.0,(1452.0410593307192+0j),2.4,1115082415100702070399804000051000602307630088000
3091,EKCH,55.6179008484,12.6560001373,2024-02-06 00:20:00,61.0,36.0,^,green,1.0,999.0,(1644.9023348647477+0j),1.0,9.0,110.0,8000.0,99999,6.0,(643.9023348647477+0j),1.4,1114061109100102010399904000051000601307610086000
3092,EKEB,55.5259017944,8.5534000397,2024-02-06 00:20:00,,,,,7.0,1000.0,(1517.961022984812+0j),6.0,20.0,230.0,4500.0,99999,8.0,(516.061022984812+0j),1.1,1112082320100702060300004000051000601107000088000
3094,EKRK,55.5856018066,12.1314001083,2024-02-06 00:20:00,63.0,36.0,',green,2.0,999.0,(4330.569906748653+0j),1.0,7.0,110.0,8000.0,99999,8.0,(3330.569906748653+0j),1.6,1114081107100202010399904000051000601607630088000
3095,EKRN,55.0633010864,14.7595996857,2024-02-06 00:20:00,71.0,36.0,h,magenta,0.0,1000.0,(38.240663425080804+0j),0.0,6.0,110.0,10000.0,99999,8.0,(-962.7593365749192+0j),1.0,1116081106100002000300004000051000601007710088000
3096,EKSB,54.9644012451,9.7917299271,2024-02-06 00:20:00,61.0,36.0,^,green,8.0,1001.0,(1105.8357746477675+0j),7.0,19.0,250.0,4000.0,99999,8.0,(104.8357746477675+0j),0.2,1112082519100802070300104000051000600207610088000
3097,EKSP,55.2256011963,9.2639303207,2024-02-06 00:20:00,,,,,7.0,1000.0,(1778.7034452584198+0j),6.0,20.0,250.0,2500.0,99999,6.0,(776.2034452584198+0j),0.6,1111062520100702060300004000051000600607000086000
3098,EKVD,55.4362983704,9.3309202194,2024-02-06 00:20:00,,,,,7.0,999.0,(1789.0949600017361+0j),6.0,19.0,260.0,10000.0,99999,,(787.8949600017361+0j),1.6,1116002619100702060399904000051000601607000080000
3099,EKVJ,55.9901008606,8.3539104462,2024-02-06 00:20:00,,,,,99999.0,998.0,(99999+0j),99999.0,99999.0,,3700.0,99999,8.0,(98998.2+0j),1.3,11120836999991099999020999990399804000051000601307000088000
3101,LOWG,46.9911003113,15.4395999908,2024-02-06 00:20:00,,,,,1.0,1018.0,(28.021296232328574+0j),-3.0,1.0,,10000.0,99999,,(-992.8787037676714+0j),0.0,1116003601100102130301804000051000600007000080000
3102,LOWI,47.2602005005,11.3439998627,2024-02-06 00:20:00,,,,,1.0,1023.0,(32.02638656449219+0j),-1.0,4.0,260.0,10000.0,99999,,(-994.3736134355079+0j),0.0,1116002604100102110302304000051000600007000080000
3103,LOWK,46.6425018311,14.3376998901,2024-02-06 00:20:00,,,,,-1.0,1021.0,(52.630080307194895+0j),-3.0,2.0,330.0,10000.0,99999,,(-971.969919692805+0j),0.0,1116003302110102130302104000051000600007000080000
3104,LOWL,48.2332000732,14.1875,2024-02-06 00:20:00,,,,,4.0,1019.0,(12.613343743180511+0j),2.0,3.0,200.0,10000.0,99999,,(-1008.4866562568195+0j),0.0,1116002003100402020301904000051000600007000080000
3105,LOWS,47.7933006287,13.0043001175,2024-02-06 00:20:00,,,,,5.0,1020.0,(14.060946011930795+0j),-1.0,9.0,160.0,10000.0,99999,,(-1008.2390539880691+0j),0.0,1116001609100502110302004000051000600007000080000
3106,LOWW,48.1102981567,16.5697002411,2024-02-06 00:20:00,,,,,12.0,1016.0,(3219.0025939262996+0j),-0.0,12.0,280.0,10000.0,99999,,(2201.1025939262995+0j),0.0,1116002812101202100301604000051000600007000080000
3109,EFIV,68.6072998047,27.4053001404,2024-02-06 00:20:00,,,,,-21.0,1000.0,(363.92038113176847+0j),-24.0,2.0,,10000.0,99999,8.0,(-636.0796188682316+0j),0.0,11160836021121021240300004000051000600007000088000
3110,EFJY,62.3995018005,25.6783008575,2024-02-06 00:20:00,71.0,36.0,h,magenta,-8.0,994.0,(8.614766449298696+0j),-11.0,7.0,10.0,10000.0,99999,5.0,(-985.6852335507012+0j),0.0,11160501071108021110399404000051000600007710085000
3111,EFKE,65.7787017822,24.5820999146,2024-02-06 00:20:00,,,,,-19.0,1000.0,(892.9225153966255+0j),-21.0,7.0,20.0,10000.0,99999,,(-106.0774846033745+0j),0.0,11160002071119021210300004000051000600007000080000
3112,EFKK,63.7211990356,23.1431007385,2024-02-06 00:20:00,,,,,-12.0,998.0,(772.0013163777511+0j),-13.0,2.0,340.0,10000.0,99999,6.0,(-224.9986836222489+0j),0.0,11160634021112021130399804000051000600007000086000
3114,EFMA,60.1222000122,19.8981990814,2024-02-06 00:20:00,,,,,-2.0,997.0,(726.2958303015494+0j),-7.0,5.0,320.0,10000.0,99999,6.0,(-270.70416969845064+0j),0.0,1116063205110202170399704000051000600007000086000
3115,EFOU,64.9300994873,25.3546009064,2024-02-06 00:20:00,,,,,-14.0,999.0,(887.2721481285588+0j),-16.0,4.0,60.0,10000.0,99999,,(-110.12785187144118+0j),0.0,11160006041114021160399904000051000600007000080000
3116,EFPO,61.4617004395,21.7999992371,2024-02-06 00:20:00,,,,,-4.0,996.0,(653.5951004860378+0j),-7.0,5.0,330.0,10000.0,99999,8.0,(-341.40489951396216+0j),0.0,1116083305110402170399604000051000600007000088000
3117,EFRO,66.5647964478,25.8304004669,2024-02-06 00:20:00,,,,,-19.0,999.0,(175.77919162288657+0j),-21.0,8.0,30.0,10000.0,99999,,(-822.2208083771134+0j),0.0,11160003081119021210399904000051000600007000080000
3118,EFTP,61.414100647,23.6044006348,2024-02-06 00:20:00,85.0,36.0,v,magenta,-6.0,994.0,(0.9873268674819461+0j),-9.0,5.0,20.0,10000.0,99999,8.0,(-992.0126731325181+0j),0.0,1116080205110602190399404000051000600007850088000
3119,EFTU,60.5140991211,22.2628002167,2024-02-06 00:20:00,,,,,-3.0,995.0,(17.625708580795582+0j),-7.0,5.0,330.0,10000.0,99999,8.0,(-976.9742914192044+0j),0.0,1116083305110302170399504000051000600007000088000
3120,EFVA,63.0507011414,21.7621994019,2024-02-06 00:20:00,,,,,-9.0,998.0,(927.1337240795859+0j),-11.0,6.0,360.0,10000.0,99999,3.0,(-68.76627592041405+0j),0.0,11160336061109021110399804000051000600007000083000
3122,ENBR,60.2933998108,5.2181401253,2024-02-06 00:20:00,,,,,-4.0,999.0,(79.78475335055556+0j),-5.0,3.0,70.0,10000.0,99999,,0j,0.0,1116000703110402150399904000051000600007000080000
3123,ENCN,58.2042007446,8.0853700638,2024-02-06 00:20:00,,,,,-0.0,998.0,(38.16418209823065+0j),-2.0,6.0,50.0,10000.0,99999,5.0,(-961.4358179017694+0j),0.0,1116050506110002120399804000051000600007000085000
3125,ENHD,59.3452987671,5.2083601952,2024-02-06 00:20:00,,,,,-1.0,998.0,(-0.674295931088018-0.7047828647033134j),-5.0,7.0,90.0,10000.0,99999,,(-999.974295931088-0.7047828647033134j),0.0,1116000907110102150399804000051000600007000080000
3128,ENVA,63.4578018188,10.9239997864,2024-02-06 00:20:00,,,,,-5.0,999.0,(649.9451014122934+0j),-5.0,4.0,100.0,10000.0,99999,3.0,(-349.75489858770663+0j),0.0,1116031004110502150399904000051000600007000083000
3129,ENZV,58.876701355,5.6377801895,2024-02-06 00:20:00,,,,,-2.0,998.0,(560.100234011343+0j),-3.0,1.0,130.0,10000.0,99999,3.0,0j,0.0,1116031301110202130399804000051000600007000083000
3133,LGAV,37.9364013672,23.9444999695,2024-02-06 00:20:00,,,,,10.0,1022.0,(2299.6634973630703+0j),6.0,2.0,,10000.0,99999,,0j,0.0,1116003602101002060302204000051000600007000080000
3134,LGIR,35.3396987915,25.1802997589,2024-02-06 00:20:00,,,,,12.0,1023.0,(1380.3081723685927+0j),8.0,6.0,170.0,10000.0,99999,1.0,(356.1081723685927+0j),0.0,1116011706101202080302304000051000600007000081000
3137,LGRP,36.4053993225,28.0862007141,2024-02-06 00:20:00,,,,,16.0,1022.0,(1059.3926570073368+0j),14.0,6.0,220.0,10000.0,99999,,(37.19265700733672+0j),0.0,11160022061016020140302204000051000600007000080000
3142,LIBP,42.4317016602,14.1810998917,2024-02-06 00:20:00,,,,,6.0,1025.0,(1320.9193036780218+0j),6.0,5.0,210.0,10000.0,99999,8.0,(295.3193036780219+0j),0.0,1116082105100602060302504000051000600007000088000
3143,LIBR,40.6576004028,17.9470005035,2024-02-06 00:20:00,,,,,8.0,1025.0,(1239.353576104061+0j),4.0,7.0,240.0,10000.0,99999,,(213.75357610406104+0j),0.0,1116002407100802040302504000051000600007000080000
3144,LICA,38.9053993225,16.2423000336,2024-02-06 00:20:00,,,,,11.0,1027.0,(1154.5948699095977+0j),9.0,6.0,260.0,10000.0,99999,1.0,(126.59486990959772+0j),0.0,1116012606101102090302704000051000600007000081000
3146,LICJ,38.1759986877,13.0909996033,2024-02-06 00:20:00,,,,,11.0,1027.0,(1243.066576765681+0j),7.0,2.0,180.0,10000.0,99999,,(215.26657676568107+0j),0.0,1116001802101102070302704000051000600007000080000
3147,LICR,38.0712013245,15.651599884,2024-02-06 00:20:00,,,,,14.0,1027.0,(1279.2879765286038+0j),7.0,11.0,20.0,10000.0,99999,,(250.5879765286038+0j),0.0,1116000211101402070302704000051000600007000080000
3148,LIEA,40.6320991516,8.290769577,2024-02-06 00:20:00,,,,,12.0,1027.0,(1294.4181449210994+0j),12.0,6.0,220.0,10000.0,99999,1.0,(266.5181449210993+0j),0.0,11160122061012020120302704000051000600007000081000
3149,LIEE,39.251499176,9.0542802811,2024-02-06 00:20:00,,,,,8.0,1028.0,(1085.7565846431605+0j),7.0,7.0,340.0,6000.0,99999,,(57.75658464316052+0j),0.0,1113003407100802070302804000051000600007000080000
3150,LIEO,40.8987007141,9.5176296234,2024-02-06 00:20:00,,,,,11.0,1026.0,(1146.7823597313618+0j),8.0,5.0,190.0,10000.0,99999,,(119.8823597313617+0j),0.0,1116001905101102080302604000051000600007000080000
3152,LIME,45.6739006042,9.7041702271,2024-02-06 00:20:00,10.0,36.0,+,yellow,7.0,1024.0,(6485.867910135963+0j),4.0,0.0,0.0,2500.0,99999,,(5461.267910135963+0j),0.0,1111000000100702040302404000051000600007100080000
3153,LIMF,45.2008018494,7.6496300697,2024-02-06 00:20:00,,,,,3.0,1024.0,(15.747991187914867+0j),1.0,3.0,340.0,10000.0,99999,,(-1007.8520088120852+0j),0.0,1116003403100302010302404000051000600007000080000
3155,LIML,45.445098877,9.2767400742,2024-02-06 00:20:00,,,,,5.0,1024.0,(4312.399954596123+0j),4.0,2.0,360.0,3000.0,99999,,(3287.6999545961235+0j),0.0,1111003602100502040302404000051000600007000080000
3156,LIPE,44.5354003906,11.2887001038,2024-02-06 00:20:00,45.0,36.0,N,yellow,1.0,1024.0,(7073.08665103506+0j),1.0,2.0,200.0,600.0,99999,3.0,(6049.08665103506+0j),0.0,1110032002100102010302404000051000600007450083000
3157,LIPH,45.648399353,12.1943998337,2024-02-06 00:20:00,45.0,36.0,N,yellow,6.0,1024.0,(1391.5509697580333+0j),5.0,3.0,50.0,100.0,99999,,(366.55096975803326+0j),0.0,1110000503100602050302404000051000600007450080000
3158,LIPQ,45.8274993896,13.4722003937,2024-02-06 00:20:00,10.0,36.0,+,yellow,9.0,1024.0,(1180.3321224547576+0j),8.0,4.0,290.0,1400.0,99999,8.0,(154.8321224547576+0j),0.0,1110082904100902080302404000051000600007100088000
3161,LIPY,43.6162986755,13.3622999191,2024-02-06 00:20:00,,,,,5.0,1024.0,(1390.2302790988356+0j),4.0,2.0,,10000.0,99999,,(364.8302790988355+0j),0.0,1116003602100502040302404000051000600007000080000
3163,LIRA,41.7994003296,12.5949001312,2024-02-06 00:20:00,,,,,12.0,1026.0,(2536.0724919609224+0j),10.0,7.0,150.0,10000.0,99999,6.0,(1509.0724919609224+0j),0.0,11160615071012020100302604000051000600007000086000
3164,LIRF,41.8045005798,12.2508001328,2024-02-06 00:20:00,,,,,11.0,1026.0,(1074.2826108008564+0j),11.0,7.0,140.0,10000.0,99999,3.0,(48.282610800856446+0j),0.0,11160314071011020110302604000051000600007000083000
3165,LIRP,43.6838989258,10.3927001953,2024-02-06 00:15:00,,,,,11.0,1026.0,(1045.1994703312323+0j),11.0,2.0,,10000.0,99999,6.0,(18.89947033123235+0j),0.0,11160636021011020110302604000051000600007000086000
3166,LIRQ,43.8100013733,11.2051000595,2024-02-06 00:20:00,,,,,11.0,1025.0,(1516.9077088403058+0j),9.0,1.0,,10000.0,99999,8.0,(490.80770884030585+0j),0.0,1116083601101102090302504000051000600007000088000
3168,LICD,35.4978981018,12.6181001663,2024-02-06 00:20:00,,,,,14.0,1029.0,(1211.0796188368495+0j),12.0,3.0,260.0,10000.0,99999,,(181.27961883684952+0j),0.0,11160026031014020120302904000051000600007000080000
3169,LIMC,45.6305999756,8.7281103134,2024-02-06 00:20:00,10.0,36.0,+,yellow,7.0,1024.0,(6381.051946480551+0j),5.0,3.0,70.0,5000.0,99999,3.0,(5357.051946480551+0j),0.0,1113030703100702050302404000051000600007100083000
3171,LIRZ,43.0959014893,12.5131998062,2024-02-06 00:20:00,,,,,9.0,1026.0,(4683.0257885199135+0j),9.0,3.0,20.0,10000.0,99999,4.0,(3656.5257885199135+0j),0.0,1116040203100902090302604000051000600007000084000
3172,ENAL,62.5625,6.119699955,2024-02-06 00:20:00,71.0,36.0,h,magenta,-2.0,999.0,(166.18719897137566+0j),-3.0,8.0,190.0,1000.0,99999,6.0,(-833.4128010286244+0j),0.0,1110061908110202130399904000051000600007710086000
3178,ENDU,69.0558013916,18.5403995514,2024-02-06 00:20:00,,,,,-13.0,999.0,(440.69505436700445+0j),-14.0,2.0,,10000.0,99999,3.0,0j,0.0,11160336021113021140399904000051000600007000083000
3192,ENRO,62.5783996582,11.342300415,2024-02-06 00:20:00,,,,,-10.0,996.0,(4629.521811381495+0j),-11.0,2.0,,10000.0,99999,7.0,(3628.9218113814954+0j),0.0,11160736021110021110399604000051000600007000087000
3194,ENRY,59.3788986206,10.7855997086,2024-02-06 00:20:00,,,,,-9.0,999.0,(441.87714388975576+0j),-11.0,2.0,50.0,10000.0,99999,,0j,0.0,11160005021109021110399904000051000600007000080000
3200,ENTO,59.1866989136,10.258600235,2024-02-06 00:20:00,,,,,-5.0,999.0,(8.987374144668385+0j),-11.0,3.0,10.0,10000.0,99999,,0j,0.0,11160001031105021110399904000051000600007000080000
3202,ESDF,56.2667007446,15.2650003433,2024-02-06 00:20:00,,,,,1.0,1000.0,(10.145514260112659+0j),-0.0,6.0,240.0,10000.0,99999,5.0,(-991.1544857398873+0j),0.0,1116052406100102100300004000051000600007000085000
3203,ESGJ,57.757598877,14.0686998367,2024-02-06 00:20:00,,,,,-2.0,998.0,(188.51711521554333+0j),-4.0,0.0,0.0,10000.0,99999,,(-811.6828847844567+0j),0.0,1116000000110202140399804000051000600007000080000
3204,ESGP,57.7747001648,11.8704004288,2024-02-06 00:20:00,,,,,-1.0,999.0,(5.998771160091168+0j),-4.0,0.0,0.0,10000.0,99999,6.0,(-994.0012288399088+0j),0.0,1116060000110102140399904000051000600007000086000
3205,ESKN,58.7886009216,16.9122009277,2024-02-06 00:20:00,,,,,-8.0,999.0,(485.22427161723476+0j),-9.0,3.0,300.0,10000.0,99999,,(-514.4757283827653+0j),0.0,1116003003110802190399904000051000600007000080000
3206,ESMK,55.9216995239,14.0854997635,2024-02-06 00:20:00,71.0,36.0,h,magenta,0.0,1000.0,(38.240663425080804+0j),0.0,2.0,,2200.0,99999,,(-962.7593365749192+0j),0.5,1111003602100002000300004000051000600507710080000
3207,ESMS,55.536305364,13.3761978149,2024-02-06 00:20:00,61.0,36.0,^,green,0.0,999.0,(38.202422761655725+0j),0.0,4.0,120.0,6000.0,99999,8.0,(-963.1975772383443+0j),0.9,1113081204100002000399904000051000600907610088000
3208,ESMX,56.9291000366,14.7279996872,2024-02-06 00:20:00,,,,,-1.0,999.0,(86.67211814193+0j),-3.0,2.0,170.0,10000.0,99999,,(-913.52788185807+0j),0.0,1116001702110102130399904000051000600007000080000
3209,ESNN,62.5280990601,17.4438991547,2024-02-06 00:20:00,,,,,-12.0,1000.0,(954.8878632156842+0j),-13.0,7.0,310.0,10000.0,99999,,(-44.21213678431582+0j),0.0,11160031071112021130300004000051000600007000080000
3210,ESNO,63.4082984924,18.9899997711,2024-02-06 00:20:00,,,,,-9.0,998.0,(109.2401508747922+0j),-11.0,6.0,330.0,10000.0,99999,1.0,(-888.7598491252078+0j),0.0,11160133061109021110399804000051000600007000081000
3211,ESNQ,67.8219985962,20.3367996216,2024-02-06 00:20:00,71.0,36.0,h,magenta,-11.0,997.0,(-21860926.325699832-22849324.11802387j),-12.0,1.0,,10000.0,99999,5.0,(-21861927.925699834-22849324.11802387j),0.0,11160536011111021120399704000051000600007710085000
3212,ESNS,64.6248016357,21.0769004822,2024-02-06 00:20:00,,,,,-7.0,999.0,(373.52716846517575+0j),-7.0,6.0,350.0,10000.0,99999,7.0,(-625.2728315348243+0j),0.0,1116073506110702170399904000051000600007000087000
3213,ESNU,63.7918014526,20.2828006744,2024-02-06 00:20:00,71.0,36.0,h,magenta,-7.0,999.0,(884.9585281396364+0j),-10.0,6.0,330.0,10000.0,99999,3.0,(-113.34147186036353+0j),0.0,11160333061107021100399904000051000600007710083000
3214,ESOK,59.4446983337,13.3374004364,2024-02-06 00:20:00,,,,,-9.0,999.0,(111.64735066650951+0j),-10.0,4.0,340.0,10000.0,99999,,(-888.7526493334905+0j),0.0,11160034041109021100399904000051000600007000080000
3215,ESOW,59.5894012451,16.633600235,2024-02-06 00:20:00,,,,,-8.0,1000.0,(912.0535853791004+0j),-10.0,2.0,360.0,10000.0,99999,,(-87.34641462089962+0j),0.0,11160036021108021100300004000051000600007000080000
3216,ESPA,65.543800354,22.1219997406,2024-02-06 00:20:00,,,,,-12.0,1000.0,(822.4775055042929+0j),-14.0,3.0,20.0,10000.0,99999,,(-177.42249449570704+0j),0.0,11160002031112021140300004000051000600007000080000
3218,ESSB,59.3544006348,17.9416999817,2024-02-06 00:20:00,,,,,-8.0,999.0,(807.3638993468161+0j),-9.0,2.0,280.0,10000.0,99999,,(-191.0361006531839+0j),0.0,1116002802110802190399904000051000600007000080000
3219,ESSD,60.422000885,15.5151996613,2024-02-06 00:20:00,,,,,-10.0,999.0,(30.275630257711008+0j),-12.0,3.0,290.0,10000.0,99999,,(-968.224369742289+0j),0.0,11160029031110021120399904000051000600007000080000
3220,ESSP,58.5862998962,16.2506008148,2024-02-06 00:20:00,,,,,-7.0,1000.0,(849.1584283779226+0j),-8.0,2.0,,10000.0,99999,,(-150.9415716220774+0j),0.0,1116003602110702180300004000051000600007000080000
3221,ESSV,57.6627998352,18.346200943,2024-02-06 00:20:00,,,,,-1.0,999.0,(3078489.5561154163+0j),-5.0,4.0,350.0,10000.0,99999,,(3077490.1561154164+0j),0.0,1116003504110102150399904000051000600007000080000
3222,LSGC,47.0839004517,6.792840004,2024-02-06 00:20:00,,,,,1.0,1024.0,(34.86630501144747+0j),-4.0,4.0,240.0,10000.0,99999,,(-989.6336949885525+0j),0.0,1116002404100102140302404000051000600007000080000
3223,LSGG,46.2380981445,6.1089501381,2024-02-06 00:20:00,,,,,0.0,1025.0,(39.19668001070782+0j),-2.0,1.0,,10000.0,99999,,(-989.0033199892922+0j),0.0,1116003601100002120302504000051000600007000080000
3224,LSGS,46.2196006775,7.3267598152,2024-02-06 00:20:00,,,,,0.0,1026.0,(39.2349206741329+0j),-1.0,1.0,,10000.0,99999,,(-989.6650793258672+0j),0.0,1116003601100002110302604000051000600007000080000
3225,LSZA,46.0042991638,8.9105796814,2024-02-06 00:20:00,,,,,3.0,1024.0,(14.924023386903778+0j),3.0,0.0,0.0,8000.0,99999,,(-1009.9759766130963+0j),0.0,1114000000100302030302404000051000600007000080000
3226,LSZB,46.914100647,7.4971499443,2024-02-06 00:20:00,,,,,-2.0,1024.0,(68.61693315410251+0j),-2.0,1.0,,10000.0,99999,,(-955.3830668458975+0j),0.0,1116003601110202120302404000051000600007000080000
3227,LSZG,47.1815986633,7.4171900749,2024-02-06 00:20:00,10.0,36.0,+,yellow,-0.0,1024.0,(39.158439347282744+0j),-1.0,2.0,270.0,4900.0,99999,,(-988.3415606527172+0j),0.0,1113002702110002110302404000051000600007100080000
3228,LSZH,47.4646987915,8.5491695404,2024-02-06 00:20:00,,,,,1.0,1023.0,(30.039611415951462+0j),1.0,6.0,190.0,9000.0,99999,,(-996.0603885840485+0j),0.0,1115001906100102010302304000051000600007000080000
3229,LSZR,47.4850006104,9.5607700348,2024-02-06 00:20:00,,,,,-1.0,1022.0,(54.8951397603204+0j),-1.0,3.0,110.0,10000.0,99999,,(-970.7048602396795+0j),0.0,1116001103110102110302204000051000600007000080000
3230,LSZS,46.5340995789,9.8841104507,2024-02-06 00:20:00,,,,,-8.0,1025.0,(78.35954913760928+0j),-11.0,3.0,,10000.0,99999,,(-946.4404508623907+0j),0.0,11160036031108021110302504000051000600007000080000
3233,EGAA,54.6575012207,-6.2158298492,2024-02-06 00:20:00,,,,,10.0,1002.0,(2073.44684270334+0j),8.0,20.0,240.0,10000.0,99999,8.0,(1069.34684270334+0j),0.0,1116082420101002080300204000051000600007000088000
3234,EGBB,52.4538993835,-1.7480299473,2024-02-06 00:20:00,,,,,12.0,1010.0,(2110.328416996865+0j),7.0,13.0,220.0,10000.0,99999,5.0,(1097.5284169968652+0j),0.0,1116052213101202070301004000051000600007000085000
3235,EGCC,53.3536987305,-2.2749500275,2024-02-06 00:20:00,,,,,11.0,1008.0,(1932.91956793386+0j),8.0,17.0,230.0,10000.0,99999,8.0,(923.91956793386+0j),0.0,1116082317101102080300804000051000600007000088000
3236,EGFF,51.3967018127,-3.3433299065,2024-02-06 00:20:00,61.0,36.0,^,green,11.0,1015.0,(1799.211864831013+0j),9.0,18.0,260.0,10000.0,99999,5.0,(783.2118648310129+0j),0.0,1116052618101102090301504000051000600007610085000
3237,EGGD,51.3827018738,-2.7190899849,2024-02-06 00:20:00,,,,,11.0,1015.0,(3547.6504861066296+0j),8.0,16.0,240.0,10000.0,99999,7.0,(2531.6504861066296+0j),0.0,1116072416101102080301504000051000600007000087000
3240,EGKK,51.1481018066,-0.1902779937,2024-02-06 00:20:00,,,,,11.0,1016.0,(1730.7205886132506+0j),8.0,12.0,230.0,10000.0,99999,4.0,(714.7205886132506+0j),0.0,1116042312101102080301604000051000600007000084000
3241,EGLF,51.2757987976,-0.7763329744,2024-02-06 00:20:00,51.0,36.0,T,green,11.0,1015.0,(1870.3235443265453+0j),9.0,16.0,230.0,10000.0,99999,4.0,(854.3235443265453+0j),0.0,1116042316101102090301504000051000600007510084000
3242,EGLL,51.4706001282,-0.4619410038,2024-02-06 00:20:00,,,,,12.0,1015.0,(1266.6013150619501+0j),8.0,14.0,230.0,10000.0,99999,6.0,(250.5013150619501+0j),0.0,1116062314101202080301504000051000600007000086000
3244,EGNJ,53.5744018555,-0.3508329988,2024-02-06 00:20:00,,,,,12.0,1006.0,(1376.8361053584865+0j),8.0,21.0,230.0,10000.0,99999,7.0,(368.8361053584865+0j),0.0,1116072321101202080300604000051000600007000087000
3246,EGNX,52.8311004639,-1.3280600309,2024-02-06 00:20:00,,,,,12.0,1009.0,(2029.598085228359+0j),7.0,20.0,240.0,10000.0,99999,6.0,(1019.598085228359+0j),0.0,1116062420101202070300904000051000600007000086000
3247,EGPA,58.9578018188,-2.9049999714,2024-02-06 00:20:00,71.0,36.0,h,magenta,4.0,993.0,(1453.3544804058963+0j),2.0,20.0,280.0,10000.0,99999,3.0,(459.2544804058963+0j),0.0,1116032820100402020399304000051000600007710083000
3255,EGTE,50.7344017029,-3.4138898849,2024-02-06 00:20:00,,,,,12.0,1017.0,(1329.9450463948467+0j),8.0,7.0,230.0,10000.0,99999,3.0,(311.14504639484676+0j),0.0,1116032307101202080301704000051000600007000083000
3256,EGAC,54.6180992126,-5.8724999428,2024-02-06 00:20:00,,,,,11.0,1002.0,(1049.1531930043452+0j),8.0,16.0,230.0,10000.0,99999,8.0,(46.15319300434521+0j),0.0,1116082316101102080300204000051000600007000088000
3257,EGGW,51.8746986389,-0.3683330119,2024-02-06 00:20:00,,,,,9.0,1012.0,(3634.0889985898752+0j),6.0,22.0,240.0,10000.0,99999,6.0,(2621.0889985898752+0j),0.0,1116062422100902060301204000051000600007000086000
3258,EGLC,51.5052986145,0.0552779995,2024-02-06 00:20:00,,,,,12.0,1014.0,(1069.4927732078972+0j),7.0,14.0,240.0,10000.0,99999,6.0,(53.19277320789729+0j),0.0,1116062414101202070301404000051000600007000086000
3259,EGPC,58.4589004517,-3.0930600166,2024-02-06 00:20:00,,,,,2.0,994.0,(3799.2310442008234+0j),1.0,4.0,210.0,10000.0,99999,3.0,(2804.4310442008236+0j),0.7,1116032104100202010399404000051000600707000083000
3260,EGPE,57.5424995422,-4.0475001335,2024-02-06 00:20:00,,,,,5.0,996.0,(1216.2808981360915+0j),2.0,11.0,250.0,10000.0,99999,1.0,(219.6808981360915+0j),0.0,1116012511100502020399604000051000600007000081000
3261,EGPF,55.8718986511,-4.4330601692,2024-02-06 00:20:00,61.0,36.0,^,green,9.0,999.0,(1099.6734829636987+0j),8.0,8.0,240.0,10000.0,99999,8.0,(100.67348296369869+0j),2.6,1116082408100902080399904000051000602607610088000
3262,EGPL,57.481098175,-7.3627800941,2024-02-06 00:20:00,,,,,6.0,997.0,(1107.3452184654657+0j),2.0,21.0,280.0,10000.0,99999,,(109.34521846546568+0j),0.0,1116002821100602020399704000051000600007000080000
3265,EGSS,51.8849983215,0.2349999994,2024-02-06 00:20:00,,,,,11.0,1012.0,(2315.9726050298573+0j),7.0,19.0,230.0,10000.0,99999,4.0,(1301.9726050298573+0j),0.0,1116042319101102070301204000051000600007000084000
3273,EDGS,50.707698822,8.0829696655,2024-02-06 00:20:00,,,,,4.0,1016.0,(19.936363023647477+0j),3.0,19.0,240.0,7000.0,99999,6.0,(-999.7636369763526+0j),0.0,1114062419100402030301604000051000600007000086000
3274,EDLV,51.6024017334,6.1421699524,2024-02-06 00:20:00,,,,,9.0,1015.0,(1456.4922518076369+0j),7.0,15.0,220.0,10000.0,99999,7.0,0j,0.0,1116072215100902070301504000051000600007000087000
3280,ESGT,58.3180999756,12.345000267,2024-02-06 00:20:00,,,,,-3.0,999.0,(55.90706464966588+0j),-5.0,1.0,,10000.0,99999,8.0,(-944.0929353503341+0j),0.0,1116083601110302150399904000051000600007000088000
3281,ESKM,60.957901001,14.5114002228,2024-02-06 00:20:00,,,,,-15.0,999.0,(81.76436682671012+0j),-16.0,3.0,330.0,10000.0,99999,,(-918.1356331732899+0j),0.0,11160033031115021160399904000051000600007000080000
3282,ESMQ,56.6855010986,16.2875995636,2024-02-06 00:20:00,,,,,-2.0,1000.0,(728.4812741239211+0j),-3.0,2.0,270.0,10000.0,99999,3.0,(-272.51872587607886+0j),0.0,1116032702110202130300004000051000600007000083000
3283,ESMT,56.6911010742,12.8201999664,2024-02-06 00:20:00,68.0,36.0,e,magenta,1.0,1000.0,(5783.45110847937+0j),-0.0,2.0,,10000.0,99999,4.0,(4783.45110847937+0j),0.1,1116043602100102100300004000051000600107680084000
3284,ESNG,67.1324005127,20.8145999908,2024-02-06 00:20:00,71.0,36.0,h,magenta,-13.0,998.0,(-0.00017275909990410642-0.0001805700549572034j),-14.0,3.0,130.0,10000.0,99999,2.0,(-998.0001727590999-0.0001805700549572034j),0.0,11160213031113021140399804000051000600007710082000
3285,ESNK,63.0485992432,17.7688999176,2024-02-06 00:20:00,,,,,-17.0,1000.0,(932.6720441900367+0j),-18.0,3.0,360.0,10000.0,99999,,(-67.32795580996333+0j),0.0,11160036031117021180300004000051000600007000080000
3286,ESNL,64.5483016968,18.7161998749,2024-02-06 00:20:00,,,,,-15.0,998.0,(47.404067034579796+0j),-17.0,0.0,0.0,10000.0,99999,7.0,0j,0.0,11160700001115021170399804000051000600007000087000
3287,ESNX,65.5903015137,19.2819004059,2024-02-06 00:20:00,71.0,36.0,h,magenta,-10.0,997.0,(-334236.9287454489-349348.778882229j),-11.0,3.0,320.0,10000.0,99999,7.0,0j,0.0,11160732031110021110399704000051000600007710087000
3288,ESOE,59.2237014771,15.0380001068,2024-02-06 00:20:00,,,,,-8.0,999.0,(351.29871898424904+0j),-9.0,0.0,0.0,10000.0,99999,,(-648.701281015751+0j),0.0,1116000000110802190399904000051000600007000080000
3289,ESSL,58.4062004089,15.6805000305,2024-02-06 00:20:00,,,,,-7.0,1000.0,(330.14232835844615+0j),-8.0,1.0,180.0,10000.0,99999,,(-670.2576716415538+0j),0.0,1116001801110702180300004000051000600007000080000
3290,ESTA,56.2961006165,12.8471002579,2024-02-06 00:20:00,71.0,36.0,h,magenta,0.0,1000.0,(38.240663425080804+0j),0.0,4.0,110.0,1600.0,99999,,(-962.7593365749192+0j),0.4,1110001104100002000300004000051000600407710080000
3291,ESTL,56.0828018188,13.2124996185,2024-02-06 00:20:00,71.0,36.0,h,magenta,0.0,1000.0,(38.240663425080804+0j),0.0,3.0,120.0,2600.0,99999,3.0,(-964.3593365749192+0j),0.5,1111031203100002000300004000051000600507710083000
3292,ESUT,65.806098938,15.0827999115,2024-02-06 00:20:00,,,,,-22.0,998.0,(0.21801443506485693+0j),-23.0,1.0,,10000.0,99999,7.0,(-999.4819855649351+0j),0.0,11160736011122021230399804000051000600007000087000
3293,LGPA,37.0102996826,25.1280994415,2024-02-06 00:20:00,,,,,11.0,1022.0,(1471.8414565289218+0j),11.0,5.0,40.0,10000.0,99999,,0j,0.0,11160004051011020110302204000051000600007000080000
3294,EETN,59.4132995605,24.8327999115,2024-02-06 00:20:00,85.0,36.0,v,magenta,-2.0,993.0,(0.8111483698296312+0j),-6.0,11.0,330.0,10000.0,99999,4.0,(-991.5888516301703+0j),0.0,1116043311110202160399304000051000600007850084000
3295,EETU,58.3074989319,26.6903991699,2024-02-06 00:20:00,71.0,36.0,h,magenta,-2.0,992.0,(-5182.616762210869-5416.938349956615j),-5.0,11.0,280.0,10000.0,99999,7.0,(-6173.616762210869-5416.938349956615j),0.0,1116072811110202150399204000051000600007710087000
3296,EFHK,60.317199707,24.963300705,2024-02-06 00:20:00,71.0,36.0,h,magenta,-4.0,994.0,(61.94656889127977+0j),-8.0,9.0,330.0,10000.0,99999,6.0,(-930.1534311087203+0j),0.0,1116063309110402180399404000051000600007710086000
3298,EVLA,56.5175018311,21.0969009399,2024-02-06 00:20:00,,,,,-1.0,999.0,(522.2502432874238+0j),-4.0,2.0,,10000.0,99999,1.0,(-476.94975671257623+0j),0.0,1116013602110102140399904000051000600007000081000
3299,EVRA,56.9235992432,23.9710998535,2024-02-06 00:20:00,,,,,-0.0,997.0,(38.12594143480556+0j),-5.0,5.0,300.0,10000.0,99999,4.0,0j,0.0,1116043005110002150399704000051000600007000084000
3300,EYKA,54.9639015198,24.0848007202,2024-02-06 00:20:00,,,,,-2.0,999.0,(-948295.7934198619-991171.079431163j),-4.0,1.0,240.0,10000.0,99999,8.0,0j,0.0,1116082401110202140399904000051000600007000088000
3301,EYPA,55.9732017517,21.0939006805,2024-02-06 00:20:00,,,,,-2.0,999.0,(509.7534295310838+0j),-3.0,1.0,,10000.0,99999,6.0,(-488.84657046891624+0j),0.0,1116063601110202130399904000051000600007000086000
3302,EYVI,54.6341018677,25.2858009338,2024-02-06 00:20:00,,,,,-3.0,998.0,(2717.3753999768746+0j),-4.0,5.0,270.0,10000.0,99999,,(1718.6753999768746+0j),0.0,1116002705110302140399804000051000600007000080000
3306,EBCI,50.4592018127,4.4538202286,2024-02-06 00:20:00,,,,,7.0,1019.0,(5192.981535328191+0j),5.0,17.0,220.0,10000.0,99999,3.0,(4172.381535328191+0j),0.0,1116032217100702050301904000051000600007000083000
3318,EGJJ,49.207901001,-2.1955099106,2024-02-06 00:20:00,,,,,10.0,1022.0,(2156.0287711204014+0j),9.0,17.0,220.0,10000.0,99999,8.0,(1133.0287711204014+0j),0.0,1116082217101002090302204000051000600007000088000
3323,ELLX,49.6265983582,6.211520195,2024-02-06 00:20:00,,,,,4.0,1021.0,(14.99995918707317+0j),4.0,12.0,220.0,2000.0,99999,7.0,(-1007.8000408129268+0j),0.0,1111072212100402040302104000051000600007000087000
3325,EDDB,52.362167,13.500667,2024-02-06 00:20:00,,,,,10.0,1009.0,(1603.1128354927682+0j),5.0,21.0,260.0,10000.0,99999,6.0,(592.5128354927682+0j),0.0,1116062621101002050300904000051000600007000086000
3326,EDDC,51.1328010559,13.76720047,2024-02-06 00:20:00,,,,,8.0,1012.0,(5506.4220424273635+0j),3.0,13.0,260.0,10000.0,99999,8.0,(4493.4220424273635+0j),0.0,1116082613100802030301204000051000600007000088000
3327,EDDE,50.979801178,10.9581003189,2024-02-06 00:20:00,,,,,7.0,1014.0,(8259.780341869766+0j),3.0,22.0,240.0,10000.0,99999,8.0,(7244.580341869766+0j),0.0,1116082422100702030301404000051000600007000088000
3328,EDDF,50.0264015198,8.543129921,2024-02-06 00:20:00,,,,,8.0,1020.0,(3005.9159723380903+0j),3.0,12.0,210.0,10000.0,99999,8.0,(1984.4159723380903+0j),0.0,1116082112100802030302004000051000600007000088000
3329,EDDG,52.134601593,7.6848301888,2024-02-06 00:20:00,,,,,9.0,1013.0,(1700.7573771777006+0j),6.0,14.0,230.0,10000.0,99999,7.0,(686.8573771777006+0j),0.0,1116072314100902060301304000051000600007000087000
3330,EDDH,53.6304016113,9.9882297516,2024-02-06 00:20:00,,,,,9.0,1006.0,(1216.8968334633887+0j),6.0,14.0,250.0,10000.0,99999,7.0,(209.29683346338868+0j),0.0,1116072514100902060300604000051000600007000087000
3331,EDDK,50.8658981323,7.1427397728,2024-02-06 00:20:00,,,,,9.0,1018.0,(2419.961423364788+0j),5.0,11.0,240.0,10000.0,99999,7.0,(1400.3614233647882+0j),0.0,1116072411100902050301804000051000600007000087000
3332,EDDL,51.2895011902,6.7667798996,2024-02-06 00:20:00,,,,,9.0,1016.0,(1644.869706408028+0j),6.0,17.0,230.0,10000.0,99999,5.0,(626.6697064080279+0j),0.0,1116052317100902060301604000051000600007000085000
3333,EDDM,48.3538017273,11.7861003876,2024-02-06 00:20:00,,,,,5.0,1019.0,(14.588218405699811+0j),-1.0,10.0,250.0,10000.0,99999,,(-1005.4117815943002+0j),0.0,1116002510100502110301904000051000600007000080000
3334,EDDN,49.4986991882,11.0669002533,2024-02-06 00:20:00,,,,,1.0,1019.0,(27.50587562091052+0j),1.0,1.0,,10000.0,99999,6.0,(-993.2941243790895+0j),0.0,1116063601100102010301904000051000600007000086000
3335,EDDP,51.4323997498,12.2416000366,2024-02-06 00:20:00,,,,,8.0,1013.0,(3621.3331280396014+0j),4.0,17.0,240.0,10000.0,99999,8.0,(2606.7331280396015+0j),0.0,1116082417100802040301304000051000600007000088000
3336,EDDR,49.2145996094,7.1095099449,2024-02-06 00:20:00,,,,,5.0,1022.0,(11.281821982504272+0j),3.0,17.0,250.0,10000.0,99999,8.0,(-1012.6181780174957+0j),0.0,1116082517100502030302204000051000600007000088000
3337,EDDS,48.6898994446,9.2219600677,2024-02-06 00:20:00,,,,,2.0,1020.0,(22.793472036212567+0j),1.0,1.0,,10000.0,99999,,(-998.1065279637874+0j),0.0,1116003601100202010302004000051000600007000080000
3338,EDDV,52.461101532,9.6850795746,2024-02-06 00:20:00,,,,,8.0,1010.0,(1915.2583320998112+0j),6.0,15.0,250.0,10000.0,99999,5.0,(903.1583320998112+0j),0.3,1116052515100802060301004000051000600307000085000
3339,EDDW,53.0475006104,8.7866697311,2024-02-06 00:20:00,,,,,9.0,1008.0,(1062.1858868886127+0j),6.0,19.0,250.0,10000.0,99999,6.0,(52.185886888612686+0j),0.1,1116062519100902060300804000051000600107000086000
3340,EDFM,49.4730567932,8.514166832,2024-02-06 00:20:00,,,,,7.0,1022.0,(2937.1440353396715+0j),4.0,4.0,170.0,10000.0,99999,8.0,(1914.8440353396716+0j),0.0,1116081704100702040302204000051000600007000088000
3355,ENOV,62.1800003052,6.0741000175,2024-02-06 00:20:00,,,,,-8.0,999.0,(226.39946697392605+0j),-9.0,0.0,0.0,10000.0,99999,4.0,0j,0.0,1116040000110802190399904000051000600007000084000
3356,ENRS,67.5278015137,12.1033000946,2024-02-06 00:20:00,,,,,-0.0,997.0,(38.12594143480556+0j),-4.0,10.0,170.0,10000.0,99999,4.0,0j,0.0,1116041710110002140399704000051000600007000084000
3357,ENSK,68.5788269043,15.033416748,2024-02-06 00:20:00,,,,,-7.0,998.0,(945.0335308703357+0j),-9.0,6.0,30.0,10000.0,99999,,(-52.66646912966439+0j),0.0,1116000306110702190399804000051000600007000080000
3358,ENSS,70.3554000854,31.0449008942,2024-02-06 00:20:00,,,,,-6.0,998.0,(772.0013163777511+0j),-8.0,11.0,270.0,10000.0,99999,7.0,(-227.9986836222489+0j),0.0,1116072711110602180399804000051000600007000087000
3359,LIBD,41.1389007568,16.7605991364,2024-02-06 00:20:00,,,,,6.0,1025.0,(2245.6819497410693+0j),5.0,5.0,210.0,10000.0,99999,,(1220.1819497410693+0j),0.0,1116002105100602050302504000051000600007000080000
3360,LICC,37.4668006897,15.0663995743,2024-02-06 00:20:00,,,,,6.0,1026.0,(1264.362060115415+0j),5.0,3.0,230.0,10000.0,99999,,(236.662060115415+0j),0.0,1116002303100602050302604000051000600007000080000
3361,LIMJ,44.4132995605,8.8374996185,2024-02-06 00:20:00,,,,,14.0,1025.0,(1057.7436205810143+0j),10.0,9.0,130.0,10000.0,99999,8.0,(32.143620581014375+0j),0.0,11160813091014020100302504000051000600007000088000
3362,LIPR,44.0203018188,12.611700058,2024-02-06 00:20:00,,,,,3.0,1024.0,(1532.8194513681183+0j),2.0,2.0,,10000.0,99999,,(507.4194513681182+0j),0.0,1116003602100302020302404000051000600007000080000
3363,LIPX,45.3956985474,10.8885002136,2024-02-06 00:20:00,10.0,36.0,+,yellow,7.0,1024.0,(2462.1897586623345+0j),5.0,1.0,,5000.0,99999,6.0,(1438.1897586623345+0j),0.0,1113063601100702050302404000051000600007100086000
3364,LIPZ,45.5052986145,12.3519001007,2024-02-06 00:20:00,,,,,3.0,1024.0,(1107.0248643510479+0j),3.0,4.0,40.0,1500.0,99999,6.0,(81.62486435104779+0j),0.0,1110060404100302030302404000051000600007000086000
3377,ENBN,65.4610977173,12.217499733,2024-02-06 00:20:00,,,,,-4.0,998.0,(794.9601294482144+0j),-5.0,5.0,20.0,10000.0,99999,2.0,0j,0.0,1116020205110402150399804000051000600007000082000
3378,ENMS,65.783996582,13.2149000168,2024-02-06 00:20:00,,,,,-13.0,999.0,(467.69317323280717+0j),-15.0,2.0,,10000.0,99999,,0j,0.0,11160036021113021150399904000051000600007000080000
3379,ENRA,66.363899231,14.3014001846,2024-02-06 00:20:00,,,,,-10.0,1000.0,(364.01946403964496+0j),-13.0,4.0,160.0,10000.0,99999,,0j,0.0,11160016041110021130300004000051000600007000080000
3380,ENRM,64.8383026123,11.1461000443,2024-02-06 00:20:00,71.0,36.0,h,magenta,-2.0,998.0,(772.0013163777511+0j),-4.0,6.0,120.0,4400.0,99999,,(-225.39868362224888+0j),0.0,1112001206110202140399804000051000600007710080000
3381,ENSG,61.1561012268,7.1377801895,2024-02-06 00:20:00,,,,,-6.0,997.0,(997+0j),-8.0,6.0,40.0,10000.0,99999,4.0,0j,0.0,1116040406110602180399704000051000600007000084000
3382,ENSR,69.7867965698,20.959400177,2024-02-06 00:20:00,,,,,-11.0,1001.0,(951.7824529681428+0j),-15.0,9.0,170.0,10000.0,99999,,(-48.21754703185718+0j),0.0,11160017091111021150300104000051000600007000080000
3383,LGKL,37.0682983398,22.0254993439,2024-02-06 00:20:00,,,,,9.0,1025.0,(1128.2936136514427+0j),7.0,9.0,330.0,10000.0,99999,,(102.49361365144273+0j),0.0,1116003309100902070302504000051000600007000080000
3384,LGKO,36.7933006287,27.0916996002,2024-02-06 00:20:00,,,,,14.0,1022.0,(2235.7952715666556+0j),11.0,2.0,,10000.0,99999,1.0,(1212.4952715666557+0j),0.0,11160136021014020110302204000051000600007000081000
3385,LGTS,40.5196990967,22.9708995819,2024-02-06 00:20:00,,,,,5.0,1021.0,(1179.3436475780136+0j),0.0,7.0,90.0,10000.0,99999,1.0,(158.3436475780136+0j),0.0,1116010907100502000302104000051000600007000081000
3386,EBLG,50.6374015808,5.4432201385,2024-02-06 00:20:00,,,,,7.0,1018.0,(5526.8391037448555+0j),5.0,18.0,220.0,10000.0,99999,4.0,(4506.639103744856+0j),0.0,1116042218100702050301804000051000600007000084000
3387,EBOS,51.1988983154,2.8622200489,2024-02-06 00:20:00,,,,,11.0,1017.0,(1058.4238553442692+0j),7.0,16.0,230.0,10000.0,99999,,(40.423855344269214+0j),0.0,1116002316101102070301704000051000600007000080000
3421,ENAT,69.9760971069,23.3717002869,2024-02-06 00:20:00,,,,,-16.0,1002.0,(982.8202320754963+0j),-18.0,7.0,210.0,10000.0,99999,,(-20.379767924503767+0j),0.0,11160021071116021180300204000051000600007000080000
3422,ENBS,70.6005020142,29.691400528,2024-02-06 00:20:00,71.0,36.0,h,magenta,-7.0,998.0,(0.07714701365587232+0j),-8.0,3.0,,10000.0,99999,5.0,(-999.9228529863441+0j),0.0,1116053603110702180399804000051000600007710085000
3423,ENBV,70.8713989258,29.0342006683,2024-02-06 00:20:00,,,,,-4.0,999.0,(669.7126289730373+0j),-6.0,10.0,250.0,10000.0,99999,8.0,(-331.28737102696266+0j),0.0,1116082510110402160399904000051000600007000088000
3424,ENHK,70.4867019653,22.1396999359,2024-02-06 00:20:00,,,,,-5.0,1000.0,(861.0048484434802+0j),-10.0,12.0,100.0,10000.0,99999,,(-138.99515155651977+0j),0.0,11160010121105021100300004000051000600007000080000
3425,ENHV,71.0096969604,25.9836006165,2024-02-06 00:20:00,,,,,99999.0,1001.0,(99999+0j),99999.0,2.0,,10000.0,99999,5.0,(98997+0j),0.0,11160536021099999020999990300104000051000600007000085000
3426,ENKR,69.7257995605,29.8913002014,2024-02-06 00:20:00,71.0,36.0,h,magenta,-19.0,999.0,(550.4199945835405+0j),-21.0,8.0,170.0,2200.0,99999,5.0,0j,0.0,11110517081119021210399904000051000600007710085000
3427,ENMH,71.0297012329,27.8267002106,2024-02-06 00:20:00,,,,,-5.0,1000.0,(749.3551408450584+0j),-6.0,6.0,260.0,10000.0,99999,8.0,(-251.64485915494163+0j),0.0,1116082606110502160300004000051000600007000088000
3428,ENNM,64.4721984863,11.5785999298,2024-02-06 00:20:00,71.0,36.0,h,magenta,-4.0,999.0,(940.0351715945658+0j),-6.0,9.0,50.0,10000.0,99999,3.0,(-59.164828405434264+0j),0.0,1116030509110402160399904000051000600007710083000
3429,ENSD,61.8300018311,6.1058301926,2024-02-06 00:20:00,71.0,36.0,h,magenta,-3.0,999.0,(0.871934890892463+0j),-6.0,6.0,150.0,10000.0,99999,5.0,0j,0.0,1116051506110302160399904000051000600007710085000
3431,ENVD,70.0652999878,29.8446998596,2024-02-06 00:20:00,,,,,-9.0,999.0,(570.8437071593229+0j),-11.0,11.0,300.0,10000.0,99999,1.0,0j,0.0,11160130111109021110399904000051000600007000081000
3432,LGAD,37.9207000732,21.2926006317,2024-02-06 00:20:00,,,,,6.0,1026.0,(1367.8947354427526+0j),6.0,0.0,0.0,10000.0,99999,,(341.79473544275265+0j),0.0,1116000000100602060302604000051000600007000080000
3433,LGSA,35.5317001343,24.1497001648,2024-02-06 00:20:00,,,,,14.0,1022.0,(2498.2635652991994+0j),8.0,12.0,280.0,10000.0,99999,1.0,(1474.5635652991994+0j),0.0,1116012812101402080302204000051000600007000081000
3434,EBAW,51.1893997192,4.4602799416,2024-02-06 00:20:00,,,,,9.0,1017.0,(1172.2634458364146+0j),6.0,13.0,220.0,10000.0,99999,5.0,(154.26344583641458+0j),0.0,1116052213100902060301704000051000600007000085000
3435,EBBR,50.9014015198,4.4844398499,2024-02-06 00:20:00,,,,,9.0,1017.0,(1822.0200256617593+0j),6.0,15.0,230.0,10000.0,99999,3.0,(802.9200256617593+0j),0.0,1116032315100902060301704000051000600007000083000
3436,EGPD,57.2019004822,-2.1977798939,2024-02-06 00:20:00,,,,,6.0,995.0,(2471.1202695650136+0j),4.0,6.0,240.0,10000.0,99999,6.0,(1475.1202695650136+0j),0.1,1116062406100602040399504000051000600107000086000
3437,EGPH,55.9500007629,-3.3724999428,2024-02-06 00:20:00,61.0,36.0,^,green,9.0,997.0,(1559.5989909575305+0j),8.0,13.0,270.0,7000.0,99999,6.0,(561.5989909575305+0j),0.9,1114062713100902080399704000051000600907610086000
3438,EGPK,55.5093994141,-4.5866699219,2024-02-06 00:20:00,61.0,36.0,^,green,10.0,999.0,(1231.089374322904+0j),9.0,24.0,230.0,10000.0,99999,4.0,(230.08937432290395+0j),0.9,1116042324101002090399904000051000600907610084000
3440,EGPU,56.4991989136,-6.8691701889,2024-02-06 00:20:00,,,,,7.0,999.0,(1191.47213279328+0j),4.0,9.0,280.0,10000.0,99999,4.0,(191.77213279327998+0j),0.3,1116042809100702040399904000051000600307000084000
3441,EKAH,56.2999992371,10.6190004349,2024-02-06 00:20:00,61.0,36.0,^,green,1.0,998.0,(4790.49211996578+0j),0.0,7.0,90.0,10000.0,99999,8.0,(3790.49211996578+0j),1.4,1116080907100102000399804000051000601307610088000
3444,ENAN,69.2925033569,16.1441993713,2024-02-06 00:20:00,,,,,-4.0,999.0,(662.6199729391836+0j),-7.0,7.0,180.0,10000.0,99999,8.0,0j,0.0,1116081807110402170399904000051000600007000088000
3445,ENBO,67.269203186,14.3653001785,2024-02-06 00:20:00,,,,,-5.0,998.0,(729.9833880700916+0j),-9.0,15.0,100.0,10000.0,99999,,(-268.61661192990846+0j),0.0,1116001015110502190399804000051000600007000080000
3446,ENGM,60.193901062,11.100399971,2024-02-06 00:20:00,,,,,-13.0,999.0,(21.946721980299305+0j),-15.0,4.0,20.0,10000.0,99999,,0j,0.0,11160002041113021150399904000051000600007000080000
3447,ENOL,63.6988983154,9.6040000916,2024-02-06 00:20:00,,,,,-3.0,998.0,(702.58638341254+0j),-4.0,4.0,140.0,10000.0,99999,1.0,(-296.2136165874599+0j),0.0,1116011404110302140399804000051000600007000081000
3448,ENSH,68.2433013916,14.6691999435,2024-02-06 00:20:00,,,,,-2.0,998.0,(586.4414376816508+0j),-6.0,9.0,60.0,10000.0,99999,1.0,(-411.55856231834923+0j),0.0,1116010609110202160399804000051000600007000081000
3449,ENTC,69.6832962036,18.9188995361,2024-02-06 00:20:00,,,,,-9.0,1000.0,(885.3300865190864+0j),-12.0,3.0,150.0,10000.0,99999,,(-114.36991348091362+0j),0.0,11160015031109021120300004000051000600007000080000
3450,ESSA,59.6519012451,17.9186000824,2024-02-06 00:20:00,,,,,-12.0,998.0,(643.2401517737092+0j),-13.0,5.0,230.0,10000.0,99999,,(-354.75984822629084+0j),0.0,11160023051112021130399804000051000600007000080000
3456,EGSH,52.6758003235,1.2827800512,2024-02-06 00:20:00,,,,,11.0,1010.0,(1404.0490832428804+0j),6.0,17.0,230.0,10000.0,99999,8.0,(393.04908324288044+0j),0.0,1116082317101102060301004000051000600007000088000
3475,EDAC,50.9819450378,12.5063886642,2024-02-06 00:20:00,,,,,8.0,1014.0,(4762.2978985667805+0j),3.0,13.0,240.0,10000.0,99999,8.0,(3740.0978985667807+0j),0.0,1116082413100802030301404000051000600007000088000
3478,EDHI,53.5352783203,9.8355560303,2024-02-06 00:20:00,,,,,9.0,1006.0,(1095.4729458701252+0j),7.0,18.0,250.0,10000.0,99999,7.0,(86.47294587012516+0j),0.3,1116072518100902070300604000051000600307000087000
3479,EDHK,54.3794441223,10.145277977,2024-02-06 00:20:00,,,,,8.0,1003.0,(1477.9798806181336+0j),7.0,19.0,260.0,4400.0,99999,7.0,(472.3798806181336+0j),0.0,1112072619100802070300304000051000600007000087000
3482,EDLP,51.6141014099,8.6163196564,2024-02-06 00:20:00,,,,,8.0,1014.0,(5149.673181297569+0j),5.0,17.0,240.0,10000.0,99999,5.0,(4133.473181297569+0j),0.0,1116052417100802050301404000051000600007000085000
3483,EDLW,51.5182991028,7.6122398377,2024-02-06 00:20:00,,,,,8.0,1015.0,(3373.577736911775+0j),6.0,20.0,220.0,10000.0,99999,7.0,(2356.777736911775+0j),0.0,1116072220100802060301504000051000600007000087000
3486,EDNY,47.6712989807,9.5114898682,2024-02-06 00:20:00,,,,,-1.0,1022.0,(53.99303392058535+0j),-1.0,1.0,,8000.0,99999,,(-969.0069660794146+0j),0.0,1114003601110102110302204000051000600007000080000
3487,EDQM,50.2886123657,11.8563890457,2024-02-06 00:20:00,,,,,4.0,1015.0,(19.878243467550238+0j),2.0,21.0,230.0,10000.0,99999,8.0,(-998.6217565324498+0j),0.0,1116082321100402020301504000051000600007000088000
3488,EDSB,48.7793998718,8.0804996491,2024-02-06 00:20:00,,,,,6.0,1023.0,(4171.571409290533+0j),3.0,7.0,250.0,10000.0,99999,8.0,(3148.0714092905328+0j),0.0,1116082507100602030302304000051000600007000088000
3489,EDTL,48.3693008423,7.8277201653,2024-02-06 00:20:00,,,,,4.0,1023.0,(7310.6273883460435+0j),2.0,8.0,190.0,10000.0,99999,,(6285.827388346043+0j),0.0,1116001908100402020302304000051000600007000080000
3490,EDVE,52.3191986084,10.5560998917,2024-02-06 00:20:00,,,,,8.0,1011.0,(2560.4307443251846+0j),6.0,19.0,250.0,10000.0,99999,5.0,(1548.0307443251845+0j),0.0,1116052519100802060301104000051000600007000085000
3491,EDVK,51.4083328247,9.3774995804,2024-02-06 00:20:00,,,,,8.0,1014.0,(6521.495750577579+0j),4.0,12.0,250.0,10000.0,99999,8.0,(5506.495750577579+0j),0.0,1116082512100802040301404000051000600007000088000
3492,EDXW,54.9132003784,8.340470314,2024-02-06 00:20:00,,,,,8.0,1001.0,(1228.8960689720675+0j),6.0,22.0,250.0,10000.0,99999,5.0,(225.3960689720675+0j),0.0,1116052522100802060300104000051000600007000085000
3495,EDAH,53.8787002563,14.152299881,2024-02-06 00:20:00,,,,,8.0,1003.0,(1433.2246557803787+0j),6.0,19.0,250.0,10000.0,99999,5.0,(427.82465578037875+0j),0.2,1116052519100802060300304000051000600207000085000
3496,EDFH,49.9486999512,7.2638897896,2024-02-06 00:20:00,51.0,36.0,T,green,4.0,1019.0,(18.082486254785824+0j),4.0,18.0,260.0,5000.0,99999,6.0,(-1003.0175137452142+0j),0.0,1113062618100402040301904000051000600007510086000
3497,EDHL,53.8054008484,10.7192001343,2024-02-06 00:20:00,,,,,9.0,1005.0,(1215.6871944639222+0j),7.0,14.0,260.0,10000.0,99999,7.0,(208.48719446392215+0j),0.2,1116072614100902070300504000051000600207000087000
3498,EDLN,51.2302780151,6.5044441223,2024-02-06 00:20:00,,,,,9.0,1016.0,(1543.5490916257406+0j),6.0,11.0,230.0,10000.0,99999,5.0,(525.4490916257406+0j),0.0,1116052311100902060301604000051000600007000085000
3499,EDMA,48.42527771,10.9316673279,2024-02-06 00:20:00,,,,,7.0,1019.0,(11.46191977225406+0j),1.0,11.0,230.0,10000.0,99999,,(-1011.238080227746+0j),0.0,1116002311100702010301904000051000600007000080000
3500,EDMO,48.081401825,11.2831001282,2024-02-06 00:20:00,,,,,6.0,1020.0,(15.51869343835331+0j),-1.0,10.0,220.0,10000.0,99999,,(-1006.2813065616466+0j),0.0,1116002210100602110302004000051000600007000080000
3515,LIBV,40.7677993774,16.9333000183,2024-02-06 00:12:00,45.0,36.0,N,yellow,9.0,1024.0,(7529.643460366966+0j),7.0,2.0,,400.0,99999,8.0,(6504.343460366966+0j),0.0,1110083602100902070302404000051000600007450088000
3521,EHLE,52.4603004456,5.5272197723,2024-02-06 00:25:00,,,,,10.0,1011.0,(966.5207007500816+0j),7.0,19.0,230.0,10000.0,99999,8.0,(-46.879299249918404+0j),0.0,1116082319101002070301104000051000600007000088000
3539,EFKI,64.2854995728,27.6923999786,2024-02-06 00:20:00,,,,,-18.0,996.0,(286.03765797975024+0j),-20.0,2.0,,10000.0,99999,,(-708.9623420202497+0j),0.0,11160036021118021200399604000051000600007000080000
3540,EFKU,63.0070991516,27.7978000641,2024-02-06 00:20:00,71.0,36.0,h,magenta,-13.0,995.0,(323.12367305689907+0j),-14.0,3.0,40.0,10000.0,99999,,(-671.6763269431009+0j),0.0,11160004031113021140399504000051000600007710080000
3542,EHDL,52.0606002808,5.8730602264,2024-02-06 00:25:00,,,,,9.0,1013.0,(1691.3626344346562+0j),7.0,16.0,230.0,10000.0,99999,7.0,(676.5626344346563+0j),0.0,1116072316100902070301304000051000600007000087000
3544,EHGR,51.567401886,4.9318299294,2024-02-06 00:25:00,,,,,10.0,1015.0,(1190.892423809499+0j),7.0,12.0,220.0,10000.0,99999,3.0,(174.29242380949893+0j),0.1,1116032212101002070301504000051000600107000083000
3546,EHLW,53.2285995483,5.7605600357,2024-02-06 00:25:00,,,,,10.0,1009.0,(1019.3662052203608+0j),6.0,23.0,240.0,10000.0,99999,8.0,(8.766205220360803+0j),0.0,1116082423101002060300904000051000600007000088000
3548,EHWO,51.4491004944,4.3420300484,2024-02-06 00:25:00,,,,,10.0,1015.0,(1243.2529818288942+0j),7.0,13.0,230.0,10000.0,99999,5.0,(226.25298182889424+0j),0.0,1116052313101002070301504000051000600007000085000
3552,ENBL,61.3911018372,5.756939888,2024-02-06 00:20:00,,,,,-6.0,998.0,(138456.43793357813+0j),-8.0,0.0,0.0,10000.0,99999,6.0,(137458.43793357813+0j),0.0,1116060000110602180399804000051000600007000086000
3553,ENEV,68.4913024902,16.6781005859,2024-02-06 00:20:00,,,,,-6.0,999.0,(573.7697376436281+0j),-10.0,8.0,160.0,10000.0,99999,,0j,0.0,11160016081106021100399904000051000600007000080000
3554,ENFL,61.5835990906,5.024720192,2024-02-06 00:20:00,,,,,-1.0,999.0,(134.9770287534365+0j),-4.0,8.0,90.0,10000.0,99999,,(-865.0229712465634+0j),0.0,1116000908110102140399904000051000600007000080000
3555,ENKB,63.1118011475,7.8245201111,2024-02-06 00:20:00,,,,,-3.0,998.0,(0.2587652114509147+0j),-4.0,0.0,0.0,10000.0,99999,5.0,0j,0.0,1116050000110302140399804000051000600007000085000
3556,ENML,62.7447013855,7.2624998093,2024-02-06 00:20:00,,,,,-4.0,999.0,(915.2448475456779+0j),-5.0,5.0,20.0,10000.0,99999,3.0,(-84.35515245432214+0j),0.0,1116030205110402150399904000051000600007000083000
3557,ENNA,70.0688018799,24.9734992981,2024-02-06 00:20:00,,,,,-21.0,1002.0,(961.5974499395273+0j),-23.0,4.0,220.0,10000.0,99999,,(-40.40255006047266+0j),0.0,11160022041121021230300204000051000600007000080000
3598,ETNL,53.9182014465,12.2783002853,2024-02-06 00:20:00,58.0,36.0,[,green,8.0,1003.0,(1661.9046711634282+0j),7.0,14.0,250.0,7000.0,99999,6.0,(656.6046711634283+0j),0.0,1114062514100802070300304000051000600007580086000
3630,ESGG,57.6627998352,12.279800415,2024-02-06 00:20:00,,,,,-2.0,998.0,(781.1297797377545+0j),-7.0,3.0,110.0,10000.0,99999,,(-217.87022026224554+0j),0.0,1116001103110202170399804000051000600007000080000
3659,EYSA,55.893901825,23.3950004578,2024-02-06 00:20:00,,,,,-4.0,998.0,(-7386.050090573516-7719.995482216654j),-5.0,7.0,260.0,10000.0,99999,,0j,0.0,1116002607110402150399804000051000600007000080000
3671,EGMD,50.9561004639,0.9391670227,2024-02-06 00:20:00,,,,,10.0,1017.0,(1062.6048740005892+0j),9.0,20.0,240.0,10000.0,99999,6.0,0j,0.0,1116062420101002090301704000051000600007000086000
3672,EGPB,59.8788986206,-1.2955600023,2024-02-06 00:20:00,61.0,36.0,^,green,4.0,991.0,(1166.3555901528841+0j),3.0,15.0,150.0,10000.0,99999,7.0,(169.85559015288413+0j),0.0,1116071515100402030399104000051000600007610087000
3673,EGPO,58.2155990601,-6.3311100006,2024-02-06 00:20:00,,,,,4.0,995.0,(1226.1600875388283+0j),1.0,12.0,270.0,10000.0,99999,1.0,(229.76008753882832+0j),0.0,1116012712100402010399504000051000600007000081000
3676,LIRN,40.8860015869,14.2908000946,2024-02-06 00:20:00,,,,,13.0,1027.0,(1935.9133434522505+0j),11.0,4.0,240.0,10000.0,99999,,(908.9133434522505+0j),0.0,11160024041013020110302704000051000600007000080000
3711,LTCS,37.4456634521,38.8955917358,2024-02-06 00:20:00,45.0,36.0,N,yellow,4.0,1019.0,(23.38225886922597+0j),4.0,4.0,260.0,500.0,99999,,(-997.317741130774+0j),0.0,1110002604100402040301904000051000600007450080000
3715,LTFM,41.275333,28.752,2024-02-06 00:20:00,,,,,11.0,1017.0,(2230.2539569248224+0j),7.0,14.0,220.0,10000.0,99999,,0j,0.0,1116002214101102070301704000051000600007000080000
3733,LSZL,46.1608009338,8.8786096573,2024-02-06 00:20:00,,,,,2.0,1024.0,(15.59594597356391+0j),1.0,2.0,,10000.0,99999,,(-1009.8040540264362+0j),0.0,1116003602100202010302404000051000600007000080000
3740,LTAZ,38.771900177,34.5345001221,2024-02-06 00:20:00,,,,,7.0,1020.0,(18.881033636209143+0j),-2.0,3.0,270.0,10000.0,99999,4.0,0j,0.0,1116042703100702120302004000051000600007000084000
3741,LTBR,40.2551994324,29.5625991821,2024-02-06 00:20:00,,,,,5.0,1019.0,(8536.785907287483+0j),3.0,5.0,100.0,10000.0,99999,,(7517.2859072874835+0j),0.0,1116001005100502030301904000051000600007000080000
3743,LTFC,37.8554000854,30.3684005737,2024-02-06 00:20:00,,,,,0.0,1023.0,(39.120198683857666+0j),-2.0,3.0,350.0,10000.0,99999,,(-985.5798013161424+0j),0.0,1116003503100002120302304000051000600007000080000
3744,LTFJ,40.898601532,29.3092002869,2024-02-06 00:20:00,,,,,14.0,1018.0,(1904.4011391293511+0j),6.0,13.0,260.0,10000.0,99999,,(885.2011391293511+0j),0.0,1116002613101402060301804000051000600007000080000
3751,ETHC,52.5912017822,10.0221004486,2024-02-06 00:20:00,61.0,36.0,^,green,8.0,1010.0,(1626.4837543617043+0j),6.0,19.0,230.0,10000.0,99999,4.0,(615.7837543617043+0j),0.2,1116042319100802060301004000051000600207610084000
3755,ETHS,52.9193992615,10.1975002289,2024-02-06 00:20:00,51.0,36.0,T,green,8.0,1008.0,(2260.0954821190817+0j),6.0,16.0,260.0,6000.0,99999,4.0,(1250.4954821190818+0j),0.0,1113042616100802060300804000051000600007510084000
3756,ETMN,53.7677001953,8.6584997177,2024-02-06 00:20:00,,,,,9.0,1006.0,(1300.6748285421277+0j),6.0,22.0,260.0,10000.0,99999,4.0,(292.8748285421277+0j),0.2,1116042622100902060300604000051000600207000084000
3758,ETNW,52.4572982788,9.4271697998,2024-02-06 00:20:00,51.0,36.0,T,green,9.0,1010.0,(1823.8705828575855+0j),6.0,19.0,250.0,10000.0,99999,6.0,(811.8705828575855+0j),0.2,1116062519100902060301004000051000600207510086000
3760,ETSL,48.1855010986,10.8612003326,2024-02-06 00:20:00,,,,,8.0,1020.0,(11.943887025701887+0j),-1.0,7.0,190.0,10000.0,99999,,(-1010.9561129742981+0j),0.0,1116001907100802110302004000051000600007000080000
3761,ETSN,48.7109985352,11.2115001678,2024-02-06 00:20:00,,,,,5.0,1019.0,(12.823107662037154+0j),1.0,10.0,260.0,10000.0,99999,3.0,(-1008.3768923379629+0j),0.0,1116032610100502010301904000051000600007000083000
3762,EHAM,52.3086013794,4.7638897896,2024-02-06 00:25:00,,,,,11.0,1012.0,(977.6742621484849+0j),7.0,22.0,240.0,10000.0,99999,4.0,(-36.42573785151512+0j),0.0,1116042422101102070301204000051000600007000084000
3763,ETHF,51.1146,9.286,2024-02-06 00:20:00,,,,,8.0,1015.0,(9.240331055742207+0j),3.0,14.0,240.0,10000.0,99999,6.0,(-1008.1596689442578+0j),0.0,1116062414100802030301504000051000600007000086000
3764,ETHL,48.2202987671,9.9100198746,2024-02-06 00:20:00,,,,,5.0,1020.0,(16.424245499001703+0j),1.0,5.0,270.0,10000.0,99999,1.0,(-1007.4757545009983+0j),0.0,1116012705100502010302004000051000600007000081000
3765,ETHN,49.3919448853,9.9588890076,2024-02-06 00:20:00,,,,,4.0,1019.0,(15.833935800727607+0j),2.0,18.0,270.0,10000.0,99999,6.0,(-1005.6660641992723+0j),0.0,1116062718100402020301904000051000600007000086000
3766,ETNN,50.831199646,6.6581702232,2024-02-06 00:20:00,,,,,9.0,1016.0,(2843.343883504793+0j),5.0,14.0,230.0,10000.0,99999,4.0,(1824.6438835047932+0j),0.0,1116042314100902050301604000051000600007000084000
3767,ETSH,51.7677993774,13.1676998138,2024-02-06 00:20:00,,,,,9.0,1011.0,(2212.4593269295897+0j),5.0,9.0,240.0,10000.0,99999,6.0,(1199.7593269295896+0j),0.0,1116062409100902050301104000051000600007000086000
3821,LFCK,43.5563011169,2.2891800404,2024-02-06 00:30:00,,,,,4.0,1030.0,(10.722446228364777+0j),4.0,3.0,,7000.0,99999,8.0,0j,0.0,1114083603100402040303004000051000600007000088000
3822,LFLP,45.9291992188,6.098760128,2024-02-06 00:30:00,49.0,36.0,R,red,-1.0,1026.0,(52.3176186644307+0j),-1.0,0.0,0.0,400.0,99999,,(-974.2823813355692+0j),0.0,1110000000110102110302604000051000600007490080000
3826,LFQA,49.2086982727,4.1565799713,2024-02-06 00:30:00,,,,,7.0,1023.0,(2975.5592346490807+0j),5.0,12.0,220.0,10000.0,99999,8.0,(1951.6592346490806+0j),0.0,1116082212100702050302304000051000600007000088000
3841,EPBY,53.0968017578,17.9776992798,2024-02-06 00:30:00,61.0,36.0,^,green,7.0,1002.0,(2382.6651675755343+0j),5.0,18.0,270.0,10000.0,99999,4.0,0j,0.0,1116042718100702050300204000051000600007610084000
3845,EPRA,51.388833,21.211667,2024-02-06 00:30:00,,,,,8.0,1005.0,(4609.54646157674+0j),5.0,19.0,290.0,10000.0,99999,7.0,(3605.5464615767396+0j),1.2,1116072919100802050300504000051000601107000087000
3847,EPSY,53.481944,20.937778,2024-02-06 00:30:00,,,,,0.0,1002.0,(38.31714475193097+0j),-0.0,3.0,240.0,2600.0,99999,7.0,(-966.282855248069+0j),0.1,1111072403100002100300204000051000600107000087000
3849,LFAQ,49.9715003967,2.6976599693,2024-02-06 00:30:00,,,,,8.0,1019.0,(3002.968995894622+0j),7.0,16.0,210.0,10000.0,99999,8.0,(1981.7689958946219+0j),0.0,1116082116100802070301904000051000600007000088000
3851,LFJR,47.5602989197,-0.3122220039,2024-02-06 00:30:00,,,,,8.0,1026.0,(2007.2413247465017+0j),7.0,6.0,210.0,7000.0,99999,7.0,(980.9413247465018+0j),0.0,1114072106100802070302604000051000600007000087000
3855,LFPT,49.0965995789,2.0408298969,2024-02-06 00:30:00,,,,,8.0,1023.0,(2773.3491743071104+0j),6.0,13.0,220.0,10000.0,99999,4.0,(1749.8491743071104+0j),0.0,1116042213100802060302304000051000600007000084000
3868,LHKE,46.9174995422,19.7492008209,2024-02-06 00:15:00,,,,,5.0,1017.0,(4524.019338570112+0j),3.0,3.0,190.0,10000.0,99999,,(3505.9193385701124+0j),0.0,1116001903100502030301704000051000600007000080000
3869,LHPA,47.3636016846,17.5007991791,2024-02-06 00:15:00,,,,,6.0,1017.0,(4653.6307449319365+0j),1.0,9.0,210.0,10000.0,99999,,(3634.5307449319366+0j),0.0,1116002109100602010301704000051000600007000080000
3871,LHPR,47.6244010925,17.8136005402,2024-02-06 00:15:00,,,,,6.0,1017.0,(4286.407950410339+0j),-1.0,4.0,250.0,10000.0,99999,,(3268.007950410339+0j),0.0,1116002504100602110301704000051000600007000080000
3872,LHSM,46.6864013672,17.1590995789,2024-02-06 00:15:00,,,,,4.0,1019.0,(5945.879066494736+0j),2.0,0.0,0.0,9000.0,99999,,0j,0.0,1115000000100402020301904000051000600007000080000
3873,LHSN,47.1228981018,20.2355003357,2024-02-06 00:15:00,,,,,9.0,1016.0,(2520.6244168937255+0j),4.0,7.0,240.0,10000.0,99999,,(1504.6244168937255+0j),0.0,1116002407100902040301604000051000600007000080000
3882,LTAC,40.1281013489,32.995098114,2024-02-06 00:20:00,,,,,6.0,1018.0,(20.601254773634587+0j),1.0,4.0,230.0,10000.0,99999,4.0,(-999.2987452263654+0j),0.0,1116042304100602010301804000051000600007000084000
3883,LTAF,36.9822006226,35.2803993225,2024-02-06 00:20:00,,,,,9.0,1020.0,(1284.5306258491105+0j),7.0,2.0,110.0,10000.0,99999,3.0,(263.93062584911047+0j),0.0,1116031102100902070302004000051000600007000083000
3884,LTAG,37.0021018982,35.4258995056,2024-02-06 00:20:00,,,,,7.0,1019.0,(2443.3905393565333+0j),6.0,6.0,50.0,10000.0,99999,,(1424.3905393565333+0j),0.0,1116000506100702060301904000051000600007000080000
3885,LTAJ,36.9472007751,37.4786987305,2024-02-06 00:20:00,10.0,36.0,+,yellow,4.0,1019.0,(21.748529966719442+0j),4.0,4.0,280.0,4800.0,99999,3.0,(-995.7514700332806+0j),0.0,1112032804100402040301904000051000600007100083000
3886,LTAP,40.8293991089,35.5219993591,2024-02-06 00:20:00,,,,,4.0,1015.0,(18.70592193668455+0j),0.0,1.0,,10000.0,99999,4.0,(-997.5940780633154+0j),0.0,1116043601100402000301504000051000600007000084000
3887,LTAT,38.4352989197,38.0909996033,2024-02-06 00:20:00,,,,,6.0,1018.0,(19.521435826250315+0j),-2.0,8.0,280.0,10000.0,99999,4.0,(-997.4785641737496+0j),0.0,1116042808100602120301804000051000600007000084000
3888,LTBJ,38.2924003601,27.156999588,2024-02-06 00:20:00,,,,,6.0,1022.0,(4202.452608844721+0j),6.0,2.0,,8000.0,99999,,(3178.852608844721+0j),0.0,1114003602100602060302204000051000600007000080000
3890,LTBU,41.1381988525,27.9190998077,2024-02-06 00:20:00,,,,,8.0,1017.0,(4343.1074272892265+0j),6.0,9.0,230.0,10000.0,99999,,(3324.7074272892264+0j),0.0,1116002309100802060301704000051000600007000080000
3891,LTCC,37.893901825,40.2010002136,2024-02-06 00:20:00,45.0,36.0,N,yellow,1.0,1018.0,(32.81336958132225+0j),1.0,2.0,,200.0,99999,,(-987.6866304186777+0j),0.0,1110003602100102010301804000051000600007450080000
3892,LTCG,40.995098114,39.7896995544,2024-02-06 00:20:00,,,,,16.0,1012.0,(1247.1095563711501+0j),-1.0,9.0,250.0,10000.0,99999,4.0,(235.10955637115012+0j),0.0,1116042509101602110301204000051000600007000084000
3893,LTCJ,37.9290008545,41.1166000366,2024-02-06 00:20:00,,,,,3.0,1019.0,(22.256968845033608+0j),3.0,2.0,,9000.0,99999,2.0,(-996.7430311549664+0j),0.0,1115023602100302030301904000051000600007000082000
3894,LTFE,37.2505989075,27.6643009186,2024-02-06 00:20:00,,,,,5.0,1023.0,(1174.2370714643366+0j),5.0,4.0,100.0,7000.0,99999,,0j,0.0,1114001004100502050302304000051000600007000080000
3897,EGVN,51.75,-1.5836199522,2024-02-06 00:20:00,58.0,36.0,[,green,11.0,1013.0,(2068.297994632869+0j),9.0,10.0,230.0,8000.0,99999,6.0,(1054.2979946328692+0j),0.0,1114062310101102090301304000051000600007580086000
3899,EHBK,50.9117012024,5.7701401711,2024-02-06 00:25:00,,,,,8.0,1017.0,(3065.5167316451893+0j),6.0,20.0,220.0,10000.0,99999,7.0,(2046.8167316451893+0j),0.0,1116072220100802060301704000051000600007000087000
3900,EHEH,51.4500999451,5.3745298386,2024-02-06 00:25:00,,,,,9.0,1015.0,(1316.59531978885+0j),7.0,18.0,220.0,10000.0,99999,6.0,(299.49531978885+0j),0.0,1116062218100902070301504000051000600007000086000
3901,EHGG,53.1197013855,6.5794401169,2024-02-06 00:25:00,,,,,10.0,1009.0,(1068.3371786804273+0j),6.0,20.0,240.0,10000.0,99999,4.0,(57.63717868042727+0j),0.1,1116042420101002060300904000051000600107000084000
3902,EHKD,52.9234008789,4.7806200981,2024-02-06 00:25:00,,,,,9.0,1010.0,(1021.5322242567809+0j),7.0,22.0,230.0,10000.0,99999,8.0,(9.73222425678091+0j),0.0,1116082322100902070301004000051000600007000088000
3903,EHRD,51.9569015503,4.4372200966,2024-02-06 00:25:00,,,,,10.0,1013.0,(961.6535358438601+0j),7.0,21.0,230.0,10000.0,99999,8.0,(-53.44646415613988+0j),0.0,1116082321101002070301304000051000600007000088000
3905,LBGO,43.1514015198,25.7129001617,2024-02-06 00:30:00,,,,,14.0,1017.0,(1818.2309228963813+0j),0.0,15.0,280.0,10000.0,99999,,(800.0309228963813+0j),0.0,1116002815101402000301704000051000600007000080000
3913,LSMA,46.943901062,8.2841701508,2024-02-06 00:20:00,,,,,-2.0,1024.0,(75.67355326958558+0j),-2.0,2.0,210.0,10000.0,99999,,(-947.7264467304144+0j),0.0,1116002102110202120302404000051000600007000080000
3914,LSMD,47.398601532,8.648229599,2024-02-06 00:20:00,10.0,36.0,+,yellow,-0.0,1023.0,(39.120198683857666+0j),-1.0,0.0,0.0,3500.0,99999,,(-984.8798013161423+0j),0.0,1112000000110002110302304000051000600007100080000
3915,LSME,47.0923995972,8.3051204681,2024-02-06 00:20:00,10.0,36.0,+,yellow,-1.0,1024.0,(53.65113524885614+0j),-1.0,0.0,0.0,2800.0,99999,1.0,(-970.5488647511439+0j),0.0,1111010000110102110302404000051000600007100081000
3916,LSMM,46.7433013916,8.1099996567,2024-02-06 00:20:00,,,,,-1.0,1025.0,(49.19836775773626+0j),-2.0,2.0,,10000.0,99999,,(-974.5016322422638+0j),0.0,1116003602110102120302504000051000600007000080000
3917,LSMP,46.8432006836,6.9150600433,2024-02-06 00:20:00,,,,,-0.0,1025.0,(39.19668001070782+0j),-1.0,1.0,,10000.0,99999,,(-988.8033199892922+0j),0.0,1116003601110002110302504000051000600007000080000
3953,LFLN,46.4124984741,4.0132598877,2024-02-06 00:30:00,,,,,4.0,1027.0,(10.78098185204685+0j),4.0,6.0,260.0,9000.0,99999,8.0,(-1017.6190181479533+0j),0.0,1115082606100402040302704000051000600007000088000
3959,LFPM,48.6046981812,2.6711199284,2024-02-06 00:30:00,,,,,6.0,1024.0,(3261.259936583605+0j),6.0,12.0,220.0,10000.0,99999,8.0,(2236.259936583605+0j),0.0,1116082212100602060302404000051000600007000088000
4010,LYBT,44.935299,20.2575,2024-02-06 00:30:00,,,,,5.0,1020.0,(3383.830581128118+0j),2.0,4.0,210.0,10000.0,99999,,(2363.830581128118+0j),0.0,1116002104100502020302004000051000600007000080000
4011,LYKV,43.818298,20.5872,2024-02-06 00:30:00,,,,,-1.0,1022.0,(79.47348949359973+0j),-1.0,0.0,0.0,10000.0,99999,,(-941.5265105064003+0j),0.0,1116000000110102110302204000051000600007000080000
4015,LYVR,45.1469,21.3099,2024-02-06 00:30:00,,,,,4.0,1020.0,(4211.683760523471+0j),3.0,5.0,190.0,10000.0,99999,,(3191.6837605234714+0j),0.0,1116001905100402030302004000051000600007000080000
4021,LFBY,43.689201355,-1.0688899755,2024-02-06 00:30:00,,,,,8.0,1029.0,(1547.1895501648073+0j),8.0,2.0,160.0,6000.0,99999,,(517.1895501648073+0j),0.0,1113001602100802080302904000051000600007000080000
4034,LFYR,47.3208007813,1.6888899803,2024-02-06 00:30:00,51.0,36.0,T,green,6.0,1026.0,(3157.7867666297643+0j),5.0,4.0,210.0,7000.0,99999,6.0,(2130.7867666297643+0j),0.0,1114062104100602050302604000051000600007510086000
4061,EGXV,53.8758010864,-0.4350000024,2024-02-06 00:20:00,,,,,11.0,1005.0,(1120.0404144793335+0j),7.0,12.0,230.0,10000.0,99999,3.0,(114.04041447933355+0j),0.0,1116032312101102070300504000051000600007000083000
4086,EPLL,51.7219009399,19.3980998993,2024-02-06 00:30:00,,,,,9.0,1006.0,(4056.408807259766+0j),4.0,19.0,260.0,10000.0,99999,6.0,(3048.708807259766+0j),0.3,1116062619100902040300604000051000600307000086000
4087,EPWR,51.1026992798,16.885799408,2024-02-06 00:30:00,,,,,10.0,1010.0,(2727.212866002934+0j),4.0,17.0,270.0,10000.0,99999,6.0,(1717.2128660029339+0j),0.0,1116062717101002040301004000051000600007000086000
4088,LFBE,44.8252983093,0.5186110139,2024-02-06 00:30:00,,,,,5.0,1030.0,(2479.358021007919+0j),4.0,3.0,,9000.0,99999,7.0,(1449.758021007919+0j),0.0,1115073603100502040303004000051000600007000087000
4090,LFCR,44.4079017639,2.4826700687,2024-02-06 00:30:00,45.0,36.0,N,yellow,2.0,1028.0,(26.938475276239064+0j),2.0,4.0,240.0,500.0,99999,,(-1001.561524723761+0j),0.0,1110002404100202020302804000051000600007450080000
4091,LFJL,48.9821014404,6.2513198853,2024-02-06 00:30:00,,,,,5.0,1023.0,(9.591890011882628+0j),4.0,11.0,250.0,10000.0,99999,8.0,(-1014.4081099881174+0j),0.0,1116082511100502040302304000051000600007000088000
4093,LFMO,44.140499115,4.8667201996,2024-02-06 00:30:00,,,,,2.0,1026.0,(5801.422047591218+0j),1.0,1.0,30.0,10000.0,99999,,(4775.3220475912185+0j),0.0,1116000301100202010302604000051000600007000080000
4094,LFMU,43.3235015869,3.3538999557,2024-02-06 00:30:00,,,,,6.0,1026.0,(1374.4701881958986+0j),4.0,15.0,270.0,10000.0,99999,,(348.87018819589866+0j),0.0,1116002715100602040302604000051000600007000080000
4097,LKCV,49.9397010803,15.3817996979,2024-02-06 00:30:00,,,,,8.0,1013.0,(5767.150713991942+0j),1.0,11.0,240.0,10000.0,99999,,(4750.750713991943+0j),0.0,1116002411100802010301304000051000600007000080000
4098,LKNA,49.1657981873,16.1249008179,2024-02-06 00:30:00,,,,,9.0,1014.0,(9.413833658015008+0j),-2.0,14.0,270.0,10000.0,99999,,(-1006.9861663419849+0j),0.0,1116002714100902120301404000051000600007000080000
4099,LKPD,50.0134010315,15.7385997772,2024-02-06 00:30:00,,,,,6.0,1013.0,(7022.659245397474+0j),1.0,4.0,260.0,10000.0,99999,,(6007.259245397474+0j),0.0,1116002604100602010301304000051000600007000080000
4103,LZPP,48.6251983643,17.8283996582,2024-02-06 00:30:00,,,,,2.0,1016.0,(13.650691437418688+0j),0.0,3.0,70.0,10000.0,99999,,0j,0.0,1116000703100202000301604000051000600007000080000
4104,LZZI,49.2314987183,18.6135005951,2024-02-06 00:30:00,,,,,6.0,1014.0,(9.319769089291073+0j),2.0,8.0,280.0,10000.0,99999,,0j,0.0,1116002808100602020301404000051000600007000080000
4114,LFOV,48.0313987732,-0.7429860234,2024-02-06 00:30:00,,,,,9.0,1025.0,(2585.8151312877612+0j),8.0,6.0,230.0,10000.0,99999,7.0,(1560.8151312877612+0j),0.0,1116072306100902080302504000051000600007000087000
4117,LFRV,47.7233009338,-2.7185599804,2024-02-06 00:30:00,,,,,10.0,1025.0,(2975.672811045082+0j),9.0,3.0,,10000.0,99999,8.0,(1949.9728110450822+0j),0.0,1116083603101002090302504000051000600007000088000
4118,LFSG,48.3250007629,6.0699801445,2024-02-06 00:30:00,,,,,5.0,1024.0,(11.527951014807241+0j),3.0,8.0,230.0,10000.0,99999,8.0,(-1014.3720489851928+0j),0.0,1116082308100502030302404000051000600007000088000
4123,LFBU,45.7291984558,0.2214560062,2024-02-06 00:30:00,,,,,6.0,1028.0,(4438.622184342874+0j),5.0,5.0,170.0,9000.0,99999,7.0,(3409.622184342874+0j),0.0,1115071705100602050302804000051000600007000087000
4124,LFGA,48.1099014282,7.3590102196,2024-02-06 00:30:00,10.0,36.0,+,yellow,1.0,1023.0,(22.695607813285452+0j),0.0,4.0,340.0,5000.0,99999,,(-1001.3043921867145+0j),0.0,1113003404100102000302304000051000600007100080000
4127,LFOZ,47.896900177,2.1633300781,2024-02-06 00:30:00,,,,,6.0,1026.0,(4078.686204453439+0j),5.0,10.0,220.0,7000.0,99999,8.0,(3052.686204453439+0j),0.0,1114082210100602050302604000051000600007000088000
4146,LJCE,45.9000015259,15.5302000046,2024-02-06 00:30:00,,,,,10.0,1021.0,(3285.4752751371598+0j),5.0,12.0,250.0,10000.0,99999,,0j,0.0,1116002512101002050302104000051000600007000080000
4179,LEMI,37.803,-1.125,2024-02-06 00:30:00,,,,,10.0,1026.0,(3937.223545355194+0j),4.0,6.0,270.0,10000.0,99999,,0j,0.0,1116002706101002040302604000051000600007000080000
4181,LECH,40.9000015259,-1.3041199446,2024-02-06 00:30:00,,,,,8.0,1026.0,(16.93656606022951+0j),5.0,1.0,80.0,9000.0,99999,,(-1010.6634339397704+0j),0.0,1115000801100802050302604000051000600007000080000
4195,LTAI,36.8987007141,30.8005008698,2024-02-06 00:20:00,,,,,8.0,1022.0,(1904.7773613756665+0j),1.0,3.0,310.0,10000.0,99999,,(882.1773613756665+0j),0.0,1116003103100802010302204000051000600007000080000
4196,LTAU,38.770401001,35.4953994751,2024-02-06 00:20:00,,,,,5.0,1019.0,(23.61432972049539+0j),-2.0,0.0,0.0,10000.0,99999,6.0,(-995.3856702795047+0j),0.2,1116060000100502120301904000051000600207000086000
4197,LTBA,40.9768981934,28.8145999908,2024-02-06 00:20:00,,,,,10.0,1018.0,(1646.7080139496238+0j),7.0,6.0,220.0,10000.0,99999,,(629.0080139496238+0j),0.0,1116002206101002070301804000051000600007000080000
4198,LTBS,36.7131004333,28.7924995422,2024-02-06 00:20:00,,,,,7.0,1023.0,(1124.9366600366645+0j),5.0,6.0,70.0,10000.0,99999,,(101.63666003666458+0j),0.0,1116000706100702050302304000051000600007000080000
4221,LHDC,47.488899231,21.6152992249,2024-02-06 00:15:00,,,,,8.0,1014.0,(2957.319907811099+0j),3.0,14.0,240.0,10000.0,99999,,(1941.9199078110987+0j),0.0,1116002414100802030301404000051000600007000080000
4222,LHPP,45.9908981323,18.2409992218,2024-02-06 00:15:00,,,,,9.0,1019.0,(6422.76306798484+0j),5.0,9.0,290.0,10000.0,99999,,(5402.1630679848395+0j),0.0,1116002909100902050301904000051000600007000080000
4230,LFBG,45.6582984924,-0.3174999952,2024-02-06 00:30:00,,,,,6.0,1029.0,(1694.2988013772024+0j),5.0,6.0,180.0,10000.0,99999,7.0,(665.2988013772024+0j),0.0,1116071806100602050302904000051000600007000087000
4234,LFMK,43.2159996033,2.306319952,2024-02-06 00:30:00,,,,,6.0,1029.0,(4416.433461845869+0j),5.0,11.0,270.0,10000.0,99999,7.0,(3387.733461845869+0j),0.0,1116072711100602050302904000051000600007000087000
4239,LFRL,48.2817001343,-4.4450201988,2024-02-06 00:30:00,,,,,12.0,1024.0,(1988.3591622237363+0j),8.0,15.0,220.0,10000.0,99999,8.0,(963.7591622237364+0j),0.0,1116082215101202080302404000051000600007000088000
4242,UUBC,54.5499992371,36.3666687012,2024-02-06 00:30:00,,,,,-3.0,990.0,(2314.4821037920547+0j),-5.0,4.0,290.0,10000.0,99999,3.0,0j,0.0,1116032904110302150399004000051000600007000083000
4243,UUOB,50.6437988281,36.5900993347,2024-02-06 00:30:00,,,,,-3.0,994.0,(948.156735096421+0j),-5.0,6.0,310.0,10000.0,99999,,(-41.843264903578984+0j),0.0,1116003106110302150399404000051000600007000080000
4244,UUOK,51.7505989075,36.2956008911,2024-02-06 00:30:00,66.0,36.0,c,red,-3.0,993.0,(1562.6295252840891+0j),-5.0,6.0,290.0,10000.0,99999,,(570.8295252840892+0j),0.0,1116002906110302150399304000051000600007660080000
4247,UWPS,54.1251296997,45.2122573853,2024-02-06 00:30:00,71.0,36.0,h,magenta,-3.0,980.0,(1743.697544701231+0j),-4.0,6.0,340.0,5000.0,99999,8.0,(762.897544701231+0j),0.5,1113083406110302140398004000051000600507710088000
4250,UWKS,56.0903015137,47.3473014832,2024-02-06 00:30:00,,,,,-7.0,982.0,(-0.0008456112501429304-0.0008838438611655963j),-8.0,5.0,10.0,8000.0,99999,6.0,(-984.9008456112501-0.0008838438611655963j),0.0,1114060105110702180398204000051000600007000086000
4252,UUBW,55.5532989502,38.1500015259,2024-02-06 00:30:00,,,,,-3.0,988.0,(-465634.6875689711-486687.42295473604j),-5.0,2.0,260.0,10000.0,99999,3.0,(-466622.78756897105-486687.42295473604j),0.0,1116032602110302150398804000051000600007000083000
4253,UUOL,52.7028007507,39.5377998352,2024-02-06 00:30:00,,,,,-6.0,989.0,(-123.65536699502745-129.2461955777678j),-8.0,5.0,300.0,10000.0,99999,,0j,0.0,1116003005110602180398904000051000600007000080000
4266,URMG,43.3883018494,45.698600769,2024-02-06 00:30:00,,,,,3.0,994.0,(994+0j),1.0,3.0,330.0,10000.0,99999,6.0,(-5.5+0j),0.0,1116063303100302010399404000051000600007000086000
4269,URMO,43.2051010132,44.6066017151,2024-02-06 00:30:00,,,,,2.0,992.0,(24.79910883221109+0j),-1.0,5.0,90.0,10000.0,99999,6.0,(-973.2008911677889+0j),0.0,1116060905100202110399204000051000600007000086000
4271,URRP,47.50083333,39.93361111,2024-02-06 00:30:00,85.0,36.0,v,magenta,1.0,993.0,(13.681672800446298+0j),1.0,7.0,300.0,8000.0,99999,4.0,0j,0.0,1114043007100102010399304000051000600007850084000
4278,UUDL,57.5606994629,40.1573982239,2024-02-06 00:30:00,71.0,36.0,h,magenta,-8.0,987.0,(146.75098834019897+0j),-10.0,3.0,30.0,8000.0,99999,6.0,(-841.149011659801+0j),0.0,11140603031108021100398704000051000600007710086000
4281,UUMO,55.5116996765,37.5071983337,2024-02-06 00:30:00,,,,,-4.0,988.0,(-202473721.63015166-211628163.50883847j),-5.0,4.0,290.0,10000.0,99999,3.0,(-202474708.63015166-211628163.50883847j),0.0,1116032904110402150398804000051000600007000083000
4302,LQMO,43.2829017639,17.8458995819,2024-02-06 00:30:00,41.0,36.0,J,yellow,1.0,1025.0,(8744.318693568626+0j),0.0,3.0,110.0,9000.0,99999,1.0,(7717.818693568626+0j),0.0,1115011103100102000302504000051000600007410081000
4308,LEBG,42.3576011658,-3.620759964,2024-02-06 00:30:00,,,,,2.0,1028.0,(30.471575210045213+0j),1.0,1.0,20.0,10000.0,99999,,(-998.5284247899548+0j),0.0,1116000201100202010302804000051000600007000080000
4320,LRBM,47.6584014893,23.4699993134,2024-02-06 00:30:00,,,,,6.0,1014.0,(5855.702092616646+0j),4.0,3.0,100.0,10000.0,99999,6.0,(4841.302092616646+0j),0.0,1116061003100602040301404000051000600007000086000
4323,LRCL,46.7851982117,23.6861991882,2024-02-06 00:30:00,,,,,10.0,1014.0,(6000.286371360784+0j),2.0,11.0,280.0,10000.0,99999,,(4985.286371360784+0j),0.0,1116002811101002020301404000051000600007000080000
4324,LRIA,47.1785011292,27.6205997467,2024-02-06 00:30:00,,,,,7.0,1008.0,(3531.7514887925377+0j),4.0,2.0,,10000.0,99999,,(2523.0514887925374+0j),0.0,1116003602100702040300804000051000600007000080000
4326,LRSB,45.7855987549,24.091299057,2024-02-06 00:30:00,,,,,10.0,1015.0,(8346.606289551526+0j),1.0,12.0,290.0,10000.0,99999,,(7331.206289551526+0j),0.0,1116002912101002010301504000051000600007000080000
4332,EKKA,56.2975006104,9.1246299744,2024-02-06 00:33:00,63.0,36.0,',green,7.0,997.0,(1952.0700176499433+0j),7.0,11.0,260.0,4800.0,99999,6.0,(954.0700176499433+0j),1.4,1112062611100702070399704000051000601307630086000
4335,LEMO,37.1749000549,-5.615940094,2024-02-06 00:30:00,,,,,9.0,1028.0,(2354.0206147726144+0j),7.0,2.0,,10000.0,99999,,(1326.0206147726144+0j),0.0,1116003602100902070302804000051000600007000080000
4339,LEHC,42.0760993958,-0.3166669905,2024-02-06 00:30:00,45.0,36.0,N,yellow,2.0,1026.0,(26.173066110164473+0j),2.0,3.0,260.0,50.0,99999,,(-1001.1269338898355+0j),0.0,1110002603100202020302604000051000600007450080000
4342,LESB,39.5988998413,2.7027800083,2024-02-06 00:30:00,,,,,8.0,1026.0,(1802.3669483076242+0j),6.0,3.0,10.0,10000.0,99999,,(774.3669483076242+0j),0.0,1116000103100802060302604000051000600007000080000
4365,LRBC,46.521900177,26.9102993011,2024-02-06 00:30:00,,,,,11.0,1009.0,(3457.527357151449+0j),2.0,15.0,260.0,10000.0,99999,,(2448.227357151449+0j),0.0,1116002615101102020300904000051000600007000080000
4366,LRCV,44.3180999756,23.8885993958,2024-02-06 00:30:00,,,,,10.0,1016.0,(3862.6228522017495+0j),1.0,9.0,290.0,10000.0,99999,,(2845.6228522017495+0j),0.0,1116002909101002010301604000051000600007000080000
4367,LROD,47.0252990723,21.9025001526,2024-02-06 00:30:00,,,,,8.0,1016.0,(3632.0577078857204+0j),4.0,10.0,210.0,10000.0,99999,3.0,(2616.0577078857204+0j),0.0,1116032110100802040301604000051000600007000083000
4368,LRSM,47.7033004761,22.8857002258,2024-02-06 00:30:00,,,,,8.0,1013.0,(3240.877782019634+0j),4.0,11.0,250.0,10000.0,99999,8.0,(2227.0777820196345+0j),0.0,1116082511100802040301304000051000600007000088000
4369,LRSV,47.6875,26.3540992737,2024-02-06 00:30:00,,,,,7.0,1007.0,(10.457790660234995+0j),6.0,7.0,260.0,10000.0,99999,,(-996.542209339765+0j),0.0,1116002607100702060300704000051000600007000080000
4371,LUKK,46.9277000427,28.9309997559,2024-02-06 00:30:00,61.0,36.0,^,green,7.0,1008.0,(3546.2574706587143+0j),6.0,8.0,280.0,10000.0,99999,3.0,(2539.2574706587143+0j),0.0,1116032808100702060300804000051000600007610083000
4386,LELO,42.4609534888,-2.3222351074,2024-02-06 00:30:00,,,,,5.0,1027.0,(12.210990811426726+0j),3.0,3.0,280.0,10000.0,99999,,(-1015.7890091885732+0j),0.0,1116002803100502030302704000051000600007000080000
4406,GEML,35.279800415,-2.9562599659,2024-02-06 00:30:00,,,,,11.0,1027.0,(1572.4113531637536+0j),10.0,2.0,,10000.0,99999,,(544.4113531637536+0j),0.0,11160036021011020100302704000051000600007000080000
4410,EBCV,50.5758018494,3.8310000896,2024-02-06 00:25:00,,,,,9.0,1018.0,(1872.3084697737638+0j),6.0,16.0,210.0,10000.0,99999,3.0,(852.7084697737638+0j),0.0,1116032116100902060301804000051000600007000083000
4411,EBDT,50.9991989136,5.065559864,2024-02-06 00:25:00,,,,,9.0,1017.0,(1432.673296305324+0j),6.0,10.0,230.0,10000.0,99999,4.0,(413.87329630532395+0j),0.0,1116042310100902060301704000051000600007000084000
4412,EBFN,51.0903015137,2.652780056,2024-02-06 00:25:00,,,,,11.0,1016.0,(1079.9561643928494+0j),7.0,15.0,240.0,10000.0,99999,8.0,(61.95616439284936+0j),0.0,1116082415101102070301604000051000600007000088000
4414,EPGD,54.3776016235,18.4661998749,2024-02-06 00:30:00,,,,,0.0,1001.0,(38.27890408850588+0j),-0.0,2.0,,2400.0,99999,5.0,(-964.5210959114941+0j),0.3,1111053602100002100300104000051000600307000085000
4415,EPKK,50.0777015686,19.7847995758,2024-02-06 00:30:00,,,,,9.0,1010.0,(5156.2542801312775+0j),3.0,18.0,240.0,10000.0,99999,8.0,(4144.154280131277+0j),0.0,1116082418100902030301004000051000600007000088000
4416,EPKT,50.4743003845,19.0799999237,2024-02-06 00:30:00,,,,,8.0,1010.0,(7046.406446320164+0j),4.0,17.0,250.0,10000.0,99999,6.0,(6033.806446320164+0j),0.0,1116062517100802040301004000051000600007000086000
4417,EPLB,51.240278,22.713611,2024-02-06 00:30:00,61.0,36.0,^,green,7.0,1003.0,(5252.498362638108+0j),6.0,22.0,280.0,10000.0,99999,3.0,0j,0.0,1116032822100702060300304000051000600007610083000
4418,EPMO,52.4510993958,20.6518001556,2024-02-06 00:30:00,,,,,5.0,1003.0,(4100.3057212023205+0j),5.0,8.0,250.0,5000.0,99999,3.0,(3094.9057212023204+0j),0.9,1113032508100502050300304000051000600907000083000
