,station,lat,lon,time,weather,weatherfont,weathersymbol,weathercolour,temperature,pressure,sl_pressure,dewpoint,windspeed,winddir,visibility,visual_range,cloudcover,pressure3h_change,rain,wwletter
262,EEEI,59.2603,24.2085,2024-04-30 11:50:00,,,,,14.0,1030.0,1198.8328487634058,2.0,10.0,290.0,10000.0,99999,,0.0,0,1116002910101402020303004198851000600007000080000
412,EGEO,56.4635,-5.39967,2024-04-30 11:50:00,16.0,36.0,1,,12.0,1005.0,1062.9293482034582,10.0,9.0,120.0,10000.0,99999,,0.0,0,11160012091012020100300504062951000600007160080000
668,EKOD,55.4767,10.3309,2024-04-30 11:50:00,,,,,17.0,1022.0,1139.7683884503504,6.0,15.0,110.0,10000.0,99999,,0.0,0,1116001115101702060302204139751000600007000080000
860,EGGP,53.3336,-2.84972,2024-04-30 11:50:00,,,,,15.0,1007.0,1197.4890922370682,8.0,18.0,150.0,10000.0,99999,,0.0,0,1116001518101502080300704197451000600007000080000
1001,LIPK,44.1948,12.0701,2024-04-30 11:50:00,,,,,24.0,1017.0,1161.5263506220538,11.0,7.0,80.0,10000.0,99999,,0.0,0,11160008071024020110301704161551000600007000080000
1039,ETNG,50.9608,6.04242,2024-04-30 11:50:00,,,,,21.0,1015.0,1550.4856454651472,12.0,8.0,90.0,10000.0,99999,,0.0,0,11160009081021020120301504550451000600007000080000
1058,LGKF,38.1201,20.5005,2024-04-30 11:50:00,,,,,23.0,1017.0,1107.7993898081204,10.0,0.0,0.0,10000.0,99999,,0.0,0,11160000001023020100301704107751000600007000080000
1093,EKVD,55.4363,9.33092,2024-04-30 11:50:00,,,,,18.0,1021.0,1313.6145053080645,7.0,16.0,100.0,10000.0,99999,,0.0,0,1116001016101802070302104313651000600007000080000
1140,LGLR,39.65628,22.34,2024-04-30 11:50:00,,,,,24.0,1019.0,1392.9810495952067,11.0,6.0,110.0,10000.0,99999,,0.0,0,11160011061024020110301904392951000600007000080000
1145,LGTG,38.3398,23.565,2024-04-30 11:50:00,,,,,19.0,1019.0,2050.9005908063154,10.0,7.0,340.0,10000.0,99999,,0.0,0,11160034071019020100301904050951000600007000080000
1149,LGPZ,38.9255,20.7653,2024-04-30 11:50:00,,,,,25.0,1017.0,1032.339952330133,16.0,10.0,270.0,10000.0,99999,,0.0,0,11160027101025020160301704032351000600007000080000
1232,EGPU,56.4992,-6.86917,2024-04-30 11:50:00,61.0,36.0,^,green,10.0,1003.0,1136.7930537695922,9.0,18.0,130.0,7000.0,99999,,0.0,0,1114001318101002090300304136751000600007610080000
1301,LTBO,38.6815,29.4717,2024-04-30 11:50:00,,,,,25.0,1015.0,6644.584495771616,9.0,7.0,280.0,10000.0,99999,,0.0,0,1116002807102502090301504644551000600007000080000
1303,LTCL,37.9789,41.8404,2024-04-30 11:50:00,,,,,28.0,1014.0,4315.380773970325,11.0,5.0,110.0,4500.0,99999,,0.0,0,11120011051028020110301404315351000600007000080000
1304,LTCM,42.0158,35.0664,2024-04-30 11:50:00,,,,,15.0,1021.0,1067.9694096130622,14.0,7.0,60.0,10000.0,99999,,0.0,0,11160006071015020140302104067951000600007000080000
1305,LTCO,39.65454,43.02598,2024-04-30 11:50:00,,,,,19.0,1020.0,14.25118332701295,5.0,10.0,260.0,10000.0,99999,,0.0,0,111600261010190205030200414251000600007000080000
1306,LTCP,37.7314,38.4689,2024-04-30 11:50:00,,,,,26.0,1014.0,5037.00603194659,12.0,7.0,120.0,9000.0,99999,,0.0,0,11150012071026020120301404037051000600007000080000
1307,LTCR,37.2233,40.6317,2024-04-30 11:50:00,,,,,26.0,1013.0,4052.929100258108,13.0,8.0,170.0,8000.0,99999,,0.0,0,11140017081026020130301304052951000600007000080000
1308,LTFB,37.9507,27.329,2024-04-30 11:50:00,,,,,22.0,1013.0,1028.7864001195198,13.0,13.0,250.0,10000.0,99999,,0.0,0,11160025131022020130301304028751000600007000080000
1309,LTFK,40.2045,25.8833,2024-04-30 11:50:00,,,,,18.0,1020.0,1165.4645616532243,15.0,12.0,20.0,10000.0,99999,,0.0,0,11160002121018020150302004165451000600007000080000
1370,LTAY,37.7856,29.7013,2024-04-30 11:50:00,,,,,28.0,1014.0,5802.756447811064,11.0,6.0,310.0,10000.0,99999,,0.0,0,11160031061028020110301404802751000600007000080000
1371,LTBD,37.815,27.8953,2024-04-30 11:50:00,,,,,28.0,1012.0,1141.271873499211,14.0,12.0,240.0,10000.0,99999,,0.0,0,11160024121028020140301204141251000600007000080000
1373,LTBH,40.1377,26.4268,2024-04-30 11:50:00,,,,,18.0,1019.0,1063.9063051292292,14.0,14.0,10.0,10000.0,99999,,0.0,0,11160001141018020140301904063951000600007000080000
1375,LTBY,39.8099,30.5194,2024-04-30 11:50:00,,,,,25.0,1016.0,6007.9361282715845,11.0,8.0,90.0,10000.0,99999,,0.0,0,11160009081025020110301604007951000600007000080000
1377,LTCB,40.96667,38.08,2024-04-30 11:50:00,,,,,16.0,1019.0,1058.4937496105192,14.0,6.0,350.0,10000.0,99999,,0.0,0,11160035061016020140301904058451000600007000080000
1380,LTCN,37.53883,36.95352,2024-04-30 11:50:00,,,,,27.0,1012.0,3910.061886960329,14.0,12.0,130.0,10000.0,99999,,0.0,0,11160013121027020140301204910051000600007000080000
1381,LTCT,39.97663,43.87665,2024-04-30 11:50:00,,,,,29.0,1014.0,6173.977797510205,4.0,7.0,90.0,10000.0,99999,,0.0,0,1116000907102902040301404173951000600007000080000
1383,LTFD,39.5546,27.0138,2024-04-30 11:50:00,,,,,20.0,1016.0,1104.363549974313,13.0,20.0,80.0,10000.0,99999,,0.0,0,11160008201020020130301604104351000600007000080000
1384,LTFG,36.29922,32.3006,2024-04-30 11:50:00,,,,,24.0,1010.0,1136.8564289313324,20.0,10.0,250.0,10000.0,99999,,0.0,0,11160025101024020200301004136851000600007000080000
1448,LBPL,43.4514,24.5028,2024-04-30 12:00:00,10.0,36.0,+,yellow,14.0,1027.0,1978.6719585265791,11.0,2.0,80.0,5000.0,99999,,0.0,0,11130008021014020110302704978651000600007100080000
1490,ETEK,49.6503,7.30007,2024-04-30 11:55:00,,,,,21.1,29.99,1029.99,10.3,5.0,60.0,10000.0,99999,,0.0,0,1116000605102112010132994029951000600007000080000
1515,EGYE,52.9622,-0.56163,2024-04-30 11:50:00,,,,,18.0,1010.0,1807.0841331856013,7.0,16.0,160.0,10000.0,99999,,0.0,0,1116001616101802070301004807051000600007000080000
1654,LBPG,42.2904,24.714,2024-04-30 12:00:00,,,,,18.0,1023.0,1418.8956255157207,12.0,4.0,190.0,10000.0,99999,,0.0,0,11160019041018020120302304418851000600007000080000
1712,ETIC,49.6987,11.9402,2024-04-30 11:55:00,,,,,25.0,29.98,3495.238327335476,8.0,7.0,120.0,10000.0,99999,,0.0,0,111600120710250208032994495251000600007000080000
1874,LTAV,39.4515,31.3653,2024-04-30 11:50:00,,,,,22.0,1016.0,8116.5243888835685,11.0,8.0,100.0,10000.0,99999,,0.0,0,11160010081022020110301604116551000600007000080000
1876,LTBT,38.8089,27.8339,2024-04-30 11:50:00,,,,,24.0,1013.0,1420.972091328554,13.0,12.0,10.0,10000.0,99999,,0.0,0,11160001121024020130301304420951000600007000080000
1880,LTFA,38.5176,26.9774,2024-04-30 11:50:00,,,,,26.0,1013.0,1030.3707808351046,14.0,12.0,320.0,10000.0,99999,,0.0,0,11160032121026020140301304030351000600007000080000
1882,LTAD,39.9498,32.6886,2024-04-30 11:50:00,,,,,22.0,1017.0,6900.897726477602,13.0,4.0,250.0,10000.0,99999,,0.0,0,11160025041022020130301704900851000600007000080000
1884,LTAH,38.7264,30.6011,2024-04-30 11:50:00,,,,,24.0,1016.0,7774.608578479442,12.0,11.0,100.0,10000.0,99999,,0.0,0,11160010111024020120301604774651000600007000080000
1887,LTBF,39.6193,27.926,2024-04-30 11:50:00,,,,,18.0,1017.0,1754.8978503544033,13.0,12.0,20.0,10000.0,99999,,0.0,0,11160002121018020130301704754851000600007000080000
1888,LTBG,40.318,27.9777,2024-04-30 11:50:00,,,,,16.0,1019.0,1416.108450489378,14.0,14.0,40.0,10000.0,99999,,0.0,0,11160004141016020140301904416151000600007000080000
1889,LTBI,39.7841,30.5821,2024-04-30 11:50:00,,,,,24.0,1016.0,6218.007724512988,11.0,9.0,60.0,10000.0,99999,,0.0,0,11160006091024020110301604218051000600007000080000
1890,LTBL,38.513,27.0101,2024-04-30 11:50:00,,,,,26.0,1013.0,1034.397342176409,13.0,6.0,330.0,10000.0,99999,,0.0,0,11160033061026020130301304034351000600007000080000
1891,LTCA,38.6069,39.2914,2024-04-30 11:50:00,,,,,27.0,1014.0,6250.809663100747,9.0,11.0,160.0,10000.0,99999,,0.0,0,1116001611102702090301404250851000600007000080000
1894,LTCK,38.7478,41.6612,2024-04-30 11:50:00,,,,,26.0,1016.0,8855.493557132626,11.0,3.0,,10000.0,99999,,0.0,0,11160036031026020110301604855451000600007000080000
1903,LTAE,40.0789,32.5656,2024-04-30 11:50:00,,,,,23.0,1017.0,6886.142107297849,12.0,4.0,40.0,10000.0,99999,,0.0,0,11160004041023020120301704886151000600007000080000
2259,LIPB,46.4602,11.3264,2024-04-30 11:50:00,,,,,24.0,1017.0,2385.5049286390645,7.0,3.0,200.0,10000.0,99999,,0.0,0,1116002003102402070301704385551000600007000080000
2272,LIBF,41.4329,15.535,2024-04-30 11:50:00,,,,,26.0,1017.0,1396.1939908042214,7.0,10.0,100.0,10000.0,99999,,0.0,0,1116001010102602070301704396151000600007000080000
2276,LIMA,45.0864,7.60337,2024-04-30 11:50:00,,,,,21.0,1018.0,2970.462264870317,6.0,2.0,,10000.0,99999,,0.0,0,1116003602102102060301804970451000600007000080000
2282,LIRI,40.6204,14.9113,2024-04-30 11:50:00,,,,,23.0,1015.0,1201.065494535837,11.0,7.0,230.0,10000.0,99999,,0.0,0,11160023071023020110301504201051000600007000080000
2429,LIBC,38.9972,17.0802,2024-04-30 11:50:00,,,,,25.0,1018.0,1842.7729558506746,10.0,6.0,70.0,10000.0,99999,,0.0,0,11160007061025020100301804842751000600007000080000
2430,LICG,36.8165,11.9689,2024-04-30 11:50:00,,,,,17.0,1014.0,2571.195353935668,15.0,12.0,120.0,8000.0,99999,,0.0,0,11140012121017020150301404571151000600007000080000
2432,LIMG,44.0506,8.12743,2024-04-30 11:50:00,,,,,25.0,1015.0,1228.9515344500583,9.0,10.0,340.0,10000.0,99999,,0.0,0,1116003410102502090301504228951000600007000080000
2435,LIBG,40.5175,17.4032,2024-04-30 11:50:00,,,,,27.0,1016.0,1307.89452793317,8.0,7.0,220.0,10000.0,99999,,0.0,0,1116002207102702080301604307851000600007000080000
2447,LIPU,45.3958,11.8479,2024-04-30 11:50:00,,,,,26.0,1017.0,1076.5337622788866,9.0,5.0,150.0,10000.0,99999,,0.0,0,1116001505102602090301704076551000600007000080000
2448,LIQN,42.4272,12.8517,2024-04-30 11:50:00,,,,,26.0,1015.0,3173.3558182002253,8.0,4.0,320.0,10000.0,99999,,0.0,0,1116003204102602080301504173351000600007000080000
2455,LIRU,41.9519,12.4989,2024-04-30 11:50:00,,,,,28.0,1014.0,1083.0309167413259,12.0,3.0,240.0,10000.0,99999,,0.0,0,11160024031028020120301404083051000600007000080000
2463,LPOV,40.9159,-8.64592,2024-04-30 12:00:00,,,,,14.0,1015.0,1157.714568183131,13.0,7.0,310.0,10000.0,99999,,0.0,0,11160031071014020130301504157751000600007000080000
2496,UWLW,54.401,48.8027,2024-04-30 12:00:00,,,,,20.0,1025.0,1504.2700266706952,3.0,4.0,310.0,10000.0,99999,,0.0,0,1116003104102002030302504504251000600007000080000
2531,EGUL,52.4093,0.561,2024-04-30 11:55:00,,,,,17.7,29.85,1094.3070490465543,7.7,10.0,140.0,10000.0,99999,,0.0,0,111600141010176207632984094351000600007000080000
2533,EGVA,51.6822,-1.79003,2024-04-30 11:55:00,,,,,16.0,29.75,1733.0633177569323,3.4,16.0,170.0,10000.0,99999,,0.0,0,111600171610160203032974733051000600007000080000
2581,EGXT,52.6126,-0.47645,2024-04-30 11:50:00,,,,,99999.0,99999.0,99999.0,99999.0,16.0,150.0,10000.0,99999,,0.0,0,11160015161099999020999990399904999051000600007000080000
2582,EGXW,53.1662,-0.52381,2024-04-30 11:50:00,,,,,17.0,1010.0,1522.2038724547192,6.0,16.0,160.0,10000.0,99999,,0.0,0,1116001616101702060301004522251000600007000080000
2630,LGHI,38.3432,26.1406,2024-04-30 11:50:00,,,,,21.0,1014.0,1038.8785429685292,12.0,11.0,20.0,10000.0,99999,,0.0,0,11160002111021020120301404038851000600007000080000
2631,LGNX,37.0811,25.3681,2024-04-30 11:50:00,,,,,20.0,1015.0,1032.4050765524494,14.0,14.0,360.0,10000.0,99999,,0.0,0,11160036141020020140301504032451000600007000080000
2633,LGSO,37.4228,24.9509,2024-04-30 11:50:00,,,,,19.0,1016.0,1483.82707629192,14.0,16.0,360.0,10000.0,99999,,0.0,0,11160036161019020140301604483851000600007000080000
2634,LIMP,44.8245,10.2964,2024-04-30 11:50:00,,,,,24.0,1017.0,1261.1742887368014,9.0,9.0,60.0,10000.0,99999,,0.0,0,1116000609102402090301704261151000600007000080000
2639,LKKB,50.1214,14.5436,2024-04-30 12:00:00,,,,,26.0,1018.0,2541.7335602719772,7.0,13.0,130.0,10000.0,99999,,0.0,0,1116001313102602070301804541751000600007000080000
2641,LKLN,49.6752,13.2746,2024-04-30 12:00:00,,,,,25.0,1017.0,3097.7274572593988,9.0,7.0,100.0,10000.0,99999,,0.0,0,1116001007102502090301704097751000600007000080000
2657,LTCD,39.7102,39.527,2024-04-30 11:50:00,,,,,29.0,1014.0,7383.231838867841,4.0,10.0,180.0,10000.0,99999,,0.0,0,1116001810102902040301404383251000600007000080000
2658,LTCF,40.5622,43.115,2024-04-30 11:50:00,,,,,23.0,1019.0,13.066712593827958,-1.0,6.0,140.0,10000.0,99999,,0.0,0,111600140610230211030190413051000600007000080000
2661,LTFH,41.2545,36.5671,2024-04-30 11:50:00,,,,,15.0,1019.0,1061.1493617470016,14.0,6.0,320.0,6000.0,99999,,0.0,0,11130032061015020140301904061151000600007000080000
2668,UMOO,53.9549,30.0951,2024-04-30 12:00:00,,,,,22.0,1033.0,2237.666126427382,3.0,6.0,180.0,10000.0,99999,,0.0,0,1116001806102202030303304237651000600007000080000
2676,EIWF,52.1872,-7.08696,2024-04-30 12:00:00,,,,,12.0,1000.0,1362.1628751649114,9.0,15.0,200.0,10000.0,99999,,0.0,0,1116002015101202090300004362151000600007000080000
2704,LPAR,38.8833,-9.0301,2024-04-30 12:00:00,,,,,18.0,1018.0,1039.3529678972673,13.0,9.0,280.0,10000.0,99999,,0.0,0,11160028091018020130301804039351000600007000080000
2705,LPST,38.8311,-9.33955,2024-04-30 12:00:00,,,,,18.0,1018.0,2000.2872556452835,14.0,13.0,280.0,10000.0,99999,,0.0,0,11160028131018020140301804000251000600007000080000
2709,LIBA,41.5414,15.7181,2024-04-30 11:55:00,,,,,25.0,1017.0,1284.4912201673847,8.0,12.0,90.0,10000.0,99999,,0.0,0,1116000912102502080301704284451000600007000080000
2710,LIBN,40.2392,18.1333,2024-04-30 11:55:00,,,,,27.0,1017.0,1226.0270306103305,17.0,9.0,30.0,10000.0,99999,,0.0,0,11160003091027020170301704226051000600007000080000
2711,LIBV,40.7678,16.9333,2024-04-30 11:55:00,,,,,26.0,1016.0,3001.762842877042,14.0,7.0,120.0,10000.0,99999,,0.0,0,11160012071026020140301604001751000600007000080000
2713,LIED,39.3542,8.97248,2024-04-30 11:55:00,,,,,20.0,1011.0,1189.894552618129,14.0,18.0,130.0,7000.0,99999,,0.0,0,11140013181020020140301104189851000600007000080000
2714,LIMN,45.5296,8.66922,2024-04-30 11:55:00,,,,,23.0,1018.0,2046.7216296359209,7.0,6.0,120.0,10000.0,99999,,0.0,0,1116001206102302070301804046751000600007000080000
2715,LIMS,44.9131,9.72333,2024-04-30 11:55:00,,,,,23.0,1017.0,1795.2378571384259,12.0,8.0,90.0,10000.0,99999,,0.0,0,11160009081023020120301704795251000600007000080000
2716,LIPA,46.0319,12.5965,2024-04-30 11:55:00,,,,,26.0,1018.0,1624.4777580786326,11.0,6.0,60.0,10000.0,99999,,0.0,0,11160006061026020110301804624451000600007000080000
2717,LIPF,44.816,11.6134,2024-04-30 11:55:00,,,,,27.0,1018.0,1043.9067061240717,11.0,0.0,0.0,10000.0,99999,,0.0,0,11160000001027020110301804043951000600007000080000
2718,LIPI,45.9787,13.0493,2024-04-30 11:55:00,,,,,28.0,1017.0,1249.2143849013942,12.0,3.0,120.0,10000.0,99999,,0.0,0,11160012031028020120301704249251000600007000080000
2719,LIPL,45.4322,10.2677,2024-04-30 11:55:00,,,,,23.0,1017.0,1569.311335614336,13.0,8.0,130.0,10000.0,99999,,0.0,0,11160013081023020130301704569351000600007000080000
2720,LIPS,45.6849,12.0829,2024-04-30 11:55:00,,,,,26.0,1017.0,1206.9873937258526,13.0,8.0,120.0,10000.0,99999,,0.0,0,11160012081026020130301704206951000600007000080000
2721,LIQW,44.088,9.98795,2024-04-30 11:55:00,,,,,24.0,1014.0,1079.8514921383694,10.0,3.0,180.0,10000.0,99999,,0.0,0,11160018031024020100301404079851000600007000080000
2722,LIRE,41.6545,12.4452,2024-04-30 11:55:00,,,,,23.0,1015.0,1077.6273154542507,16.0,14.0,160.0,10000.0,99999,,0.0,0,11160016141023020160301504077651000600007000080000
2723,LIRG,41.9903,12.7408,2024-04-30 11:55:00,,,,,28.0,1015.0,1398.5432852341355,10.0,4.0,180.0,10000.0,99999,,0.0,0,11160018041028020100301504398551000600007000080000
2724,LIRH,41.6464,13.2998,2024-04-30 11:55:00,,,,,27.0,1015.0,1015.0,6.0,8.0,140.0,10000.0,99999,,0.0,0,1116001408102702060301504015051000600007000080000
2725,LIRL,41.5424,12.909,2024-04-30 11:55:00,,,,,26.0,1015.0,1143.6530370273742,12.0,11.0,160.0,10000.0,99999,,0.0,0,11160016111026020120301504143651000600007000080000
2726,LIRS,42.7597,11.0719,2024-04-30 11:55:00,,,,,26.0,1014.0,1036.7634664003183,12.0,5.0,160.0,10000.0,99999,,0.0,0,11160016051026020120301404036751000600007000080000
2727,LIRV,42.4302,12.0642,2024-04-30 11:55:00,,,,,25.0,1016.0,2708.4161048302585,10.0,5.0,360.0,10000.0,99999,,0.0,0,11160036051025020100301604708451000600007000080000
2730,LIRM,41.0608,14.0819,2024-04-30 11:55:00,,,,,26.0,1015.0,1053.9997966361493,15.0,8.0,190.0,10000.0,99999,,0.0,0,11160019081026020150301504053951000600007000080000
2739,LTAB,39.935,32.7408,2024-04-30 11:50:00,,,,,23.0,1017.0,6706.630670546463,14.0,6.0,260.0,10000.0,99999,,0.0,0,11160026061023020140301704706651000600007000080000
2740,LTAR,39.8138,36.9035,2024-04-30 11:50:00,,,,,22.0,1017.0,12.328076563648809,8.0,14.0,360.0,10000.0,99999,,0.0,0,111600361410220208030170412351000600007000080000
2741,LTBQ,40.735,30.0833,2024-04-30 11:50:00,,,,,18.0,1019.0,1395.7267473342654,13.0,4.0,100.0,10000.0,99999,,0.0,0,11160010041018020130301904395751000600007000080000
2766,EGWC,52.64,-2.30558,2024-04-30 11:50:00,,,,,99999.0,99999.0,99999.0,99999.0,19.0,150.0,10000.0,99999,,0.0,0,11160015191099999020999990399904999051000600007000080000
2772,LGSY,38.9676,24.4872,2024-04-30 12:02:00,,,,,17.0,1019.0,1110.8090924589806,14.0,13.0,350.0,10000.0,99999,,0.0,0,11160035131017020140301904110851000600007000080000
2775,ETIH,49.2181,11.8361,2024-04-30 11:55:00,,,,,25.1,29.99,3673.9116387639247,4.2,8.0,110.0,10000.0,99999,,0.0,0,111600110810251204132994673951000600007000080000
2776,ETIK,49.4739,10.3881,2024-04-30 11:55:00,,,,,25.5,29.95,2875.8826741129487,10.1,0.0,0.0,10000.0,99999,,0.0,0,1116000000102552010532994875851000600007000080000
2780,ETAD,49.9727,6.6925,2024-04-30 11:55:00,,,,,21.8,29.95,3515.1818737018552,10.6,5.0,110.0,10000.0,99999,,0.0,0,1116001105102182010832994515151000600007000080000
2781,ETAR,49.4369,7.60028,2024-04-30 11:55:00,,,,,24.4,29.92,2364.887263157351,11.3,3.0,40.0,10000.0,99999,,0.0,0,1116000403102432011332994364851000600007000080000
2782,ETOU,50.0498,8.3254,2024-04-30 11:55:00,,,,,23.7,29.95,1801.7306971635712,11.0,0.0,0.0,10000.0,99999,,0.0,0,1116000000102362011632994801751000600007000080000
2787,UMII,55.1265,30.3496,2024-04-30 12:00:00,,,,,22.0,1031.0,2329.353256889451,4.0,5.0,250.0,10000.0,99999,,0.0,0,1116002505102202040303104329351000600007000080000
2798,LOAV,47.965,16.26,2024-04-30 12:00:00,,,,,25.0,99999.0,99999.0,10.0,20.0,160.0,10000.0,99999,,0.0,0,11160016201025020100399904999051000600007000080000
2800,LKKU,49.0294,17.4397,2024-04-30 12:00:00,,,,,25.0,1023.0,1956.1669295448964,8.0,12.0,160.0,10000.0,99999,,0.0,0,1116001612102502080302304956151000600007000080000
2801,LOAN,47.8433,16.2601,2024-04-30 12:00:00,,,,,99999.0,99999.0,99999.0,99999.0,15.0,150.0,10000.0,99999,,0.0,0,11160015151099999020999990399904999051000600007000080000
2815,LPMR,39.8312,-8.88726,2024-04-30 12:00:00,61.0,36.0,^,green,16.0,1016.0,1454.305932358898,15.0,9.0,260.0,7000.0,99999,,0.0,0,11140026091016020150301604454351000600007610080000
2816,LPMT,38.7039,-9.03592,2024-04-30 12:00:00,,,,,19.0,1018.0,1103.6941166519723,14.0,11.0,250.0,10000.0,99999,,0.0,0,11160025111019020140301804103651000600007000080000
2831,LIPC,44.2242,12.3072,2024-04-30 11:55:00,,,,,23.0,1018.0,1045.3792895198164,8.0,7.0,70.0,10000.0,99999,,0.0,0,1116000707102302080301804045351000600007000080000
2833,LICZ,37.4017,14.9224,2024-04-30 11:55:00,,,,,23.0,1018.0,1140.4354345037564,8.0,14.0,80.0,10000.0,99999,,0.0,0,1116000814102302080301804140451000600007000080000
2851,LATI,41.4147,19.7206,2024-04-30 12:20:00,,,,,27.0,1016.0,1183.4189222415541,9.0,5.0,320.0,10000.0,99999,,0.0,0,1116003205102702090301604183451000600007000080000
2852,LMML,35.8575,14.4775,2024-04-30 12:15:00,,,,,18.0,1015.0,1657.228419413267,15.0,21.0,120.0,10000.0,99999,,0.0,0,11160012211018020150301504657251000600007000080000
2853,LWOH,41.18,20.7423,2024-04-30 12:20:00,,,,,19.0,1020.0,6980.381706295468,7.0,6.0,140.0,10000.0,99999,,0.0,0,1116001406101902070302004980351000600007000080000
2854,LWSK,41.9616,21.6214,2024-04-30 12:20:00,,,,,25.0,1020.0,2315.719736707479,11.0,3.0,,10000.0,99999,,0.0,0,11160036031025020110302004315751000600007000080000
2857,EVGA,56.7783,24.8539,2024-04-30 12:20:00,,,,,18.0,1028.0,1448.1692709949587,13.0,5.0,30.0,10000.0,99999,,0.0,0,11160003051018020130302804448151000600007000080000
2859,LTAL,41.3142,33.7958,2024-04-30 12:19:00,95.0,36.0,2,red,20.0,1018.0,9.638650731250387,13.0,11.0,40.0,10000.0,99999,,0.0,0,111600041110200201303018049651000600007950080000
2863,LTDA,36.36278,36.28222,2024-04-30 12:19:00,,,,,29.0,1009.0,1349.4651437005032,14.0,8.0,350.0,10000.0,99999,,0.0,0,11160035081029020140300904349451000600007000080000
2892,EYSA,55.8939,23.395,2024-04-30 12:20:00,,,,,23.0,1028.0,1790.0264374672977,8.0,11.0,170.0,10000.0,99999,,0.0,0,1116001711102302080302804790051000600007000080000
2897,EVVA,57.3578,21.5442,2024-04-30 12:20:00,,,,,18.0,1028.0,1065.3644851540955,10.0,10.0,70.0,10000.0,99999,,0.0,0,11160007101018020100302804065351000600007000080000
2909,LSZC,46.97444,8.39694,2024-04-30 12:20:00,,,,,22.0,1013.0,4081.2268040736967,7.0,12.0,50.0,10000.0,99999,,0.0,0,1116000512102202070301304081251000600007000080000
2916,EKRS,55.4258,11.8067,2024-04-30 12:20:00,,,,,18.0,1022.0,1250.9832017705614,6.0,19.0,100.0,10000.0,99999,,0.0,0,1116001019101802060302204250951000600007000080000
2940,LSMA,46.9439,8.28417,2024-04-30 12:20:00,,,,,22.0,1013.0,4045.857747911334,9.0,6.0,50.0,10000.0,99999,,0.0,0,1116000506102202090301304045851000600007000080000
2941,LSMD,47.3986,8.64823,2024-04-30 12:20:00,,,,,25.0,1014.0,3659.495859785955,8.0,4.0,230.0,10000.0,99999,,0.0,0,1116002304102502080301404659451000600007000080000
2942,LSME,47.0924,8.30512,2024-04-30 12:20:00,,,,,24.0,1013.0,3631.9929514432615,4.0,4.0,,10000.0,99999,,0.0,0,1116003604102402040301304631951000600007000080000
2943,LSMM,46.7433,8.11,2024-04-30 12:20:00,,,,,21.0,1013.0,5294.870584891937,3.0,21.0,100.0,10000.0,99999,,0.0,0,1116001021102102030301304294851000600007000080000
2944,LSMP,46.8432,6.91506,2024-04-30 12:20:00,,,,,20.0,1014.0,4408.66117336058,11.0,1.0,,10000.0,99999,,0.0,0,11160036011020020110301404408651000600007000080000
2986,EGHC,50.1028,-5.67056,2024-04-30 12:20:00,,,,,11.0,1004.0,2522.802586351675,6.0,16.0,210.0,10000.0,99999,,0.0,0,1116002116101102060300404522851000600007000080000
2988,EGHQ,50.4406,-4.99541,2024-04-30 12:20:00,,,,,9.0,1005.0,2855.7796221797066,8.0,13.0,160.0,10000.0,99999,,0.0,0,1116001613100902080300504855751000600007000080000
3016,EVLA,56.5175,21.0969,2024-04-30 12:20:00,,,,,21.0,1026.0,1052.8604164719884,11.0,8.0,100.0,10000.0,99999,,0.0,0,11160010081021020110302604052851000600007000080000
3018,EYKA,54.9639,24.0848,2024-04-30 12:20:00,,,,,23.0,1028.0,1448.9486118989084,6.0,8.0,150.0,10000.0,99999,,0.0,0,1116001508102302060302804448951000600007000080000
3019,EYPA,55.9732,21.0939,2024-04-30 12:20:00,,,,,20.0,1026.0,1084.5414701612215,7.0,4.0,310.0,10000.0,99999,,0.0,0,1116003104102002070302604084551000600007000080000
3026,EFLP,61.0446,28.1444,2024-04-30 12:20:00,,,,,16.0,1025.0,1896.5339112752333,2.0,13.0,280.0,10000.0,99999,,0.0,0,1116002813101602020302504896551000600007000080000
3028,EFMI,61.6866,27.2018,2024-04-30 12:20:00,,,,,15.0,1025.0,1901.879532083419,3.0,14.0,280.0,10000.0,99999,,0.0,0,1116002814101502030302504901851000600007000080000
3031,EFSA,61.9431,28.9451,2024-04-30 12:20:00,,,,,13.0,1024.0,1988.6467066196387,3.0,11.0,300.0,10000.0,99999,,0.0,0,1116003011101302030302404988651000600007000080000
3034,EFUT,60.8964,26.9384,2024-04-30 12:20:00,,,,,16.0,1026.0,1870.7850814551816,2.0,10.0,300.0,10000.0,99999,,0.0,0,1116003010101602020302604870751000600007000080000
3051,EGNO,53.7451,-2.88306,2024-04-30 12:20:00,,,,,15.0,1006.0,1135.366474696492,7.0,14.0,140.0,10000.0,99999,,0.0,0,1116001414101502070300604135351000600007000080000
3055,EGCK,53.1042,-4.34028,2024-04-30 12:20:00,61.0,36.0,^,green,13.0,1004.0,1006.6405203678901,10.0,10.0,150.0,10000.0,99999,,0.0,0,11160015101013020100300404006651000600007610080000
3058,EGTK,51.8369,-1.32,2024-04-30 12:20:00,,,,,17.0,1009.0,1614.8031897364035,4.0,16.0,160.0,10000.0,99999,,0.0,0,1116001616101702040300904614851000600007000080000
3106,ESOH,60.0201,13.5789,2024-04-30 12:20:00,,,,,16.0,1028.0,2258.0915028361264,4.0,7.0,180.0,10000.0,99999,,0.0,0,1116001807101602040302804258051000600007000080000
3125,ESNZ,63.1944,14.5003,2024-04-30 12:20:00,,,,,13.0,1026.0,5607.610984619427,1.0,7.0,180.0,10000.0,99999,,0.0,0,1116001807101302010302604607651000600007000080000
3127,ESCF,58.4023,15.5257,2024-04-30 12:20:00,,,,,17.0,1028.0,1740.557350106165,4.0,9.0,90.0,10000.0,99999,,0.0,0,1116000909101702040302804740551000600007000080000
3129,ESIB,58.4264,12.7144,2024-04-30 12:20:00,,,,,18.0,1027.0,1404.4703980831596,-0.0,9.0,90.0,10000.0,99999,,0.0,0,1116000909101802100302704404451000600007000080000
3132,ESIA,58.5138,14.5071,2024-04-30 12:20:00,,,,,16.0,1028.0,1789.5539038038069,3.0,11.0,70.0,10000.0,99999,,0.0,0,1116000711101602030302804789551000600007000080000
3183,LIMW,45.7385,7.36872,2024-04-30 12:20:00,,,,,18.0,1018.0,5808.755998666892,7.0,6.0,300.0,10000.0,99999,,0.0,0,1116003006101802070301804808751000600007000080000
3184,LIMZ,44.547,7.62322,2024-04-30 12:20:00,,,,,20.0,1018.0,3909.1181449257383,9.0,5.0,10.0,10000.0,99999,,0.0,0,1116000105102002090301804909151000600007000080000
3197,LICB,36.9946,14.60718,2024-04-30 12:20:00,,,,,22.0,1017.0,2173.7720651579666,6.0,11.0,120.0,10000.0,99999,,0.0,0,1116001211102202060301704173751000600007000080000
3199,LIPO,45.4289,10.3306,2024-04-30 12:20:00,,,,,25.0,1017.0,1557.8485673855555,11.0,8.0,110.0,10000.0,99999,,0.0,0,11160011081025020110301704557851000600007000080000
3208,ESNV,64.5791,16.8336,2024-04-30 12:20:00,,,,,11.0,1026.0,6073.216651214533,1.0,4.0,260.0,10000.0,99999,,0.0,0,1116002604101102010302604073251000600007000080000
3209,ESST,60.1576,12.9913,2024-04-30 12:20:00,,,,,17.0,1028.0,1960.2469555567839,5.0,8.0,140.0,10000.0,99999,,0.0,0,1116001408101702050302804960251000600007000080000
3210,ESUP,67.2456,23.0689,2024-04-30 12:20:00,,,,,5.0,1024.0,6312.0656879201115,-3.0,4.0,320.0,10000.0,99999,,0.0,0,1116003204100502130302404312051000600007000080000
3211,ESND,62.0478,14.4229,2024-04-30 12:20:00,,,,,14.0,1027.0,5043.692483500695,-0.0,12.0,260.0,10000.0,99999,,0.0,0,1116002612101402100302704043651000600007000080000
3212,ESMV,57.2922,14.1372,2024-04-30 12:20:00,,,,,18.0,1026.0,2312.837300684784,3.0,9.0,100.0,10000.0,99999,,0.0,0,1116001009101802030302604312851000600007000080000
3213,ESPE,65.8753,20.1499,2024-04-30 12:20:00,,,,,7.0,1026.0,5099.536655192458,2.0,8.0,330.0,10000.0,99999,,0.0,0,1116003308100702020302604099551000600007000080000
3214,ESCM,59.8973,17.5886,2024-04-30 12:20:00,,,,,17.0,1029.0,1173.683044985657,2.0,4.0,,10000.0,99999,,0.0,0,1116003604101702020302904173651000600007000080000
3252,EFET,68.3626,23.4243,2024-04-30 12:20:00,,,,,3.0,1024.0,15.919624255871511,-4.0,4.0,30.0,10000.0,99999,,0.0,0,111600030410030214030240415951000600007000080000
3253,EFHA,61.856,24.7866,2024-04-30 12:20:00,,,,,16.0,1026.0,2268.2806175690976,3.0,13.0,290.0,10000.0,99999,,0.0,0,1116002913101602030302604268251000600007000080000
3254,EFJO,62.6629,29.6075,2024-04-30 12:20:00,,,,,9.0,1024.0,2953.9503346568263,3.0,13.0,290.0,10000.0,99999,,0.0,0,1116002913100902030302404953951000600007000080000
3257,EFKS,65.9876,29.2394,2024-04-30 12:20:00,,,,,1.0,1022.0,25.877963935938414,-0.0,4.0,60.0,10000.0,99999,,0.0,0,111600060410010210030220425851000600007000080000
3258,EFKT,67.701,24.8468,2024-04-30 12:20:00,,,,,3.0,1024.0,11.436367710490387,-3.0,8.0,330.0,10000.0,99999,,0.0,0,111600330810030213030240411451000600007000080000
3261,EFSI,62.6921,22.8323,2024-04-30 12:20:00,,,,,11.0,1027.0,2155.2633919512355,2.0,12.0,300.0,10000.0,99999,,0.0,0,1116003012101102020302704155251000600007000080000
3367,EEKA,58.9908,22.8307,2024-04-30 12:20:00,,,,,10.0,1030.0,1094.1807935620468,5.0,7.0,340.0,10000.0,99999,,0.0,0,1116003407101002050303004094151000600007000080000
3368,EEKE,58.2299,22.5095,2024-04-30 12:20:00,,,,,13.0,1030.0,1068.2008880143705,3.0,7.0,160.0,10000.0,99999,,0.0,0,1116001607101302030303004068251000600007000080000
3369,EETU,58.3075,26.6904,2024-04-30 12:20:00,,,,,17.0,1029.0,1521.7283227150585,6.0,7.0,250.0,10000.0,99999,,0.0,0,1116002507101702060302904521751000600007000080000
3370,EEPU,58.419,24.4728,2024-04-30 12:20:00,,,,,15.0,1030.0,1142.7715603579932,5.0,9.0,200.0,10000.0,99999,,0.0,0,1116002009101502050303004142751000600007000080000
3438,EDBC,51.8564,11.4203,2024-04-30 12:20:00,,,,,22.0,1017.0,2113.576117167433,14.0,8.0,110.0,10000.0,99999,,0.0,0,11160011081022020140301704113551000600007000080000
3480,EDJA,47.9888,10.2395,2024-04-30 12:20:00,,,,,25.0,1015.0,4928.8712416456065,5.0,5.0,180.0,10000.0,99999,,0.0,0,1116001805102502050301504928851000600007000080000
3487,EDTY,49.11833,9.78389,2024-04-30 12:20:00,,,,,24.0,1014.0,3420.9510370569274,11.0,8.0,70.0,10000.0,99999,,0.0,0,11160007081024020110301404420951000600007000080000
3491,EDXW,54.9132,8.34047,2024-04-30 12:20:00,,,,,19.0,1018.0,1113.1838943036773,11.0,18.0,100.0,10000.0,99999,,0.0,0,11160010181019020110301804113151000600007000080000
3493,EKBI,55.7403,9.15178,2024-04-30 12:20:00,,,,,18.0,1021.0,1544.2874969906363,8.0,14.0,100.0,10000.0,99999,,0.0,0,1116001014101802080302104544251000600007000080000
3494,EKCH,55.6179,12.656,2024-04-30 12:20:00,,,,,18.0,1023.0,1056.2421631755144,7.0,12.0,70.0,10000.0,99999,,0.0,0,1116000712101802070302304056251000600007000080000
3495,EKEB,55.5259,8.5534,2024-04-30 12:20:00,,,,,18.0,1019.0,1213.8389336271405,9.0,17.0,90.0,10000.0,99999,,0.0,0,1116000917101802090301904213851000600007000080000
3497,EKRK,55.5856,12.1314,2024-04-30 12:20:00,,,,,17.0,1023.0,1341.235045429101,7.0,14.0,110.0,10000.0,99999,,0.0,0,1116001114101702070302304341251000600007000080000
3498,EKRN,55.0633,14.7596,2024-04-30 12:20:00,,,,,16.0,1022.0,1138.1557219769966,8.0,23.0,70.0,10000.0,99999,,0.0,0,1116000723101602080302204138151000600007000080000
3499,EKSB,54.9644,9.79173,2024-04-30 12:20:00,,,,,16.0,1020.0,1072.8517588721888,8.0,15.0,90.0,10000.0,99999,,0.0,0,1116000915101602080302004072851000600007000080000
3501,EKVJ,55.9901,8.35391,2024-04-30 12:20:00,,,,,17.0,1020.0,1055.1084187309557,8.0,9.0,80.0,10000.0,99999,,0.0,0,1116000809101702080302004055151000600007000080000
3509,EETN,59.4133,24.8328,2024-04-30 12:20:00,,,,,15.0,1030.0,1356.1218486401563,-0.0,13.0,290.0,10000.0,99999,,0.0,0,1116002913101502100303004356151000600007000080000
3510,EFHK,60.3172,24.9633,2024-04-30 12:20:00,,,,,18.0,1027.0,1400.0464347361258,1.0,13.0,280.0,10000.0,99999,,0.0,0,1116002813101802010302704400051000600007000080000
3511,EFIV,68.6073,27.4053,2024-04-30 12:20:00,,,,,4.0,1024.0,6930.72101144778,-4.0,7.0,360.0,10000.0,99999,,0.0,0,1116003607100402140302404930751000600007000080000
3512,EFJY,62.3995,25.6783,2024-04-30 12:20:00,,,,,12.0,1026.0,2665.196658343684,3.0,13.0,280.0,10000.0,99999,,0.0,0,1116002813101202030302604665151000600007000080000
3513,EFKE,65.7787,24.5821,2024-04-30 12:20:00,,,,,4.0,1025.0,1613.8551408745511,1.0,9.0,350.0,10000.0,99999,,0.0,0,1116003509100402010302504613851000600007000080000
3514,EFKK,63.7212,23.1431,2024-04-30 12:20:00,,,,,8.0,1028.0,1423.6039249942235,2.0,10.0,230.0,10000.0,99999,,0.0,0,1116002310100802020302804423651000600007000080000
3516,EFMA,60.1222,19.8982,2024-04-30 12:20:00,,,,,16.0,1030.0,1067.6853588234412,2.0,5.0,300.0,10000.0,99999,,0.0,0,1116003005101602020303004067651000600007000080000
3517,EFOU,64.9301,25.3546,2024-04-30 12:20:00,,,,,4.0,1025.0,1469.717457420905,1.0,12.0,310.0,10000.0,99999,,0.0,0,1116003112100402010302504469751000600007000080000
3518,EFPO,61.4617,21.8,2024-04-30 12:20:00,,,,,11.0,1029.0,1173.683044985657,4.0,6.0,290.0,10000.0,99999,,0.0,0,1116002906101102040302904173651000600007000080000
3519,EFRO,66.5648,25.8304,2024-04-30 12:20:00,,,,,2.0,1023.0,15.44911467090385,0.0,7.0,10.0,10000.0,99999,,0.0,0,111600010710020200030230415451000600007000080000
3520,EFTP,61.4141,23.6044,2024-04-30 12:20:00,,,,,14.0,1027.0,2173.8289576497123,3.0,11.0,290.0,10000.0,99999,,0.0,0,1116002911101402030302704173851000600007000080000
3521,EFTU,60.5141,22.2628,2024-04-30 12:20:00,,,,,15.0,1029.0,1434.3587021195144,3.0,11.0,270.0,10000.0,99999,,0.0,0,1116002711101502030302904434351000600007000080000
3522,EFVA,63.0507,21.7622,2024-04-30 12:20:00,,,,,10.0,1029.0,1096.7286332578956,2.0,7.0,320.0,10000.0,99999,,0.0,0,1116003207101002020302904096751000600007000080000
3524,ENBR,60.2934,5.21814,2024-04-30 12:20:00,,,,,18.0,1021.0,1372.1409412747525,6.0,17.0,150.0,10000.0,99999,,0.0,0,1116001517101802060302104372151000600007000080000
3525,ENCN,58.2042,8.08537,2024-04-30 12:20:00,,,,,14.0,1025.0,1171.7656094172546,7.0,11.0,80.0,10000.0,99999,,0.0,0,1116000811101402070302504171751000600007000080000
3527,ENHD,59.3453,5.20836,2024-04-30 12:20:00,,,,,16.0,1021.0,1215.70022463846,6.0,18.0,130.0,10000.0,99999,,0.0,0,1116001318101602060302104215751000600007000080000
3530,ENVA,63.4578,10.924,2024-04-30 12:20:00,,,,,17.0,1024.0,1141.9988549639518,0.0,9.0,170.0,10000.0,99999,,0.0,0,1116001709101702000302404141951000600007000080000
3531,ENZV,58.8767,5.63778,2024-04-30 12:20:00,,,,,18.0,1021.0,1077.8673906804459,7.0,17.0,140.0,10000.0,99999,,0.0,0,1116001417101802070302104077851000600007000080000
3532,EVRA,56.9236,23.9711,2024-04-30 12:20:00,,,,,18.0,1028.0,1099.2744486276817,12.0,5.0,40.0,10000.0,99999,,0.0,0,11160004051018020120302804099251000600007000080000
3533,EYVI,54.6341,25.2858,2024-04-30 12:20:00,,,,,22.0,1029.0,2248.0768380688783,4.0,12.0,170.0,10000.0,99999,,0.0,0,1116001712102202040302904248051000600007000080000
3535,LGAV,37.9364,23.9445,2024-04-30 12:20:00,,,,,20.0,1017.0,1607.4952731245166,12.0,18.0,20.0,10000.0,99999,,0.0,0,11160002181020020120301704607451000600007000080000
3537,LGIR,35.3397,25.1803,2024-04-30 12:20:00,,,,,20.0,1017.0,1224.9839615979724,13.0,12.0,320.0,10000.0,99999,,0.0,0,11160032121020020130301704224951000600007000080000
3543,LGRP,36.4054,28.0862,2024-04-30 12:20:00,,,,,22.0,1012.0,1038.8723374445688,16.0,18.0,240.0,10000.0,99999,,0.0,0,11160024181022020160301204038851000600007000080000
3576,ENAL,62.5625,6.1197,2024-04-30 12:20:00,,,,,17.0,1022.0,1167.8704781089923,1.0,7.0,130.0,10000.0,99999,,0.0,0,1116001307101702010302204167851000600007000080000
3582,ENDU,69.0558,18.5404,2024-04-30 12:20:00,,,,,11.0,1025.0,1945.2222916125465,-1.0,5.0,270.0,10000.0,99999,,0.0,0,1116002705101102110302504945251000600007000080000
3599,ENRO,62.5784,11.3423,2024-04-30 12:20:00,,,,,11.0,1025.0,10.2037405002423,-0.0,8.0,150.0,10000.0,99999,,0.0,0,111600150810110210030250410251000600007000080000
3601,ENRY,59.3789,10.7856,2024-04-30 12:20:00,,,,,17.0,1027.0,1411.6380173982286,6.0,6.0,270.0,10000.0,99999,,0.0,0,1116002706101702060302704411651000600007000080000
3609,ENTO,59.1867,10.2586,2024-04-30 12:20:00,,,,,16.0,1027.0,1728.4350835992907,6.0,4.0,150.0,10000.0,99999,,0.0,0,1116001504101602060302704728451000600007000080000
3611,ESDF,56.2667,15.265,2024-04-30 12:20:00,,,,,19.0,1025.0,1401.6190436647018,5.0,15.0,80.0,10000.0,99999,,0.0,0,1116000815101902050302504401651000600007000080000
3612,ESGG,57.6628,12.2798,2024-04-30 12:20:00,,,,,17.0,1025.0,2258.0112527325255,1.0,9.0,80.0,10000.0,99999,,0.0,0,1116000809101702010302504258051000600007000080000
3614,ESGP,57.7747,11.8704,2024-04-30 12:20:00,,,,,19.0,1025.0,1136.1971300701105,0.0,8.0,100.0,10000.0,99999,,0.0,0,1116001008101902000302504136151000600007000080000
3615,ESKN,58.7886,16.9122,2024-04-30 12:20:00,,,,,16.0,1030.0,1356.7782356656091,0.0,9.0,120.0,10000.0,99999,,0.0,0,1116001209101602000303004356751000600007000080000
3616,ESMK,55.9217,14.0855,2024-04-30 12:20:00,,,,,18.0,1025.0,1177.3574962045695,3.0,14.0,100.0,10000.0,99999,,0.0,0,1116001014101802030302504177351000600007000080000
3617,ESMS,55.53631,13.3762,2024-04-30 12:20:00,,,,,17.0,1023.0,1553.914113101803,4.0,21.0,80.0,10000.0,99999,,0.0,0,1116000821101702040302304553951000600007000080000
3618,ESMX,56.9291,14.728,2024-04-30 12:20:00,,,,,19.0,1026.0,2370.150970828272,5.0,5.0,90.0,10000.0,99999,,0.0,0,1116000905101902050302604370151000600007000080000
3619,ESNN,62.5281,17.4439,2024-04-30 12:20:00,,,,,12.0,1028.0,1075.2914329894495,2.0,14.0,150.0,10000.0,99999,,0.0,0,1116001514101202020302804075251000600007000080000
3620,ESNO,63.4083,18.99,2024-04-30 12:20:00,,,,,13.0,1027.0,2144.9642873020193,1.0,5.0,290.0,10000.0,99999,,0.0,0,1116002905101302010302704144951000600007000080000
3621,ESNQ,67.822,20.3368,2024-04-30 12:20:00,,,,,5.0,1023.0,14.791976894942929,-2.0,5.0,240.0,10000.0,99999,,0.0,0,111600240510050212030230414751000600007000080000
3623,ESNU,63.7918,20.2828,2024-04-30 12:20:00,,,,,14.0,1027.0,1087.9094345499864,4.0,6.0,300.0,10000.0,99999,,0.0,0,1116003006101402040302704087951000600007000080000
3624,ESOK,59.4447,13.3374,2024-04-30 12:20:00,,,,,17.0,1028.0,1853.2126270516928,2.0,5.0,,10000.0,99999,,0.0,0,1116003605101702020302804853251000600007000080000
3625,ESOW,59.5894,16.6336,2024-04-30 12:20:00,,,,,17.0,1030.0,1073.868535407379,2.0,5.0,220.0,10000.0,99999,,0.0,0,1116002205101702020303004073851000600007000080000
3626,ESPA,65.5438,22.122,2024-04-30 12:20:00,,,,,6.0,1026.0,1434.1879360547507,1.0,12.0,320.0,10000.0,99999,,0.0,0,1116003212100602010302604434151000600007000080000
3628,ESSB,59.3544,17.9417,2024-04-30 12:20:00,,,,,17.0,1029.0,1128.1533517867535,1.0,4.0,330.0,10000.0,99999,,0.0,0,1116003304101702010302904128151000600007000080000
3629,ESSD,60.422,15.5152,2024-04-30 12:20:00,,,,,17.0,1028.0,2256.374345576987,1.0,6.0,220.0,10000.0,99999,,0.0,0,1116002206101702010302804256351000600007000080000
3630,ESSP,58.5863,16.2506,2024-04-30 12:20:00,,,,,17.0,1029.0,1096.0911843898575,2.0,9.0,100.0,10000.0,99999,,0.0,0,1116001009101702020302904096051000600007000080000
3631,ESSV,57.6628,18.3462,2024-04-30 12:20:00,,,,,15.0,1029.0,1442.4084658868396,4.0,14.0,90.0,10000.0,99999,,0.0,0,1116000914101502040302904442451000600007000080000
3632,LSGC,47.0839,6.79284,2024-04-30 12:20:00,,,,,19.0,1015.0,9.669008857420822,2.0,3.0,,10000.0,99999,,0.0,0,11160036031019020203015049651000600007000080000
3633,LSGG,46.2381,6.10895,2024-04-30 12:20:00,,,,,18.0,1013.0,4673.160391592518,11.0,2.0,,10000.0,99999,,0.0,0,11160036021018020110301304673151000600007000080000
3634,LSGS,46.2196,7.32676,2024-04-30 12:20:00,,,,,23.0,1014.0,4182.381806918113,3.0,16.0,80.0,10000.0,99999,,0.0,0,1116000816102302030301404182351000600007000080000
3635,LSZA,46.0043,8.91058,2024-04-30 12:20:00,,,,,24.0,1018.0,2638.3752397703115,8.0,5.0,180.0,10000.0,99999,,0.0,0,1116001805102402080301804638351000600007000080000
3636,LSZB,46.9141,7.49715,2024-04-30 12:20:00,,,,,23.0,1013.0,4379.908720098404,10.0,6.0,300.0,10000.0,99999,,0.0,0,11160030061023020100301304379951000600007000080000
3637,LSZG,47.1816,7.41719,2024-04-30 12:20:00,,,,,23.0,1013.0,3786.708701325058,10.0,5.0,80.0,10000.0,99999,,0.0,0,11160008051023020100301304786751000600007000080000
3638,LSZH,47.4647,8.54917,2024-04-30 12:20:00,,,,,25.0,1013.0,3545.4812884252883,10.0,3.0,70.0,10000.0,99999,,0.0,0,11160007031025020100301304545451000600007000080000
3639,LSZL,46.1608,8.87861,2024-04-30 12:20:00,,,,,21.0,1018.0,2297.7623362209465,11.0,5.0,260.0,10000.0,99999,,0.0,0,11160026051021020110301804297751000600007000080000
3640,LSZR,47.485,9.56077,2024-04-30 12:20:00,,,,,26.0,1013.0,3221.0777454873582,2.0,11.0,160.0,10000.0,99999,,0.0,0,1116001611102602020301304221051000600007000080000
3641,LSZS,46.5341,9.88411,2024-04-30 12:20:00,,,,,14.0,1021.0,17.789142874162952,-2.0,10.0,210.0,10000.0,99999,,0.0,0,111600211010140212030210417751000600007000080000
3646,EGCC,53.3537,-2.27495,2024-04-30 12:20:00,,,,,17.0,1008.0,1581.6421020799003,6.0,8.0,160.0,10000.0,99999,,0.0,0,1116001608101702060300804581651000600007000080000
3647,EGFF,51.3967,-3.34333,2024-04-30 12:20:00,,,,,12.0,1007.0,1714.108543493102,9.0,17.0,150.0,10000.0,99999,,0.0,0,1116001517101202090300704714151000600007000080000
3648,EGGD,51.3827,-2.71909,2024-04-30 12:20:00,,,,,14.0,1007.0,2915.015927946867,6.0,17.0,170.0,10000.0,99999,,0.0,0,1116001717101402060300704915051000600007000080000
3651,EGHI,50.9503,-1.3568,2024-04-30 12:20:00,,,,,16.0,1010.0,1106.7949302107063,6.0,9.0,140.0,10000.0,99999,,0.0,0,1116001409101602060301004106751000600007000080000
3652,EGJB,49.435,-2.60197,2024-04-30 12:20:00,,,,,13.0,1008.0,2043.0553781156816,9.0,15.0,150.0,10000.0,99999,,0.0,0,1116001515101302090300804043051000600007000080000
3656,EGKK,51.1481,-0.19028,2024-04-30 12:20:00,,,,,18.0,1011.0,1428.6301576098756,7.0,11.0,160.0,10000.0,99999,,0.0,0,1116001611101802070301104428651000600007000080000
3657,EGLF,51.2758,-0.77633,2024-04-30 12:20:00,,,,,18.0,1010.0,1507.363363358867,6.0,13.0,130.0,10000.0,99999,,0.0,0,1116001313101802060301004507351000600007000080000
3660,EGMD,50.9561,0.93917,2024-04-30 12:20:00,,,,,14.0,1012.0,1044.32833563706,12.0,10.0,150.0,10000.0,99999,,0.0,0,11160015101014020120301204044351000600007000080000
3663,EGNM,53.8659,-1.66057,2024-04-30 12:20:00,,,,,16.0,1009.0,2829.5086082043395,3.0,15.0,140.0,10000.0,99999,,0.0,0,1116001415101602030300904829551000600007000080000
3664,EGNS,54.0833,-4.62389,2024-04-30 12:20:00,61.0,36.0,^,green,11.0,1004.0,1171.6585005461855,9.0,21.0,130.0,10000.0,99999,,0.0,0,1116001321101102090300404171651000600007610080000
3666,EGNV,54.5092,-1.42941,2024-04-30 12:20:00,,,,,18.0,1009.0,1249.683792338729,6.0,18.0,150.0,10000.0,99999,,0.0,0,1116001518101802060300904249651000600007000080000
3668,EGPA,58.9578,-2.905,2024-04-30 12:20:00,,,,,12.0,1011.0,1159.2432370248807,8.0,14.0,140.0,10000.0,99999,,0.0,0,1116001414101202080301104159251000600007000080000
3677,EGTE,50.7344,-3.41389,2024-04-30 12:20:00,,,,,11.0,1006.0,1345.3315609100557,10.0,17.0,130.0,10000.0,99999,,0.0,0,11160013171011020100300604345351000600007000080000
3678,EGSH,52.6758,1.28278,2024-04-30 12:20:00,,,,,17.0,1013.0,1262.8044064302694,8.0,13.0,170.0,10000.0,99999,,0.0,0,1116001713101702080301304262851000600007000080000
3681,EGGW,51.8747,-0.36833,2024-04-30 12:20:00,,,,,17.0,1010.0,2279.187141382035,8.0,11.0,150.0,10000.0,99999,,0.0,0,1116001511101702080301004279151000600007000080000
3682,EGHE,49.9133,-6.29167,2024-04-30 12:20:00,,,,,11.0,1004.0,1392.1472318552567,7.0,14.0,210.0,10000.0,99999,,0.0,0,1116002114101102070300404392151000600007000080000
3684,EGLC,51.5053,0.05528,2024-04-30 12:20:00,,,,,18.0,1011.0,1047.7465899715862,6.0,11.0,150.0,10000.0,99999,,0.0,0,1116001511101802060301104047751000600007000080000
3685,EGNT,55.0375,-1.69167,2024-04-30 12:20:00,,,,,18.0,1008.0,1567.686089006694,6.0,9.0,,10000.0,99999,,0.0,0,1116003609101802060300804567651000600007000080000
3689,EGPL,57.4811,-7.36278,2024-04-30 12:20:00,61.0,36.0,^,green,9.0,1005.0,1078.6086457175436,7.0,15.0,90.0,10000.0,99999,,0.0,0,1116000915100902070300504078651000600007610080000
3701,EDGS,50.7077,8.08297,2024-04-30 12:20:00,,,,,21.0,1016.0,5488.436290881247,8.0,6.0,110.0,10000.0,99999,,0.0,0,1116001106102102080301604488451000600007000080000
3702,EDLV,51.6024,6.14217,2024-04-30 12:20:00,,,,,22.0,1015.0,1187.8605112842984,12.0,5.0,90.0,10000.0,99999,,0.0,0,11160009051022020120301504187851000600007000080000
3705,EGEC,55.4372,-5.68639,2024-04-30 12:20:00,,,,,12.0,1003.0,1125.9770472343996,10.0,24.0,140.0,10000.0,99999,,0.0,0,11160014241012020100300304125951000600007000080000
3706,EGNR,53.1781,-2.97778,2024-04-30 12:20:00,,,,,16.0,1006.0,1104.6457294113943,8.0,18.0,150.0,10000.0,99999,,0.0,0,1116001518101602080300604104651000600007000080000
3707,EGPI,55.6819,-6.25667,2024-04-30 12:20:00,,,,,10.0,1003.0,1202.5718946778854,9.0,16.0,120.0,10000.0,99999,,0.0,0,1116001216101002090300304202551000600007000080000
3715,ESMQ,56.6855,16.2876,2024-04-30 12:20:00,,,,,17.0,1027.0,1062.3493588595015,10.0,13.0,50.0,10000.0,99999,,0.0,0,11160005131017020100302704062351000600007000080000
3716,ESMT,56.6911,12.8202,2024-04-30 12:20:00,,,,,20.0,1024.0,1207.0680531736111,5.0,12.0,100.0,10000.0,99999,,0.0,0,1116001012102002050302404207051000600007000080000
3718,ESNK,63.0486,17.7689,2024-04-30 12:20:00,,,,,15.0,1027.0,1107.8510933512955,5.0,11.0,180.0,10000.0,99999,,0.0,0,1116001811101502050302704107851000600007000080000
3719,ESNL,64.5483,18.7162,2024-04-30 12:20:00,,,,,12.0,1027.0,3703.815969327632,2.0,7.0,290.0,10000.0,99999,,0.0,0,1116002907101202020302704703851000600007000080000
3720,ESNX,65.5903,19.2819,2024-04-30 12:20:00,,,,,8.0,1026.0,8734.451521056732,1.0,11.0,280.0,10000.0,99999,,0.0,0,1116002811100802010302604734451000600007000080000
3721,ESOE,59.2237,15.038,2024-04-30 12:20:00,,,,,18.0,1028.0,1421.3785643816836,2.0,5.0,70.0,10000.0,99999,,0.0,0,1116000705101802020302804421351000600007000080000
3722,ESSL,58.4062,15.6805,2024-04-30 12:20:00,,,,,17.0,1028.0,1408.3148765114975,2.0,10.0,100.0,10000.0,99999,,0.0,0,1116001010101702020302804408351000600007000080000
3723,ESTA,56.2961,12.8471,2024-04-30 12:20:00,,,,,21.0,1023.0,1138.8339493360113,6.0,15.0,110.0,10000.0,99999,,0.0,0,1116001115102102060302304138851000600007000080000
3724,ESTL,56.0828,13.2125,2024-04-30 12:20:00,,,,,20.0,1024.0,1281.028720456715,5.0,16.0,110.0,10000.0,99999,,0.0,0,1116001116102002050302404281051000600007000080000
3725,ESUT,65.8061,15.0828,2024-04-30 12:20:00,,,,,9.0,1026.0,9.286552143280149,1.0,4.0,340.0,10000.0,99999,,0.0,0,11160034041009020103026049251000600007000080000
3726,LGPA,37.0103,25.1281,2024-04-30 12:20:00,,,,,20.0,1015.0,1252.6977467567465,13.0,16.0,350.0,10000.0,99999,,0.0,0,11160035161020020130301504252651000600007000080000
3728,LOXZ,47.2028,14.7442,2024-04-30 12:20:00,,,,,22.0,1021.0,5900.115961844044,4.0,10.0,120.0,10000.0,99999,,0.0,0,1116001210102202040302104900151000600007000080000
3774,LIMJ,44.4133,8.8375,2024-04-30 12:20:00,,,,,25.0,1015.0,1033.103910800962,12.0,5.0,,10000.0,99999,,0.0,0,11160036051025020120301504033151000600007000080000
3775,LIPH,45.6484,12.1944,2024-04-30 12:20:00,,,,,27.0,1017.0,1094.1414447477237,13.0,8.0,110.0,10000.0,99999,,0.0,0,11160011081027020130301704094151000600007000080000
3794,ESGJ,57.7576,14.0687,2024-04-30 12:20:00,,,,,17.0,1027.0,2930.986263699848,6.0,6.0,70.0,10000.0,99999,,0.0,0,1116000706101702060302704930951000600007000080000
3795,ESGT,58.3181,12.345,2024-04-30 12:20:00,,,,,18.0,1026.0,1307.1133612104454,-0.0,9.0,80.0,10000.0,99999,,0.0,0,1116000809101802100302604307151000600007000080000
3796,ESKM,60.9579,14.5114,2024-04-30 12:20:00,,,,,16.0,1028.0,2737.7045769273777,1.0,7.0,220.0,10000.0,99999,,0.0,0,1116002207101602010302804737751000600007000080000
3797,ESNG,67.1324,20.8146,2024-04-30 12:20:00,,,,,6.0,1024.0,9.467140438202362,1.0,7.0,250.0,10000.0,99999,,0.0,0,11160025071006020103024049451000600007000080000
3798,ESNS,64.6248,21.0769,2024-04-30 12:20:00,,,,,8.0,1026.0,1802.3669483076242,1.0,8.0,280.0,10000.0,99999,,0.0,0,1116002808100802010302604802351000600007000080000
3800,ENHK,70.4867,22.1397,2024-04-30 12:20:00,,,,,6.0,1025.0,1150.6744500650643,-0.0,6.0,300.0,10000.0,99999,,0.0,0,1116003006100602100302504150651000600007000080000
3801,ENLK,68.1525,13.6094,2024-04-30 12:20:00,,,,,8.0,1026.0,1390.9615649018497,6.0,7.0,170.0,10000.0,99999,,0.0,0,1116001707100802060302604390951000600007000080000
3802,ENMH,71.0297,27.8267,2024-04-30 12:20:00,,,,,3.0,1025.0,1520.6320312073951,-2.0,2.0,330.0,10000.0,99999,,0.0,0,1116003302100302120302504520651000600007000080000
3803,ENNM,64.4722,11.5786,2024-04-30 12:20:00,,,,,17.0,1025.0,1039.465522040496,3.0,7.0,60.0,10000.0,99999,,0.0,0,1116000607101702030302504039451000600007000080000
3804,ENNO,59.5657,9.21222,2024-04-30 12:20:00,,,,,13.0,1027.0,1202.9526318367782,7.0,6.0,140.0,10000.0,99999,,0.0,0,1116001406101302070302704202951000600007000080000
3805,ENRS,67.5278,12.1033,2024-04-30 12:20:00,,,,,9.0,1025.0,1052.3964285305483,6.0,10.0,210.0,10000.0,99999,,0.0,0,1116002110100902060302504052351000600007000080000
3806,ENSK,68.57883,15.03342,2024-04-30 12:20:00,,,,,6.0,1026.0,1091.1308689036057,3.0,8.0,140.0,10000.0,99999,,0.0,0,1116001408100602030302604091151000600007000080000
3807,ENSO,59.7919,5.34085,2024-04-30 12:20:00,,,,,18.0,1021.0,1350.3497115689638,6.0,13.0,140.0,10000.0,99999,,0.0,0,1116001413101802060302104350351000600007000080000
3808,ENST,65.9568,12.4689,2024-04-30 12:20:00,,,,,11.0,1026.0,1210.962075594535,4.0,4.0,310.0,10000.0,99999,,0.0,0,1116003104101102040302604210951000600007000080000
3809,ENVD,70.0653,29.8447,2024-04-30 12:20:00,,,,,4.0,1024.0,2348.784465478329,-2.0,6.0,300.0,10000.0,99999,,0.0,0,1116003006100402120302404348751000600007000080000
3810,LGAD,37.9207,21.2926,2024-04-30 12:20:00,,,,,27.0,1015.0,1086.6950942614367,10.0,11.0,10.0,10000.0,99999,,0.0,0,11160001111027020100301504086651000600007000080000
3811,LGKL,37.0683,22.0255,2024-04-30 12:20:00,,,,,21.0,1016.0,1059.3712583539432,16.0,13.0,160.0,10000.0,99999,,0.0,0,11160016131021020160301604059351000600007000080000
3812,LGSA,35.5317,24.1497,2024-04-30 12:20:00,,,,,19.0,1016.0,2056.714649348221,12.0,11.0,20.0,10000.0,99999,,0.0,0,11160002111019020120301604056751000600007000080000
3813,LIBD,41.1389,16.7606,2024-04-30 12:20:00,,,,,20.0,1017.0,1343.5450064109928,14.0,7.0,50.0,10000.0,99999,,0.0,0,11160005071020020140301704343551000600007000080000
3814,LICC,37.4668,15.0664,2024-04-30 12:20:00,,,,,21.0,1018.0,1083.4733409572477,14.0,8.0,90.0,10000.0,99999,,0.0,0,11160009081021020140301804083451000600007000080000
3815,LIEE,39.2515,9.05428,2024-04-30 12:20:00,,,,,21.0,1012.0,1033.5040301548684,15.0,18.0,160.0,10000.0,99999,,0.0,0,11160016181021020150301204033551000600007000080000
3816,LIEO,40.8987,9.51763,2024-04-30 12:20:00,,,,,24.0,1012.0,1065.9098484043886,15.0,16.0,70.0,10000.0,99999,,0.0,0,11160007161024020150301204065951000600007000080000
3817,LIMC,45.6306,8.72811,2024-04-30 12:20:00,,,,,23.0,1018.0,2412.2011155945984,4.0,4.0,100.0,10000.0,99999,,0.0,0,1116001004102302040301804412251000600007000080000
3818,LIME,45.6739,9.70417,2024-04-30 12:20:00,,,,,23.0,1018.0,2440.99270762017,9.0,3.0,,10000.0,99999,,0.0,0,1116003603102302090301804440951000600007000080000
3819,LIMF,45.2008,7.64963,2024-04-30 12:20:00,,,,,21.0,1018.0,3079.5328825373745,9.0,2.0,,10000.0,99999,,0.0,0,1116003602102102090301804079551000600007000080000
3820,LIML,45.4451,9.27674,2024-04-30 12:20:00,,,,,23.0,1017.0,1605.3252318117338,10.0,5.0,80.0,10000.0,99999,,0.0,0,11160008051023020100301704605351000600007000080000
3821,LIPE,44.5354,11.2887,2024-04-30 12:20:00,,,,,24.0,1017.0,1201.6093563641048,9.0,9.0,90.0,10000.0,99999,,0.0,0,1116000909102402090301704201651000600007000080000
3823,LIRF,41.8045,12.2508,2024-04-30 12:20:00,,,,,25.0,1014.0,1034.8806727328865,10.0,11.0,170.0,10000.0,99999,,0.0,0,11160017111025020100301404034851000600007000080000
3825,LIRP,43.6839,10.3927,2024-04-30 12:15:00,,,,,26.0,1014.0,1022.00946955114,12.0,5.0,120.0,10000.0,99999,,0.0,0,11160012051026020120301404022051000600007000080000
3830,ENBS,70.6005,29.6914,2024-04-30 12:20:00,71.0,36.0,h,magenta,1.0,1024.0,20.060061306483295,-1.0,2.0,,10000.0,99999,,0.0,0,111600360210010211030240420051000600007710080000
3831,ENHV,71.0097,25.9836,2024-04-30 12:20:00,,,,,3.0,1025.0,1589.4954643715967,-0.0,8.0,30.0,10000.0,99999,,0.0,0,1116000308100302100302504589451000600007000080000
3832,ENMS,65.784,13.2149,2024-04-30 12:20:00,,,,,14.0,1026.0,1686.319117105147,2.0,2.0,,10000.0,99999,,0.0,0,1116003602101402020302604686351000600007000080000
3833,ENRM,64.8383,11.1461,2024-04-30 12:20:00,,,,,15.0,1025.0,1057.9126668440545,3.0,5.0,120.0,10000.0,99999,,0.0,0,1116001205101502030302504057951000600007000080000
3834,LGKO,36.7933,27.0917,2024-04-30 12:20:00,,,,,21.0,1013.0,1779.2741921460974,12.0,17.0,320.0,10000.0,99999,,0.0,0,11160032171021020120301304779251000600007000080000
3835,LGLM,39.9171,25.2363,2024-04-30 12:20:00,,,,,18.0,1019.0,1046.2360591928086,14.0,15.0,50.0,10000.0,99999,,0.0,0,11160005151018020140301904046251000600007000080000
3836,LGSM,37.69,26.9117,2024-04-30 12:20:00,,,,,25.0,1013.0,1039.4534150958589,12.0,12.0,360.0,10000.0,99999,,0.0,0,11160036121025020120301304039451000600007000080000
3837,LGTS,40.5197,22.9709,2024-04-30 12:20:00,,,,,24.0,1019.0,1051.1318587054566,12.0,6.0,260.0,10000.0,99999,,0.0,0,11160026061024020120301904051151000600007000080000
3839,LIBR,40.6576,17.947,2024-04-30 12:20:00,,,,,20.0,1017.0,1100.0560204350104,16.0,7.0,20.0,10000.0,99999,,0.0,0,11160002071020020160301704100051000600007000080000
3840,LICJ,38.176,13.091,2024-04-30 12:20:00,,,,,19.0,1013.0,1134.335592237416,14.0,8.0,40.0,10000.0,99999,,0.0,0,11160004081019020140301304134351000600007000080000
3842,LIEA,40.6321,8.29077,2024-04-30 12:20:00,,,,,24.0,1010.0,1138.3682284003733,12.0,10.0,280.0,10000.0,99999,,0.0,0,11160028101024020120301004138351000600007000080000
3843,LIPQ,45.8275,13.4722,2024-04-30 12:20:00,,,,,29.0,1016.0,1063.1461976455887,8.0,3.0,,10000.0,99999,,0.0,0,1116003603102902080301604063151000600007000080000
3844,LIPR,44.0203,12.6117,2024-04-30 12:20:00,,,,,19.0,1017.0,1091.2781522628252,12.0,8.0,60.0,10000.0,99999,,0.0,0,11160006081019020120301704091251000600007000080000
3845,LIPX,45.3957,10.8885,2024-04-30 12:20:00,,,,,26.0,1017.0,1356.8976125111042,11.0,8.0,120.0,10000.0,99999,,0.0,0,11160012081026020110301704356851000600007000080000
3846,LIPZ,45.5053,12.3519,2024-04-30 12:20:00,,,,,24.0,1017.0,1027.157544365888,14.0,4.0,140.0,10000.0,99999,,0.0,0,11160014041024020140301704027151000600007000080000
3847,LIRA,41.7994,12.5949,2024-04-30 12:20:00,,,,,27.0,1014.0,1619.9922984746288,10.0,12.0,200.0,10000.0,99999,,0.0,0,11160020121027020100301404619951000600007000080000
3848,LIRQ,43.81,11.2051,2024-04-30 12:20:00,,,,,28.0,1014.0,1196.0755853377502,10.0,2.0,,10000.0,99999,,0.0,0,11160036021028020100301404196051000600007000080000
3850,LOWK,46.6425,14.3377,2024-04-30 12:20:00,,,,,24.0,1020.0,3807.80666605145,4.0,9.0,100.0,10000.0,99999,,0.0,0,1116001009102402040302004807851000600007000080000
3851,LOWW,48.1103,16.5697,2024-04-30 12:20:00,,,,,24.0,1022.0,2033.1573673074222,8.0,19.0,150.0,10000.0,99999,,0.0,0,1116001519102402080302204033151000600007000080000
3863,ENAT,69.9761,23.3717,2024-04-30 12:20:00,,,,,6.0,1025.0,1078.1108361215624,-1.0,10.0,310.0,10000.0,99999,,0.0,0,1116003110100602110302504078151000600007000080000
3864,ENFL,61.5836,5.02472,2024-04-30 12:20:00,,,,,16.0,1021.0,1103.0304901177603,4.0,13.0,140.0,10000.0,99999,,0.0,0,1116001413101602040302104103051000600007000080000
3865,ENHF,70.6797,23.6686,2024-04-30 12:20:00,,,,,4.0,1024.0,4096.939189204642,-2.0,4.0,20.0,10000.0,99999,,0.0,0,1116000204100402120302404096951000600007000080000
3866,ENKB,63.1118,7.82452,2024-04-30 12:20:00,,,,,16.0,1023.0,1507.4510646783158,-1.0,7.0,110.0,10000.0,99999,,0.0,0,1116001107101602110302304507451000600007000080000
3867,ENKR,69.7258,29.8913,2024-04-30 12:20:00,,,,,4.0,1024.0,4320.30068980069,-2.0,7.0,300.0,10000.0,99999,,0.0,0,1116003007100402120302404320351000600007000080000
3868,ENML,62.7447,7.2625,2024-04-30 12:20:00,,,,,15.0,1023.0,1046.4179889257653,0.0,9.0,50.0,10000.0,99999,,0.0,0,1116000509101502000302304046451000600007000080000
3869,ENOV,62.18,6.0741,2024-04-30 12:20:00,,,,,17.0,1022.0,1569.400392323534,-0.0,3.0,,10000.0,99999,,0.0,0,1116003603101702100302204569451000600007000080000
3870,ENRA,66.3639,14.3014,2024-04-30 12:20:00,,,,,8.0,1027.0,2209.366370779374,5.0,5.0,340.0,10000.0,99999,,0.0,0,1116003405100802050302704209351000600007000080000
3871,ENSD,61.83,6.10583,2024-04-30 12:20:00,,,,,17.0,1022.0,1456.5236690384704,1.0,8.0,70.0,10000.0,99999,,0.0,0,1116000708101702010302204456551000600007000080000
3873,LGKP,35.4214,27.146,2024-04-30 12:20:00,,,,,21.0,1013.0,1124.2547339575565,17.0,29.0,290.0,10000.0,99999,,0.0,0,11160029291021020170301304124251000600007000080000
3874,LGSK,39.1771,23.5037,2024-04-30 12:20:00,,,,,18.0,1019.0,1125.7209334326424,14.0,8.0,340.0,10000.0,99999,,0.0,0,11160034081018020140301904125751000600007000080000
3877,EDDB,52.36217,13.50067,2024-04-30 12:20:00,,,,,27.0,1016.0,1224.821497640212,9.0,12.0,140.0,10000.0,99999,,0.0,0,1116001412102702090301604224851000600007000080000
3878,EDDC,51.1328,13.7672,2024-04-30 12:20:00,,,,,26.0,1017.0,2206.8707534270566,9.0,13.0,170.0,10000.0,99999,,0.0,0,1116001713102602090301704206851000600007000080000
3879,EDDE,50.9798,10.9581,2024-04-30 12:20:00,,,,,23.0,1015.0,2968.571477662691,13.0,6.0,30.0,10000.0,99999,,0.0,0,11160003061023020130301504968551000600007000080000
3880,EDDF,50.0264,8.54313,2024-04-30 12:20:00,,,,,26.0,1014.0,1545.057176595456,11.0,5.0,160.0,10000.0,99999,,0.0,0,11160016051026020110301404545051000600007000080000
3881,EDDG,52.1346,7.68483,2024-04-30 12:20:00,,,,,24.0,1015.0,1257.1150140969376,12.0,5.0,,10000.0,99999,,0.0,0,11160036051024020120301504257151000600007000080000
3882,EDDH,53.6304,9.98823,2024-04-30 12:20:00,,,,,23.0,1016.0,1097.3363476813843,14.0,10.0,60.0,10000.0,99999,,0.0,0,11160006101023020140301604097351000600007000080000
3885,EDDM,48.3538,11.7861,2024-04-30 12:20:00,,,,,26.0,1015.0,3580.720672889291,7.0,11.0,90.0,10000.0,99999,,0.0,0,1116000911102602070301504580751000600007000080000
3886,EDDN,49.4987,11.0669,2024-04-30 12:20:00,,,,,26.0,1014.0,2729.794563204321,8.0,10.0,140.0,10000.0,99999,,0.0,0,1116001410102602080301404729751000600007000080000
3887,EDDP,51.4324,12.2416,2024-04-30 12:20:00,,,,,25.0,1016.0,1740.8117745739828,14.0,7.0,80.0,10000.0,99999,,0.0,0,11160008071025020140301604740851000600007000080000
3888,EDDR,49.2146,7.10951,2024-04-30 12:20:00,,,,,23.0,1014.0,3013.0126910944814,11.0,4.0,,10000.0,99999,,0.0,0,11160036041023020110301404013051000600007000080000
3889,EDDS,48.6899,9.22196,2024-04-30 12:20:00,,,,,24.0,1013.0,3369.0380927557217,10.0,4.0,10.0,10000.0,99999,,0.0,0,11160001041024020100301304369051000600007000080000
3890,EDDV,52.4611,9.68508,2024-04-30 12:20:00,,,,,22.0,1015.0,1320.2997076825254,13.0,8.0,80.0,10000.0,99999,,0.0,0,11160008081022020130301504320251000600007000080000
3891,EDDW,53.0475,8.78667,2024-04-30 12:20:00,,,,,23.0,1015.0,1036.2055197330671,14.0,6.0,80.0,10000.0,99999,,0.0,0,11160008061023020140301504036251000600007000080000
3914,ENBL,61.3911,5.75694,2024-04-30 12:20:00,,,,,14.0,1022.0,4520.637532515158,2.0,9.0,140.0,10000.0,99999,,0.0,0,1116001409101402020302204520651000600007000080000
3915,ENBV,70.8714,29.0342,2024-04-30 12:20:00,,,,,3.0,1025.0,1561.818151883967,-1.0,3.0,320.0,10000.0,99999,,0.0,0,1116003203100302110302504561851000600007000080000
3916,ENSG,61.1561,7.13778,2024-04-30 12:20:00,,,,,11.0,1024.0,1024.0,1.0,3.0,50.0,10000.0,99999,,0.0,0,1116000503101102010302404024051000600007000080000
3917,ENSR,69.7868,20.9594,2024-04-30 12:20:00,,,,,7.0,1025.0,1106.382646959532,-2.0,6.0,340.0,10000.0,99999,,0.0,0,1116003406100702120302504106351000600007000080000
3918,LGBL,39.2196,22.7943,2024-04-30 12:20:00,,,,,23.0,1019.0,1147.9151592139833,12.0,6.0,110.0,10000.0,99999,,0.0,0,11160011061023020120301904147951000600007000080000
3919,LGEL,38.0638,23.556,2024-04-30 12:20:00,,,,,22.0,1017.0,1253.2711648512445,11.0,13.0,340.0,10000.0,99999,,0.0,0,11160034131022020110301704253251000600007000080000
3920,LGKV,40.9133,24.6192,2024-04-30 12:20:00,,,,,24.0,1019.0,1045.2580659846865,14.0,16.0,70.0,10000.0,99999,,0.0,0,11160007161024020140301904045251000600007000080000
3921,LGMT,39.0567,26.5983,2024-04-30 12:20:00,,,,,24.0,1017.0,1105.4505219723192,14.0,10.0,340.0,10000.0,99999,,0.0,0,11160034101024020140301704105451000600007000080000
3922,LGSR,36.3992,25.4793,2024-04-30 12:20:00,,,,,21.0,1015.0,1233.7471587485559,13.0,17.0,350.0,10000.0,99999,,0.0,0,11160035171021020130301504233751000600007000080000
3923,LGZA,37.7509,20.8843,2024-04-30 12:20:00,,,,,25.0,1016.0,1036.9218574917284,8.0,10.0,350.0,10000.0,99999,,0.0,0,1116003510102502080301604036951000600007000080000
3925,LOWG,46.9911,15.4396,2024-04-30 12:20:00,,,,,23.0,1021.0,3158.074604627712,8.0,8.0,120.0,10000.0,99999,,0.0,0,1116001208102302080302104158051000600007000080000
3926,LOWI,47.2602,11.344,2024-04-30 12:20:00,,,,,24.0,1016.0,4741.020468366339,5.0,4.0,,10000.0,99999,,0.0,0,1116003604102402050301604741051000600007000080000
3927,LOWL,48.2332,14.1875,2024-04-30 12:20:00,,,,,27.0,1016.0,2541.8452059606525,4.0,14.0,100.0,10000.0,99999,,0.0,0,1116001014102702040301604541851000600007000080000
3928,LOWS,47.7933,13.0043,2024-04-30 12:20:00,,,,,26.0,1015.0,3431.6542104129326,7.0,12.0,140.0,10000.0,99999,,0.0,0,1116001412102602070301504431651000600007000080000
3936,EDDK,50.8659,7.14274,2024-04-30 12:20:00,,,,,23.0,1014.0,1509.6050576140528,11.0,3.0,,10000.0,99999,,0.0,0,11160036031023020110301404509651000600007000080000
3937,EDDL,51.2895,6.76678,2024-04-30 12:20:00,,,,,23.0,1014.0,1245.4708045673453,12.0,2.0,,10000.0,99999,,0.0,0,11160036021023020120301404245451000600007000080000
3947,EGJJ,49.2079,-2.19551,2024-04-30 12:20:00,,,,,15.0,1008.0,1721.4545354029513,8.0,17.0,160.0,10000.0,99999,,0.0,0,1116001617101502080300804721451000600007000080000
3958,EGPD,57.2019,-2.19778,2024-04-30 12:20:00,,,,,14.0,1011.0,1596.2394321700003,7.0,17.0,160.0,10000.0,99999,,0.0,0,1116001617101402070301104596251000600007000080000
3959,EGPH,55.95,-3.3725,2024-04-30 12:20:00,,,,,17.0,1007.0,1295.477467655963,8.0,13.0,140.0,10000.0,99999,,0.0,0,1116001413101702080300704295451000600007000080000
3960,EGPK,55.5094,-4.58667,2024-04-30 12:20:00,,,,,14.0,1005.0,1169.7349640846824,10.0,21.0,140.0,10000.0,99999,,0.0,0,11160014211014020100300504169751000600007000080000
3961,EGPO,58.2156,-6.33111,2024-04-30 12:20:00,61.0,36.0,^,green,10.0,1007.0,1098.1478264130672,5.0,5.0,30.0,10000.0,99999,,0.0,0,1116000305101002050300704098151000600007610080000
3962,EKAH,56.3,10.619,2024-04-30 12:20:00,,,,,17.0,1023.0,1197.4225883124147,6.0,13.0,90.0,10000.0,99999,,0.0,0,1116000913101702060302304197451000600007000080000
3963,EKKA,56.2975,9.12463,2024-04-30 12:20:00,,,,,17.0,1021.0,1394.0654006677419,7.0,14.0,100.0,10000.0,99999,,0.0,0,1116001014101702070302104394051000600007000080000
3964,EKYT,57.09276,9.84924,2024-04-30 12:20:00,,,,,15.0,1023.0,1046.4179889257653,6.0,14.0,110.0,10000.0,99999,,0.0,0,1116001114101502060302304046451000600007000080000
3965,ENAN,69.2925,16.1442,2024-04-30 12:20:00,,,,,8.0,1025.0,1220.4630071052122,2.0,5.0,290.0,10000.0,99999,,0.0,0,1116002905100802020302504220451000600007000080000
3966,ENBO,67.2692,14.3653,2024-04-30 12:20:00,,,,,8.0,1027.0,1218.13082177153,5.0,5.0,120.0,10000.0,99999,,0.0,0,1116001205100802050302704218151000600007000080000
3967,ENGM,60.1939,11.1004,2024-04-30 12:20:00,,,,,15.0,1027.0,3021.530627394933,6.0,6.0,220.0,10000.0,99999,,0.0,0,1116002206101502060302704021551000600007000080000
3968,ENOL,63.6989,9.604,2024-04-30 12:20:00,,,,,16.0,1024.0,1086.0124878550805,3.0,8.0,140.0,10000.0,99999,,0.0,0,1116001408101602030302404086051000600007000080000
3969,ENSH,68.2433,14.6692,2024-04-30 12:20:00,,,,,5.0,1026.0,1222.5963792617222,4.0,7.0,120.0,10000.0,99999,,0.0,0,1116001207100502040302604222551000600007000080000
3970,ENTC,69.6833,18.9189,2024-04-30 12:20:00,,,,,8.0,1025.0,1164.4977904044058,-2.0,4.0,210.0,10000.0,99999,,0.0,0,1116002104100802120302504164451000600007000080000
3977,EBAW,51.1894,4.46028,2024-04-30 12:20:00,,,,,20.0,1014.0,1082.5219451263652,9.0,6.0,160.0,10000.0,99999,,0.0,0,1116001606102002090301404082551000600007000080000
3978,EBBR,50.9014,4.48444,2024-04-30 12:20:00,,,,,19.0,1014.0,1372.1146279570119,10.0,5.0,180.0,10000.0,99999,,0.0,0,11160018051019020100301404372151000600007000080000
3979,EBCI,50.4592,4.45382,2024-04-30 12:20:00,,,,,19.0,1014.0,2352.2717814521097,10.0,8.0,150.0,10000.0,99999,,0.0,0,11160015081019020100301404352251000600007000080000
3980,EBLG,50.6374,5.44322,2024-04-30 12:20:00,,,,,21.0,1014.0,2308.6549357179806,12.0,2.0,,10000.0,99999,,0.0,0,11160036021021020120301404308651000600007000080000
3981,EBOS,51.1989,2.86222,2024-04-30 12:20:00,,,,,18.0,1014.0,1039.1564166474332,12.0,8.0,180.0,10000.0,99999,,0.0,0,11160018081018020120301404039151000600007000080000
3982,EDAC,50.98195,12.50639,2024-04-30 12:20:00,,,,,27.0,1015.0,1961.4217462778136,13.0,6.0,10.0,10000.0,99999,,0.0,0,11160001061027020130301504961451000600007000080000
3983,EDAH,53.8787,14.1523,2024-04-30 12:20:00,,,,,18.0,1019.0,1205.528116020485,10.0,8.0,30.0,10000.0,99999,,0.0,0,11160003081018020100301904205551000600007000080000
3985,EDHI,53.53528,9.83556,2024-04-30 12:20:00,,,,,23.0,1016.0,1050.970738657501,12.0,10.0,60.0,10000.0,99999,,0.0,0,11160006101023020120301604050951000600007000080000
3987,EDHL,53.8054,10.7192,2024-04-30 12:20:00,,,,,19.0,1017.0,1115.892033183537,11.0,12.0,60.0,10000.0,99999,,0.0,0,11160006121019020110301704115851000600007000080000
3988,EDLN,51.23028,6.50444,2024-04-30 12:20:00,,,,,22.0,1014.0,1218.8192366803792,12.0,2.0,,10000.0,99999,,0.0,0,11160036021022020120301404218851000600007000080000
3990,EDLW,51.5183,7.61224,2024-04-30 12:20:00,,,,,23.0,1015.0,1733.9035522071595,12.0,3.0,,10000.0,99999,,0.0,0,11160036031023020120301504733951000600007000080000
3991,EDMA,48.42528,10.93167,2024-04-30 12:20:00,,,,,24.0,1014.0,3884.2844437852223,9.0,5.0,120.0,10000.0,99999,,0.0,0,1116001205102402090301404884251000600007000080000
3993,EDNY,47.6713,9.51149,2024-04-30 12:20:00,,,,,25.0,1014.0,3449.140736745819,4.0,5.0,190.0,10000.0,99999,,0.0,0,1116001905102502040301404449151000600007000080000
3995,EDSB,48.7794,8.0805,2024-04-30 12:20:00,,,,,22.0,1013.0,1733.3479696827765,13.0,5.0,350.0,10000.0,99999,,0.0,0,11160035051022020130301304733351000600007000080000
3997,EDVE,52.3192,10.5561,2024-04-30 12:20:00,,,,,22.0,1016.0,1523.9332249804968,12.0,8.0,90.0,10000.0,99999,,0.0,0,11160009081022020120301604523951000600007000080000
3998,EDVK,51.40833,9.3775,2024-04-30 12:20:00,,,,,23.0,1015.0,2698.0791046978693,12.0,2.0,,10000.0,99999,,0.0,0,11160036021023020120301504698051000600007000080000
4001,ELLX,49.6266,6.21152,2024-04-30 12:20:00,,,,,20.0,1015.0,3812.350221659401,11.0,3.0,260.0,10000.0,99999,,0.0,0,11160026031020020110301504812351000600007000080000
4006,ENBN,65.4611,12.2175,2024-04-30 12:20:00,,,,,12.0,1026.0,1100.1434231240476,4.0,7.0,340.0,10000.0,99999,,0.0,0,1116003407101202040302604100151000600007000080000
4007,ENEV,68.4913,16.6781,2024-04-30 12:20:00,51.0,36.0,T,green,6.0,1026.0,1563.3418769101952,4.0,2.0,,10000.0,99999,,0.0,0,1116003602100602040302604563351000600007510080000
4008,ENNA,70.0688,24.9735,2024-04-30 12:20:00,,,,,6.0,1024.0,1174.1494309727773,-2.0,3.0,360.0,10000.0,99999,,0.0,0,1116003603100602120302404174151000600007000080000
4009,ENSS,70.3554,31.0449,2024-04-30 12:20:00,,,,,2.0,1024.0,1858.9002430200496,-1.0,8.0,350.0,10000.0,99999,,0.0,0,1116003508100202110302404858951000600007000080000
4030,LGRX,38.1511,21.4256,2024-04-30 12:20:00,,,,,25.0,1016.0,1080.7336573577295,10.0,16.0,20.0,10000.0,99999,,0.0,0,11160002161025020100301604080751000600007000080000
4031,EGBJ,51.8942,-2.16722,2024-04-30 12:20:00,,,,,17.0,1008.0,1221.2657674550176,6.0,15.0,170.0,10000.0,99999,,0.0,0,1116001715101702060300804221251000600007000080000
4032,EGSC,52.205,0.175,2024-04-30 12:20:00,,,,,18.0,1011.0,1102.908093303834,8.0,12.0,170.0,10000.0,99999,,0.0,0,1116001712101802080301104102951000600007000080000
4040,EDFH,49.9487,7.26389,2024-04-30 12:20:00,,,,,21.0,1015.0,4689.469882294663,11.0,6.0,60.0,10000.0,99999,,0.0,0,11160006061021020110301504689451000600007000080000
4041,EDHK,54.37944,10.14528,2024-04-30 12:20:00,,,,,13.0,1019.0,1307.2482881671951,8.0,8.0,60.0,10000.0,99999,,0.0,0,1116000608101302080301904307251000600007000080000
4043,EDMO,48.0814,11.2831,2024-04-30 12:20:00,,,,,25.0,1015.0,4655.675014385185,5.0,3.0,,10000.0,99999,,0.0,0,1116003603102502050301504655651000600007000080000
4068,LIBP,42.4317,14.1811,2024-04-30 12:20:00,,,,,21.0,1017.0,1097.7474653247257,11.0,7.0,60.0,10000.0,99999,,0.0,0,11160006071021020110301704097751000600007000080000
4069,LICA,38.9054,16.2423,2024-04-30 12:20:00,,,,,26.0,1016.0,1068.6444970726902,7.0,16.0,70.0,10000.0,99999,,0.0,0,1116000716102602070301604068651000600007000080000
4070,LICR,38.0712,15.6516,2024-04-30 12:20:00,,,,,20.0,1017.0,1189.5264635833412,13.0,15.0,210.0,10000.0,99999,,0.0,0,11160021151020020130301704189551000600007000080000
4071,LIPY,43.6163,13.3623,2024-04-30 12:20:00,,,,,19.0,1017.0,1108.2941530219734,14.0,8.0,30.0,10000.0,99999,,0.0,0,11160003081019020140301704108251000600007000080000
4073,LICD,35.4979,12.6181,2024-04-30 12:20:00,,,,,19.0,1012.0,1142.7764480195997,18.0,12.0,140.0,10000.0,99999,,0.0,0,11160014121019020180301204142751000600007000080000
4074,LIRZ,43.0959,12.5132,2024-04-30 12:20:00,,,,,26.0,1014.0,2098.6268979388537,15.0,5.0,350.0,10000.0,99999,,0.0,0,11160035051026020150301404098651000600007000080000
4077,EHDL,52.0606,5.87306,2024-04-30 12:25:00,,,,,21.0,1015.0,1289.756435937149,11.0,7.0,140.0,10000.0,99999,,0.0,0,11160014071021020110301504289751000600007000080000
4080,EHGR,51.5674,4.93183,2024-04-30 12:25:00,,,,,21.0,1014.0,1096.2140746601196,11.0,9.0,180.0,10000.0,99999,,0.0,0,11160018091021020110301404096251000600007000080000
4082,EHLE,52.4603,5.52722,2024-04-30 12:25:00,,,,,20.0,1015.0,992.5637302739326,11.0,6.0,170.0,10000.0,99999,,0.0,0,11160017061020020110301504992551000600007000080000
4083,EHLW,53.2286,5.76056,2024-04-30 12:25:00,,,,,20.0,1016.0,1021.2133447962736,14.0,8.0,170.0,10000.0,99999,,0.0,0,11160017081020020140301604021251000600007000080000
4085,EHVK,51.6564,5.70861,2024-04-30 12:25:00,,,,,21.0,1014.0,1135.7286113051366,12.0,5.0,120.0,10000.0,99999,,0.0,0,11160012051021020120301404135751000600007000080000
4086,EHWO,51.4491,4.34203,2024-04-30 12:25:00,,,,,20.0,1014.0,1125.623183489633,10.0,5.0,210.0,10000.0,99999,,0.0,0,11160021051020020100301404125651000600007000080000
4112,EGOW,53.5816,-3.05552,2024-04-30 12:20:00,,,,,16.0,1007.0,1087.905684180788,7.0,14.0,160.0,10000.0,99999,,0.0,0,1116001614101602070300704087951000600007000080000
4124,EFKI,64.2855,27.6924,2024-04-30 12:20:00,,,,,3.0,1024.0,8979.348464395584,1.0,11.0,280.0,10000.0,99999,,0.0,0,1116002811100302010302404979351000600007000080000
4125,EFKU,63.0071,27.7978,2024-04-30 12:20:00,,,,,7.0,1025.0,3052.8623072031332,2.0,10.0,280.0,10000.0,99999,,0.0,0,1116002810100702020302504052851000600007000080000
4180,EGAA,54.6575,-6.21583,2024-04-30 12:20:00,61.0,36.0,^,green,11.0,1002.0,1965.2896527050825,9.0,15.0,150.0,10000.0,99999,,0.0,0,1116001515101102090300204965251000600007610080000
4181,EGAC,54.6181,-5.8725,2024-04-30 12:20:00,61.0,36.0,^,green,12.0,1003.0,1046.2316967474396,10.0,13.0,150.0,10000.0,99999,,0.0,0,11160015131012020100300304046251000600007610080000
4182,EGBB,52.4539,-1.74803,2024-04-30 12:20:00,,,,,17.0,1008.0,1754.1108727500803,3.0,18.0,160.0,10000.0,99999,,0.0,0,1116001618101702030300804754151000600007000080000
4183,EGHH,50.78,-1.8425,2024-04-30 12:20:00,,,,,14.0,1009.0,1104.4194787814797,7.0,14.0,150.0,10000.0,99999,,0.0,0,1116001514101402070300904104451000600007000080000
4184,EGJA,49.7061,-2.21472,2024-04-30 12:20:00,,,,,13.0,1008.0,1886.6530484650725,9.0,16.0,160.0,10000.0,99999,,0.0,0,1116001616101302090300804886651000600007000080000
4185,EGKA,50.8356,-0.29722,2024-04-30 12:20:00,,,,,16.0,1011.0,1026.1625306851718,12.0,12.0,140.0,10000.0,99999,,0.0,0,11160014121016020120301104026151000600007000080000
4186,EGKB,51.3308,0.0325,2024-04-30 12:20:00,,,,,15.0,1011.0,2704.106245334926,8.0,14.0,170.0,10000.0,99999,,0.0,0,1116001714101502080301104704151000600007000080000
4187,EGLL,51.4706,-0.46194,2024-04-30 12:20:00,,,,,18.0,1010.0,1174.3873708674162,5.0,13.0,180.0,10000.0,99999,,0.0,0,1116001813101802050301004174351000600007000080000
4188,EGMC,51.5714,0.69556,2024-04-30 12:20:00,,,,,16.0,1012.0,1120.24283383665,9.0,10.0,130.0,10000.0,99999,,0.0,0,1116001310101602090301204120251000600007000080000
4189,EGNH,53.7717,-3.02861,2024-04-30 12:20:00,,,,,16.0,1007.0,1081.2476385011578,7.0,20.0,160.0,10000.0,99999,,0.0,0,1116001620101602070300704081251000600007000080000
4190,EGNJ,53.5744,-0.35083,2024-04-30 12:20:00,,,,,19.0,1010.0,1239.6979210512563,8.0,17.0,150.0,10000.0,99999,,0.0,0,1116001517101902080301004239651000600007000080000
4191,EGNX,52.8311,-1.32806,2024-04-30 12:20:00,,,,,17.0,1009.0,1703.4169792294415,3.0,17.0,160.0,10000.0,99999,,0.0,0,1116001617101702030300904703451000600007000080000
4193,EGPC,58.4589,-3.09306,2024-04-30 12:20:00,,,,,12.0,1010.0,1398.6770080196163,9.0,12.0,130.0,10000.0,99999,,0.0,0,1116001312101202090301004398651000600007000080000
4194,EGPE,57.5425,-4.0475,2024-04-30 12:20:00,,,,,15.0,1007.0,1079.1797370328586,8.0,4.0,170.0,10000.0,99999,,0.0,0,1116001704101502080300704079151000600007000080000
4195,EGPF,55.8719,-4.43306,2024-04-30 12:20:00,,,,,15.0,1006.0,1066.3350652698543,9.0,13.0,120.0,10000.0,99999,,0.0,0,1116001213101502090300604066351000600007000080000
4196,EGPN,56.4525,-3.02583,2024-04-30 12:20:00,,,,,14.0,1008.0,1050.1950502529576,9.0,13.0,100.0,10000.0,99999,,0.0,0,1116001013101402090300804050151000600007000080000
4197,EGSS,51.885,0.235,2024-04-30 12:20:00,,,,,17.0,1011.0,1812.3991559727592,9.0,14.0,140.0,10000.0,99999,,0.0,0,1116001414101702090301104812351000600007000080000
4198,EGTC,52.0722,-0.61667,2024-04-30 12:20:00,,,,,17.0,1010.0,1836.0334957930597,7.0,11.0,150.0,10000.0,99999,,0.0,0,1116001511101702070301004836051000600007000080000
4246,LGMK,37.4351,25.3481,2024-04-30 12:20:00,,,,,18.0,1015.0,1908.212673577075,12.0,23.0,360.0,10000.0,99999,,0.0,0,11160036231018020120301504908251000600007000080000
4247,LOXT,48.3167,16.1167,2024-04-30 12:20:00,,,,,25.0,1020.0,1937.9921914081965,6.0,16.0,120.0,60.0,99999,,0.0,0,1110001216102502060302004937951000600007000080000
4303,EGOV,53.2481,-4.53534,2024-04-30 12:20:00,63.0,36.0,',green,10.0,1004.0,1134.3127880037325,9.0,16.0,180.0,10000.0,99999,,0.0,0,1116001816101002090300404134351000600007630080000
4315,EGVP,51.1394,-1.56861,2024-04-30 12:20:00,,,,,16.0,1009.0,1727.2267044913413,5.0,16.0,160.0,10000.0,99999,,0.0,0,1116001616101602050300904727251000600007000080000
4330,ESSA,59.6519,17.9186,2024-04-30 12:20:00,,,,,16.0,1029.0,1348.0908625493546,1.0,6.0,200.0,10000.0,99999,,0.0,0,1116002006101602010302904348051000600007000080000
4336,EHEH,51.4501,5.37453,2024-04-30 12:25:00,,,,,22.0,1014.0,1133.3697005532172,12.0,3.0,180.0,10000.0,99999,,0.0,0,11160018031022020120301404133351000600007000080000
4360,EGUN,52.3619,0.48641,2024-04-30 12:25:00,,,,,18.0,29.85,1095.2252683629417,7.0,12.0,160.0,10000.0,99999,,0.0,0,111600161210180207032984095251000600007000080000
4361,LIRN,40.886,14.2908,2024-04-30 12:20:00,,,,,24.0,1015.0,1475.4699737448518,9.0,8.0,190.0,10000.0,99999,,0.0,0,1116001908102402090301504475451000600007000080000
4362,EDFM,49.47306,8.51417,2024-04-30 12:20:00,,,,,24.0,1013.0,1496.0840427388262,12.0,3.0,60.0,10000.0,99999,,0.0,0,11160006031024020120301304496051000600007000080000
4363,EDLP,51.6141,8.61632,2024-04-30 12:20:00,,,,,23.0,1015.0,2264.957277188716,14.0,5.0,320.0,10000.0,99999,,0.0,0,11160032051023020140301504264951000600007000080000
4364,EDQM,50.28861,11.85639,2024-04-30 12:20:00,,,,,24.0,1016.0,4857.163426257882,6.0,9.0,140.0,10000.0,99999,,0.0,0,1116001409102402060301604857151000600007000080000
4365,EDTL,48.3693,7.82772,2024-04-30 12:20:00,,,,,21.0,1013.0,1985.51596712536,12.0,6.0,340.0,10000.0,99999,,0.0,0,11160034061021020120301304985551000600007000080000
4366,ETHA,47.8355,10.8712,2024-04-30 12:20:00,,,,,23.0,1015.0,6102.026096359978,0.0,5.0,140.0,10000.0,99999,,0.0,0,1116001405102302000301504102051000600007000080000
4367,ETHB,52.2785,9.08217,2024-04-30 12:20:00,,,,,22.0,1015.0,1403.8033305368936,13.0,8.0,20.0,10000.0,99999,,0.0,0,11160002081022020130301504403851000600007000080000
4368,ETHC,52.5912,10.0221,2024-04-30 12:20:00,,,,,22.0,1015.0,1226.8358998986566,11.0,8.0,50.0,10000.0,99999,,0.0,0,11160005081022020110301504226851000600007000080000
4369,ETHF,51.1146,9.286,2024-04-30 12:20:00,,,,,24.0,1014.0,3518.456445887816,12.0,2.0,190.0,10000.0,99999,,0.0,0,11160019021024020120301404518451000600007000080000
4370,ETHL,48.2203,9.91002,2024-04-30 12:20:00,,,,,24.0,1014.0,4426.088797906368,6.0,3.0,30.0,10000.0,99999,,0.0,0,1116000303102402060301404426051000600007000080000
4371,ETHN,49.39194,9.95889,2024-04-30 12:20:00,,,,,25.0,1014.0,3392.291940159955,9.0,5.0,120.0,10000.0,99999,,0.0,0,1116001205102502090301404392251000600007000080000
4372,ETHS,52.9194,10.1975,2024-04-30 12:20:00,,,,,23.0,1016.0,1413.0170233334352,10.0,10.0,90.0,10000.0,99999,,0.0,0,11160009101023020100301604413051000600007000080000
4373,ETMN,53.7677,8.6585,2024-04-30 12:20:00,,,,,23.0,1016.0,1128.7110578991537,12.0,11.0,90.0,10000.0,99999,,0.0,0,11160009111023020120301604128751000600007000080000
4374,ETND,52.58556,8.34222,2024-04-30 12:20:00,,,,,23.0,1015.0,1215.6589661385963,13.0,5.0,100.0,10000.0,99999,,0.0,0,11160010051023020130301504215651000600007000080000
4375,ETNH,54.3122,9.53817,2024-04-30 12:20:00,,,,,18.0,1017.0,1093.4777193259592,10.0,12.0,40.0,10000.0,99999,,0.0,0,11160004121018020100301704093451000600007000080000
4376,ETNL,53.9182,12.2783,2024-04-30 12:20:00,,,,,19.0,1018.0,1283.5781692453045,12.0,13.0,70.0,10000.0,99999,,0.0,0,11160007131019020120301804283551000600007000080000
4377,ETNN,50.8312,6.65817,2024-04-30 12:20:00,,,,,22.0,1014.0,1684.9250078959317,10.0,5.0,100.0,10000.0,99999,,0.0,0,11160010051022020100301404684951000600007000080000
4378,ETNS,54.4593,9.51633,2024-04-30 12:20:00,,,,,16.0,1018.0,1174.9547880541575,9.0,15.0,60.0,10000.0,99999,,0.0,0,1116000615101602090301804174951000600007000080000
4380,ETNW,52.4573,9.42717,2024-04-30 12:20:00,,,,,23.0,1015.0,1313.0557786386735,12.0,6.0,90.0,10000.0,99999,,0.0,0,11160009061023020120301504313051000600007000080000
4381,ETSB,50.1738,7.06333,2024-04-30 12:20:00,,,,,20.0,1015.0,4682.970067884537,10.0,6.0,80.0,10000.0,99999,,0.0,0,11160008061020020100301504682951000600007000080000
4382,ETSH,51.7678,13.1677,2024-04-30 12:20:00,,,,,27.0,1016.0,1379.9514344452746,9.0,13.0,150.0,10000.0,99999,,0.0,0,1116001513102702090301604379951000600007000080000
4383,ETSI,48.7157,11.534,2024-04-30 12:20:00,,,,,26.0,1014.0,3024.4628953929528,7.0,5.0,110.0,10000.0,99999,,0.0,0,1116001105102602070301404024451000600007000080000
4384,ETSL,48.1855,10.8612,2024-04-30 12:20:00,,,,,25.0,1014.0,4389.321924463461,4.0,8.0,80.0,10000.0,99999,,0.0,0,1116000808102502040301404389351000600007000080000
4385,ETSN,48.711,11.2115,2024-04-30 12:20:00,,,,,25.0,1014.0,3210.6575511508668,7.0,8.0,100.0,10000.0,99999,,0.0,0,1116001008102502070301404210651000600007000080000
4386,ETWM,52.7232,7.32633,2024-04-30 12:20:00,,,,,22.0,1015.0,1015.0,10.0,6.0,100.0,10000.0,99999,,0.0,0,11160010061022020100301504015051000600007000080000
4391,EGDM,51.1522,-1.74741,2024-04-30 12:20:00,,,,,16.0,1009.0,2026.806138709132,6.0,17.0,160.0,10000.0,99999,,0.0,0,1116001617101602060300904026851000600007000080000
4392,EGDR,50.0861,-5.25571,2024-04-30 12:20:00,61.0,36.0,^,green,9.0,1005.0,2209.473007030607,9.0,11.0,180.0,5000.0,99999,,0.0,0,1113001811100902090300504209451000600007610080000
4394,EGOS,52.7982,-2.66804,2024-04-30 12:20:00,,,,,17.0,1007.0,1560.7801917021827,6.0,20.0,140.0,10000.0,99999,,0.0,0,1116001420101702060300704560751000600007000080000
4396,EGUB,51.6164,-1.09583,2024-04-30 12:20:00,,,,,18.0,1009.0,1479.0030601471508,6.0,19.0,160.0,10000.0,99999,,0.0,0,1116001619101802060300904479051000600007000080000
4398,EGVN,51.75,-1.58362,2024-04-30 12:20:00,,,,,16.0,1009.0,1703.4169792294415,3.0,13.0,170.0,10000.0,99999,,0.0,0,1116001713101602030300904703451000600007000080000
4400,EGWU,51.553,-0.41817,2024-04-30 12:20:00,,,,,19.0,1010.0,1245.6352506262147,7.0,15.0,170.0,10000.0,99999,,0.0,0,1116001715101902070301004245651000600007000080000
4402,EGXE,54.2924,-1.5354,2024-04-30 12:20:00,,,,,17.0,1009.0,1291.3105469306047,5.0,18.0,160.0,10000.0,99999,,0.0,0,1116001618101702050300904291351000600007000080000
4403,EGYD,53.0303,-0.48324,2024-04-30 12:20:00,,,,,18.0,1010.0,1462.6380805438203,6.0,17.0,150.0,10000.0,99999,,0.0,0,1116001517101802060301004462651000600007000080000
4404,EGYM,52.6484,0.55069,2024-04-30 12:20:00,,,,,18.0,1011.0,1159.2432370248807,8.0,16.0,160.0,10000.0,99999,,0.0,0,1116001616101802080301104159251000600007000080000
4433,LTCS,37.44566,38.89559,2024-04-30 12:20:00,,,,,23.0,1014.0,6733.90128237803,10.0,12.0,130.0,8000.0,99999,,0.0,0,11140013121023020100301404733951000600007000080000
4437,LTFM,41.27533,28.752,2024-04-30 12:20:00,45.0,36.0,N,yellow,14.0,1020.0,1949.2870433462106,14.0,15.0,30.0,300.0,99999,,0.0,0,11100003151014020140302004949251000600007450080000
4454,EGPB,59.8789,-1.29556,2024-04-30 12:20:00,,,,,11.0,1014.0,1077.8302664314463,7.0,14.0,160.0,9000.0,99999,,0.0,0,1115001614101102070301404077851000600007000080000
4459,LTAZ,38.7719,34.5345,2024-04-30 12:20:00,,,,,24.0,1016.0,7332.699398483884,11.0,8.0,290.0,10000.0,99999,,0.0,0,11160029081024020110301604332651000600007000080000
4460,LTBR,40.2552,29.5626,2024-04-30 12:20:00,,,,,22.0,1016.0,2470.64610519072,14.0,7.0,10.0,10000.0,99999,,0.0,0,11160001071022020140301604470651000600007000080000
4462,LTFC,37.8554,30.3684,2024-04-30 12:20:00,95.0,36.0,2,red,27.0,1013.0,6067.35251307292,10.0,16.0,90.0,10000.0,99999,,0.0,0,11160009161027020100301304067351000600007950080000
4463,LTFJ,40.8986,29.3092,2024-04-30 12:20:00,,,,,18.0,1018.0,1690.2877338621502,13.0,12.0,60.0,10000.0,99999,,0.0,0,11160006121018020130301804690251000600007000080000
4465,ETNT,53.5478,7.66733,2024-04-30 12:20:00,,,,,22.0,1016.0,1057.383123923085,12.0,7.0,110.0,10000.0,99999,,0.0,0,11160011071022020120301604057351000600007000080000
4466,EHAM,52.3086,4.76389,2024-04-30 12:25:00,,,,,18.0,1015.0,993.8999834383636,13.0,7.0,160.0,10000.0,99999,,0.0,0,11160016071018020130301504993851000600007000080000
4467,EHBK,50.9117,5.77014,2024-04-30 12:25:00,,,,,22.0,1014.0,1671.5134836741222,12.0,4.0,,10000.0,99999,,0.0,0,11160036041022020120301404671551000600007000080000
4468,EHGG,53.1197,6.57944,2024-04-30 12:25:00,,,,,21.0,1016.0,1044.270765531523,12.0,5.0,100.0,10000.0,99999,,0.0,0,11160010051021020120301604044251000600007000080000
4469,EHKD,52.9234,4.78062,2024-04-30 12:25:00,,,,,17.0,1015.0,1021.1284963873017,12.0,8.0,150.0,10000.0,99999,,0.0,0,11160015081017020120301504021151000600007000080000
4470,EHRD,51.9569,4.43722,2024-04-30 12:25:00,,,,,19.0,1014.0,986.8045231088938,11.0,8.0,140.0,10000.0,99999,,0.0,0,11160014081019020110301404986851000600007000080000
4471,EKSP,55.2256,9.26393,2024-04-30 12:20:00,,,,,17.0,1020.0,1325.8697251941494,8.0,14.0,110.0,10000.0,99999,,0.0,0,1116001114101702080302004325851000600007000080000
4492,LFCK,43.5563,2.28918,2024-04-30 12:30:00,,,,,16.0,1013.0,3171.9152383888886,14.0,3.0,100.0,10000.0,99999,,0.0,0,11160010031016020140301304171951000600007000080000
4493,LFLP,45.9292,6.09876,2024-04-30 12:30:00,,,,,21.0,1013.0,4361.429054723465,12.0,2.0,,10000.0,99999,,0.0,0,11160036021021020120301304361451000600007000080000
4494,LFLU,44.9216,4.9699,2024-04-30 12:30:00,,,,,19.0,1013.0,2133.9298311613306,12.0,3.0,,10000.0,99999,,0.0,0,11160036031019020120301304133951000600007000080000
4500,LFQA,49.2087,4.15658,2024-04-30 12:30:00,,,,,20.0,1013.0,1611.5442778740505,14.0,8.0,120.0,10000.0,99999,,0.0,0,11160012081020020140301304611551000600007000080000
4538,LFAC,50.9621,1.95476,2024-04-30 12:30:00,,,,,15.0,1013.0,1040.8537561222913,11.0,10.0,170.0,10000.0,99999,,0.0,0,11160017101015020110301304040851000600007000080000
4540,LFGA,48.1099,7.35901,2024-04-30 12:30:00,,,,,23.0,1013.0,2119.062915410425,12.0,4.0,10.0,10000.0,99999,,0.0,0,11160001041023020120301304119051000600007000080000
4541,LFJR,47.5603,-0.31222,2024-04-30 12:30:00,,,,,18.0,1010.0,1409.6283146978012,8.0,8.0,170.0,10000.0,99999,,0.0,0,1116001708101802080301004409651000600007000080000
4543,LFRU,48.6032,-3.81578,2024-04-30 12:30:00,61.0,36.0,^,green,10.0,1007.0,2101.8053958456117,9.0,6.0,250.0,10000.0,99999,,0.0,0,1116002506101002090300704101851000600007610080000
4545,LFLH,46.8261,4.81763,2024-04-30 12:30:00,,,,,17.0,1014.0,2557.1276691623216,13.0,4.0,180.0,10000.0,99999,,0.0,0,11160018041017020130301404557151000600007000080000
4548,LFPT,49.0966,2.04083,2024-04-30 12:30:00,,,,,16.0,1012.0,1807.3646481192422,11.0,9.0,160.0,10000.0,99999,,0.0,0,11160016091016020110301204807351000600007000080000
4554,EPBY,53.0968,17.9777,2024-04-30 12:30:00,,,,,27.0,1022.0,1344.4313170483751,10.0,10.0,170.0,10000.0,99999,,0.0,0,11160017101027020100302204344451000600007000080000
4558,EPRA,51.38883,21.21167,2024-04-30 12:30:00,,,,,25.0,1025.0,2035.5075985537978,10.0,13.0,140.0,10000.0,99999,,0.0,0,11160014131025020100302504035551000600007000080000
4560,EPSY,53.48194,20.93778,2024-04-30 12:30:00,,,,,24.0,1025.0,1787.9447175257078,9.0,9.0,130.0,10000.0,99999,,0.0,0,1116001309102402090302504787951000600007000080000
4562,EPZG,52.1385,15.7986,2024-04-30 12:30:00,,,,,27.0,1019.0,1281.8534733376928,9.0,13.0,130.0,10000.0,99999,,0.0,0,1116001313102702090301904281851000600007000080000
4570,LHKE,46.9175,19.7492,2024-04-30 12:15:00,,,,,24.0,1024.0,1629.7435608929384,6.0,14.0,110.0,10000.0,99999,,0.0,0,1116001114102402060302404629751000600007000080000
4571,LHPA,47.3636,17.5008,2024-04-30 12:15:00,,,,,24.0,1022.0,1786.3168118488747,7.0,12.0,120.0,10000.0,99999,,0.0,0,1116001212102402070302204786351000600007000080000
4573,LHPR,47.6244,17.8136,2024-04-30 12:15:00,,,,,23.0,1023.0,1745.701152142904,9.0,13.0,140.0,10000.0,99999,,0.0,0,1116001413102302090302304745751000600007000080000
4574,LHSM,46.6864,17.1591,2024-04-30 12:15:00,,,,,24.0,1022.0,1682.7729591909629,9.0,13.0,110.0,10000.0,99999,,0.0,0,1116001113102402090302204682751000600007000080000
4575,LHSN,47.1229,20.2355,2024-04-30 12:15:00,,,,,24.0,1024.0,1536.2441501212672,6.0,8.0,100.0,10000.0,99999,,0.0,0,1116001008102402060302404536251000600007000080000
4579,LBGO,43.1514,25.7129,2024-04-30 12:30:00,,,,,13.0,1026.0,1903.2806541590883,13.0,6.0,270.0,10000.0,99999,,0.0,0,11160027061013020130302604903251000600007000080000
4601,LFBY,43.6892,-1.06889,2024-04-30 12:30:00,,,,,21.0,1010.0,1193.999438996219,12.0,6.0,120.0,10000.0,99999,,0.0,0,11160012061021020120301004193951000600007000080000
4606,LFLN,46.4125,4.01326,2024-04-30 12:30:00,,,,,17.0,1013.0,3050.9021927577382,14.0,3.0,290.0,10000.0,99999,,0.0,0,11160029031017020140301304050951000600007000080000
4673,LTAC,40.1281,32.9951,2024-04-30 12:20:00,,,,,23.0,1016.0,7671.761908903023,12.0,8.0,40.0,10000.0,99999,,0.0,0,11160004081023020120301604671751000600007000080000
4674,LTAG,37.0021,35.4259,2024-04-30 12:20:00,,,,,28.0,1008.0,1318.1756212055118,12.0,5.0,110.0,10000.0,99999,,0.0,0,11160011051028020120300804318151000600007000080000
4675,LTAI,36.8987,30.8005,2024-04-30 12:20:00,,,,,28.0,1010.0,1237.9330375297773,17.0,6.0,160.0,10000.0,99999,,0.0,0,11160016061028020170301004237951000600007000080000
4676,LTAP,40.8294,35.522,2024-04-30 12:20:00,,,,,21.0,1015.0,4962.22264713552,13.0,23.0,40.0,10000.0,99999,,0.0,0,11160004231021020130301504962251000600007000080000
4678,LTBU,41.1382,27.9191,2024-04-30 12:20:00,,,,,15.0,1019.0,2647.819451936041,14.0,13.0,20.0,10000.0,99999,,0.0,0,11160002131015020140301904647851000600007000080000
4679,LTCC,37.8939,40.201,2024-04-30 12:20:00,95.0,36.0,2,red,16.0,1015.0,7905.479830975509,15.0,5.0,80.0,6000.0,99999,,0.0,0,11130008051016020150301504905451000600007950080000
4710,LTAF,36.9822,35.2804,2024-04-30 12:20:00,,,,,29.0,1008.0,1086.4560392903923,16.0,11.0,150.0,10000.0,99999,,0.0,0,11160015111029020160300804086451000600007000080000
4711,LTAJ,36.9472,37.4787,2024-04-30 12:20:00,,,,,25.0,1013.0,5418.788772858894,11.0,13.0,60.0,10000.0,99999,,0.0,0,11160006131025020110301304418751000600007000080000
4712,LTAT,38.4353,38.091,2024-04-30 12:20:00,,,,,27.0,1012.0,6047.866685602231,12.0,5.0,170.0,10000.0,99999,,0.0,0,11160017051027020120301204047851000600007000080000
4713,LTAU,38.7704,35.4954,2024-04-30 12:20:00,,,,,23.0,1015.0,8393.96007175249,12.0,10.0,280.0,10000.0,99999,,0.0,0,11160028101023020120301504393951000600007000080000
4714,LTBA,40.9769,28.8146,2024-04-30 12:20:00,,,,,18.0,1019.0,1354.2150752827063,13.0,15.0,20.0,10000.0,99999,,0.0,0,11160002151018020130301904354251000600007000080000
4715,LTBJ,38.2924,27.157,2024-04-30 12:20:00,,,,,25.0,1013.0,1646.145805205859,13.0,14.0,340.0,10000.0,99999,,0.0,0,11160034141025020130301304646151000600007000080000
4716,LTBS,36.7131,28.7925,2024-04-30 12:20:00,,,,,23.0,1011.0,1041.2312368172584,18.0,12.0,170.0,10000.0,99999,,0.0,0,11160017121023020180301104041251000600007000080000
4717,LTCE,39.9565,41.1702,2024-04-30 12:20:00,95.0,36.0,2,red,21.0,1018.0,13.7489934936313,-1.0,19.0,130.0,10000.0,99999,,0.0,0,111600131910210211030180413751000600007950080000
4718,LTCG,40.9951,39.7897,2024-04-30 12:20:00,51.0,36.0,T,green,16.0,1019.0,1255.7358082432825,14.0,3.0,320.0,8000.0,99999,,0.0,0,11140032031016020140301904255751000600007510080000
4719,LTCJ,37.929,41.1166,2024-04-30 12:20:00,,,,,23.0,1013.0,4716.576448238029,14.0,7.0,260.0,4000.0,99999,,0.0,0,11120026071023020140301304716551000600007000080000
4720,LTFE,37.2506,27.6643,2024-04-30 12:20:00,,,,,24.0,1012.0,1042.4514660322898,14.0,14.0,270.0,10000.0,99999,,0.0,0,11160027141024020140301204042451000600007000080000
4740,LFYR,47.3208,1.68889,2024-04-30 12:30:00,,,,,18.0,1011.0,1625.2041393606917,13.0,8.0,150.0,10000.0,99999,,0.0,0,11160015081018020130301104625251000600007000080000
4742,LYBT,44.9353,20.2575,2024-04-30 12:30:00,,,,,23.0,1023.0,1457.6396059913452,9.0,20.0,120.0,10000.0,99999,,0.0,0,1116001220102302090302304457651000600007000080000
4746,LYVR,45.1469,21.3099,2024-04-30 12:30:00,,,,,21.0,1024.0,1525.0020090758637,6.0,7.0,120.0,10000.0,99999,,0.0,0,1116001207102102060302404525051000600007000080000
4758,EGXV,53.8758,-0.435,2024-04-30 12:20:00,,,,,18.0,1010.0,1080.026452445485,6.0,12.0,140.0,10000.0,99999,,0.0,0,1116001412101802060301004080051000600007000080000
4763,EBFS,50.2433,4.64583,2024-04-30 12:25:00,,,,,17.0,1014.0,3465.4109726550587,11.0,4.0,160.0,10000.0,99999,,0.0,0,11160016041017020110301404465451000600007000080000
4776,EPLL,51.7219,19.3981,2024-04-30 12:30:00,,,,,25.0,1023.0,1997.3309769261148,11.0,7.0,110.0,10000.0,99999,,0.0,0,11160011071025020110302304997351000600007000080000
4777,EPWR,51.1027,16.8858,2024-04-30 12:30:00,,,,,27.0,1020.0,1594.0382680455984,7.0,13.0,160.0,10000.0,99999,,0.0,0,1116001613102702070302004594051000600007000080000
4778,LFBE,44.8253,0.51861,2024-04-30 12:30:00,,,,,19.0,1011.0,1341.428892066627,12.0,7.0,160.0,10000.0,99999,,0.0,0,11160016071019020120301104341451000600007000080000
4779,LFBG,45.6583,-0.3175,2024-04-30 12:30:00,,,,,20.0,1011.0,1193.5945026686559,9.0,3.0,,10000.0,99999,,0.0,0,1116003603102002090301104193551000600007000080000
4780,LFCR,44.4079,2.48267,2024-04-30 12:30:00,,,,,16.0,1013.0,6811.356430423062,9.0,17.0,130.0,10000.0,99999,,0.0,0,1116001317101602090301304811351000600007000080000
4781,LFJL,48.9821,6.25132,2024-04-30 12:30:00,,,,,21.0,1014.0,2788.0898481326863,13.0,3.0,,10000.0,99999,,0.0,0,11160036031021020130301404788051000600007000080000
4782,LFMK,43.216,2.30632,2024-04-30 12:30:00,,,,,14.0,1012.0,2283.116379123297,13.0,7.0,90.0,10000.0,99999,,0.0,0,11160009071014020130301204283151000600007000080000
4783,LFMO,44.1405,4.86672,2024-04-30 12:30:00,,,,,18.0,1013.0,1420.4210895789347,14.0,5.0,250.0,10000.0,99999,,0.0,0,11160025051018020140301304420451000600007000080000
4784,LFMU,43.3235,3.3539,2024-04-30 12:30:00,,,,,15.0,1013.0,1145.6957518127658,15.0,6.0,80.0,10000.0,99999,,0.0,0,11160008061015020150301304145651000600007000080000
4785,LHDC,47.4889,21.6153,2024-04-30 12:15:00,,,,,23.0,1024.0,1627.309966867143,6.0,12.0,100.0,10000.0,99999,,0.0,0,1116001012102302060302404627351000600007000080000
4786,LHPP,45.9909,18.241,2024-04-30 12:15:00,,,,,24.0,1022.0,2821.799126205959,7.0,18.0,120.0,10000.0,99999,,0.0,0,1116001218102402070302204821751000600007000080000
4791,LZPP,48.6252,17.8284,2024-04-30 12:30:00,,,,,24.0,1023.0,1932.501260581346,9.0,12.0,140.0,10000.0,99999,,0.0,0,1116001412102402090302304932551000600007000080000
4792,LZZI,49.2315,18.6135,2024-04-30 12:30:00,,,,,25.0,1023.0,2781.9377805439112,8.0,7.0,220.0,10000.0,99999,,0.0,0,1116002207102502080302304781951000600007000080000
4793,EGAE,55.0428,-7.16111,2024-04-30 12:20:00,,,,,12.0,1001.0,1064.5438594273971,10.0,13.0,150.0,10000.0,99999,,0.0,0,11160015131012020100300104064551000600007000080000
4794,EGDY,51.0094,-2.63882,2024-04-30 12:20:00,,,,,16.0,1007.0,1173.7000472870561,9.0,18.0,170.0,10000.0,99999,,0.0,0,1116001718101602090300704173751000600007000080000
4798,EGQS,57.7052,-3.33917,2024-04-30 12:20:00,,,,,15.0,1008.0,1106.393976100791,7.0,13.0,140.0,10000.0,99999,,0.0,0,1116001413101502070300804106351000600007000080000
4799,EGUW,52.1273,0.95626,2024-04-30 12:20:00,,,,,16.0,1012.0,1697.9042907174876,7.0,12.0,150.0,10000.0,99999,,0.0,0,1116001512101602070301204697951000600007000080000
4800,EGVO,51.2341,-0.94283,2024-04-30 12:20:00,,,,,17.0,1010.0,1957.0552726439462,5.0,15.0,160.0,10000.0,99999,,0.0,0,1116001615101702050301004957051000600007000080000
4801,EGXC,53.093,-0.16601,2024-04-30 12:20:00,,,,,19.0,1010.0,1055.846253354337,9.0,13.0,160.0,10000.0,99999,,0.0,0,1116001613101902090301004055851000600007000080000
4803,LKKV,50.203,12.915,2024-04-30 12:30:00,,,,,23.0,1017.0,5117.650272303955,9.0,12.0,100.0,10000.0,99999,,0.0,0,1116001012102302090301704117651000600007000080000
4828,LJCE,45.9,15.5302,2024-04-30 12:30:00,,,,,25.0,1019.0,1823.6700369026391,8.0,5.0,80.0,10000.0,99999,,0.0,0,1116000805102502080301904823651000600007000080000
4839,LFOV,48.0314,-0.74299,2024-04-30 12:30:00,,,,,19.0,1010.0,1678.4795225423356,8.0,10.0,170.0,10000.0,99999,,0.0,0,1116001710101902080301004678451000600007000080000
4842,LFRV,47.7233,-2.71856,2024-04-30 12:30:00,,,,,15.0,1009.0,2221.324826144497,9.0,15.0,180.0,10000.0,99999,,0.0,0,1116001815101502090300904221351000600007000080000
4843,LFSG,48.325,6.06998,2024-04-30 12:30:00,,,,,21.0,1014.0,3294.1474728508556,13.0,4.0,10.0,10000.0,99999,,0.0,0,11160001041021020130301404294151000600007000080000
4850,LFAQ,49.9715,2.69766,2024-04-30 12:30:00,,,,,17.0,1013.0,1856.8440684331113,11.0,10.0,140.0,10000.0,99999,,0.0,0,11160014101017020110301304856851000600007000080000
4851,LFBU,45.7292,0.22146,2024-04-30 12:30:00,,,,,17.0,1011.0,2040.20798334969,11.0,5.0,140.0,10000.0,99999,,0.0,0,11160014051017020110301104040251000600007000080000
4854,LFOZ,47.8969,2.16333,2024-04-30 12:30:00,,,,,17.0,1012.0,1937.5209033102003,12.0,10.0,130.0,10000.0,99999,,0.0,0,11160013101017020120301204937551000600007000080000
4858,LFSM,47.487,6.79054,2024-04-30 12:30:00,,,,,22.0,1013.0,3075.4976395029935,12.0,8.0,30.0,10000.0,99999,,0.0,0,11160003081022020120301304075451000600007000080000
4877,LYKV,43.8183,20.5872,2024-04-30 12:30:00,,,,,19.0,1023.0,2553.7306656948176,9.0,11.0,90.0,10000.0,99999,,0.0,0,1116000911101902090302304553751000600007000080000
4883,LEMI,37.803,-1.125,2024-04-30 12:30:00,,,,,21.0,1014.0,2251.2358175955596,6.0,14.0,300.0,10000.0,99999,,0.0,0,1116003014102102060301404251251000600007000080000
4890,LECH,40.21417,0.07333,2024-04-30 12:30:00,,,,,17.0,1011.0,4202.01301371375,11.0,13.0,120.0,10000.0,99999,,0.0,0,11160012131017020110301104202051000600007000080000
4904,UUDL,57.5607,40.1574,2024-04-30 12:30:00,80.0,36.0,q,green,20.0,1022.0,1571.713374256534,8.0,11.0,270.0,10000.0,99999,,0.0,0,1116002711102002080302204571751000600007800080000
4907,UUMO,55.5117,37.5072,2024-04-30 12:30:00,,,,,22.0,1028.0,2082.316041722504,4.0,9.0,280.0,10000.0,99999,,0.0,0,1116002809102202040302804082351000600007000080000
4908,UUBW,55.5533,38.15,2024-04-30 12:30:00,,,,,23.0,1028.0,1666.756339222003,2.0,6.0,260.0,10000.0,99999,,0.0,0,1116002606102302020302804666751000600007000080000
4909,UUOL,52.7028,39.5378,2024-04-30 12:30:00,,,,,22.0,1031.0,2121.7459507276994,-0.0,4.0,250.0,10000.0,99999,,0.0,0,1116002504102202100303104121751000600007000080000
4918,ULPB,61.8852,34.1547,2024-04-30 12:30:00,,,,,14.0,1021.0,1425.2974819974465,3.0,8.0,290.0,10000.0,99999,,0.0,0,1116002908101402030302104425251000600007000080000
4928,URMG,43.3883,45.6986,2024-04-30 12:30:00,,,,,24.0,1020.0,1020.0,13.0,6.0,290.0,10000.0,99999,,0.0,0,11160029061024020130302004020051000600007000080000
4932,URMO,43.2051,44.6066,2024-04-30 12:30:00,,,,,16.0,1022.0,6098.256227477984,12.0,5.0,270.0,10000.0,99999,,0.0,0,11160027051016020120302204098251000600007000080000
4934,URRP,47.50083,39.93361,2024-04-30 12:30:00,,,,,21.0,1027.0,1541.2357685924512,2.0,12.0,90.0,10000.0,99999,,0.0,0,1116000912102102020302704541251000600007000080000
4939,ULWC,59.27667,38.02833,2024-04-30 12:30:00,,,,,15.0,1021.0,2037.1786910632143,10.0,7.0,250.0,10000.0,99999,,0.0,0,11160025071015020100302104037151000600007000080000
4940,UUBC,54.55,36.36667,2024-04-30 12:30:00,,,,,22.0,1030.0,2271.5311853839166,3.0,6.0,240.0,10000.0,99999,,0.0,0,1116002406102202030303004271551000600007000080000
4941,UUOB,50.6438,36.5901,2024-04-30 12:30:00,,,,,21.0,1033.0,2525.152899172283,1.0,4.0,80.0,10000.0,99999,,0.0,0,1116000804102102010303304525151000600007000080000
4942,UUOK,51.7506,36.2956,2024-04-30 12:30:00,,,,,21.0,1033.0,2413.083481022969,1.0,2.0,60.0,10000.0,99999,,0.0,0,1116000602102102010303304413051000600007000080000
4945,UWPS,54.12513,45.21226,2024-04-30 12:30:00,,,,,22.0,1027.0,2307.498117695286,3.0,7.0,290.0,10000.0,99999,,0.0,0,1116002907102202030302704307451000600007000080000
4948,UWKS,56.0903,47.3473,2024-04-30 12:30:00,,,,,20.0,1023.0,2167.3336071915446,2.0,9.0,280.0,10000.0,99999,,0.0,0,1116002809102002020302304167351000600007000080000
4950,LPCS,38.725,-9.35523,2024-04-30 12:30:00,,,,,17.0,1018.0,1766.4512850959711,15.0,9.0,250.0,10000.0,99999,,0.0,0,11160025091017020150301804766451000600007000080000
4960,LEHC,42.0761,-0.31667,2024-04-30 12:30:00,,,,,17.0,1012.0,6009.291106334696,9.0,4.0,250.0,10000.0,99999,,0.0,0,1116002504101702090301204009251000600007000080000
4961,LESU,42.3386,1.40917,2024-04-30 12:30:00,,,,,11.0,1012.0,12.293028802737538,10.0,5.0,50.0,10000.0,99999,,0.0,0,1116000505101102010030120412251000600007000080000
4964,LESB,39.5989,2.70278,2024-04-30 12:30:00,17.0,36.0,2,red,18.0,1011.0,1330.676556319727,10.0,10.0,310.0,10000.0,99999,,0.0,0,11160031101018020100301104330651000600007170080000
4981,LQMO,43.2829,17.8459,2024-04-30 12:30:00,,,,,29.0,1015.0,1208.7168181801808,8.0,7.0,200.0,10000.0,99999,,0.0,0,1116002007102902080301504208751000600007000080000
4984,LRBC,46.5219,26.9103,2024-04-30 12:30:00,,,,,21.0,1029.0,2226.683218378609,6.0,5.0,50.0,10000.0,99999,,0.0,0,1116000505102102060302904226651000600007000080000
4986,LRIA,47.1785,27.6206,2024-04-30 12:30:00,,,,,22.0,1029.0,1739.1393439716496,4.0,9.0,80.0,10000.0,99999,,0.0,0,1116000809102202040302904739151000600007000080000
4987,LROD,47.0253,21.9025,2024-04-30 12:30:00,,,,,24.0,1024.0,1788.0061561214568,8.0,5.0,170.0,10000.0,99999,,0.0,0,1116001705102402080302404788051000600007000080000
4988,LRSV,47.6875,26.3541,2024-04-30 12:30:00,,,,,19.0,1030.0,4431.430045084623,9.0,10.0,120.0,10000.0,99999,,0.0,0,1116001210101902090303004431451000600007000080000
4992,EBCV,50.5758,3.831,2024-04-30 12:25:00,,,,,18.0,1013.0,1413.8153294939332,11.0,5.0,130.0,10000.0,99999,,0.0,0,11160013051018020110301304413851000600007000080000
4997,LFBF,43.5456,1.3675,2024-04-30 12:30:00,,,,,15.0,1012.0,2505.4233683777943,11.0,3.0,110.0,10000.0,99999,,0.0,0,11160011031015020110301204505451000600007000080000
4998,LFBX,45.1981,0.81556,2024-04-30 12:30:00,,,,,17.0,1012.0,1763.5892590868775,11.0,4.0,120.0,10000.0,99999,,0.0,0,11160012041017020110301204763551000600007000080000
5027,LRBM,47.6584,23.47,2024-04-30 12:30:00,,,,,25.0,1025.0,2003.0351241773665,5.0,6.0,140.0,10000.0,99999,,0.0,0,1116001406102502050302504003051000600007000080000
5029,LRCL,46.7852,23.6862,2024-04-30 12:30:00,,,,,22.0,1026.0,3103.5155061155065,5.0,10.0,130.0,10000.0,99999,,0.0,0,1116001310102202050302604103551000600007000080000
5030,LRCV,44.3181,23.8886,2024-04-30 12:30:00,,,,,16.0,1026.0,2707.902886141953,10.0,15.0,80.0,10000.0,99999,,0.0,0,11160008151016020100302604707951000600007000080000
5035,LEBG,42.3576,-3.62076,2024-04-30 12:30:00,,,,,14.0,1012.0,11.11810348799075,3.0,16.0,210.0,10000.0,99999,,0.0,0,111600211610140203030120411151000600007000080000
5055,LRSB,45.7856,24.0913,2024-04-30 12:30:00,,,,,19.0,1026.0,4751.59768939894,6.0,6.0,120.0,10000.0,99999,,0.0,0,1116001206101902060302604751551000600007000080000
5056,LRSM,47.7033,22.8857,2024-04-30 12:30:00,,,,,25.0,1025.0,1653.8059129127184,3.0,11.0,140.0,10000.0,99999,,0.0,0,1116001411102502030302504653851000600007000080000
5057,LUKK,46.9277,28.931,2024-04-30 12:30:00,,,,,22.0,1029.0,1743.0574035074565,6.0,16.0,90.0,10000.0,99999,,0.0,0,1116000916102202060302904743051000600007000080000
5062,GEML,35.2798,-2.95626,2024-04-30 12:30:00,,,,,20.0,1019.0,1305.468696253785,8.0,14.0,300.0,10000.0,99999,,0.0,0,1116003014102002080301904305451000600007000080000
