,station,lat,lon,time,weather,weatherfont,weathersymbol,weathercolour,temperature,pressure,sl_pressure,dewpoint,windspeed,winddir,visibility,visual_range,cloudcover,pressure3h_change,rain,wwletter
53,EEEI,59.2602996826,24.2084999084,2024-03-06 11:50:00,,,,,5.0,1033.0,(1532.5003787680382+0j),-7.0,1.0,,10000.0,99999,,0j,0,1116003601100502170303304000051000600007000080000
780,EKSB,54.9644012451,9.7917299271,2024-03-06 11:51:00,,,,,5.0,1027.0,(1201.2228889873072+0j),3.0,6.0,110.0,7000.0,99999,6.0,0j,0,1114061106100502030302704000051000600007000086000
812,ENVA,63.4578018188,10.9239997864,2024-03-06 11:50:00,,,,,4.0,1030.0,(1569.4367770151082+0j),-3.0,6.0,250.0,10000.0,99999,,0j,0,1116002506100402130303004000051000600007000080000
834,LGKZ,40.2860984802,21.8407993317,2024-03-06 11:50:00,,,,,14.0,1015.0,(8222.159091061916+0j),5.0,0.0,0.0,10000.0,99999,3.0,0j,0,1116030000101402050301504000051000600007000083000
857,LIPK,44.1948013306,12.0700998306,2024-03-06 11:50:00,,,,,13.0,1015.0,(1287.3739641391962+0j),1.0,6.0,270.0,10000.0,99999,3.0,0j,0,1116032706101302010301504000051000600007000083000
1008,ETNG,50.9608001709,6.0424199104,2024-03-06 11:50:00,,,,,10.0,1022.0,(2243.7510887101644+0j),5.0,5.0,30.0,10000.0,99999,6.0,0j,0,1116060305101002050302204000051000600007000086000
1045,LGLR,39.6562825886,22.3400008678,2024-03-06 11:50:00,,,,,16.0,1015.0,(1590.3424986963007+0j),9.0,0.0,0.0,10000.0,99999,1.0,0j,0,1116010000101602090301504000051000600007000081000
1050,LGTG,38.3398017883,23.5650005341,2024-03-06 11:50:00,,,,,17.0,1016.0,(2181.316732795044+0j),6.0,4.0,320.0,10000.0,99999,3.0,0j,0,1116033204101702060301604000051000600007000083000
1105,ETEK,49.6502990723,7.300069809,2024-03-06 11:55:00,,,,,7.5,30.16,(1030.16+0j),0.2,3.0,310.0,10000.0,99999,4.0,0j,0,111604310310075200533014000051000600007000084000
1149,LGSY,38.9676017761,24.4871997833,2024-03-06 11:50:00,,,,,14.0,1017.0,(1128.6940418902616+0j),8.0,7.0,360.0,10000.0,99999,3.0,0j,0,1116033607101402080301704000051000600007000083000
1406,LTAY,37.7855987549,29.7012996674,2024-03-06 11:50:00,,,,,10.0,1013.0,(13.866754120409178+0j),4.0,3.0,170.0,10000.0,99999,4.0,0j,0,1116041703101002040301304000051000600007000084000
1409,LTBH,40.1376991272,26.4267997742,2024-03-06 11:50:00,,,,,14.0,1016.0,(1073.716999703732+0j),5.0,8.0,360.0,10000.0,99999,4.0,0j,0,1116043608101402050301604000051000600007000084000
1411,LTBY,39.8098983765,30.5193996429,2024-03-06 11:50:00,,,,,7.0,1013.0,(16.8010920504031+0j),2.0,9.0,320.0,10000.0,99999,4.0,0j,0,1116043209100702020301304000051000600007000084000
1417,LTCN,37.5388259888,36.9535217285,2024-03-06 11:50:00,81.0,36.0,r,green,9.0,1011.0,(10.277057757572464+0j),9.0,9.0,260.0,10000.0,99999,6.0,0j,0,1116062609100902090301104000051000600007810086000
1418,LTCT,39.9766273499,43.8766479492,2024-03-06 11:50:00,,,,,13.0,1012.0,(12.289098743513648+0j),-1.0,12.0,260.0,10000.0,99999,4.0,0j,0,1116042612101302110301204000051000600007000084000
1419,LTDA,36.36277771,36.2822227478,2024-03-06 11:50:00,,,,,19.0,1009.0,(1543.875857239804+0j),9.0,17.0,210.0,10000.0,99999,6.0,0j,0,1116062117101902090300904000051000600007000086000
1420,LTFD,39.554599762,27.0137996674,2024-03-06 11:50:00,,,,,14.0,1015.0,(1142.0505026527253+0j),8.0,11.0,70.0,10000.0,99999,6.0,0j,0,1116060711101402080301504000051000600007000086000
1421,LTFG,36.2992172241,32.3005981445,2024-03-06 11:50:00,,,,,17.0,1011.0,(1192.070431322187+0j),10.0,4.0,90.0,10000.0,99999,3.0,0j,0,11160309041017020100301104000051000600007000083000
1494,LBPG,42.2904014587,24.7140007019,2024-03-06 12:00:00,,,,,14.0,1015.0,(1529.0535491144492+0j),9.0,4.0,80.0,10000.0,99999,4.0,0j,0,1116040804101402090301504000051000600007000084000
1495,LBIA,42.4548988342,26.3521995544,2024-03-06 12:00:00,,,,,13.0,1016.0,(2682.906957381585+0j),6.0,6.0,90.0,4000.0,99999,6.0,0j,0,1112060906101302060301604000051000600007000086000
1496,LBPL,43.4514007568,24.5027999878,2024-03-06 12:00:00,,,,,11.0,1017.0,(2251.2774430893282+0j),6.0,4.0,90.0,8000.0,99999,5.0,0j,0,1114050904101102060301704000051000600007000085000
1497,LBWB,43.4238014221,28.1812992096,2024-03-06 12:00:00,,,,,8.0,1016.0,(4903.203848639971+0j),1.0,12.0,20.0,10000.0,99999,8.0,0j,0,1116080212100802010301604000051000600007000088000
1519,LTAL,41.314201355,33.7957992554,2024-03-06 11:50:00,,,,,5.0,1009.0,(23.546343513645034+0j),1.0,9.0,260.0,10000.0,99999,6.0,0j,0,1116062609100502010300904000051000600007000086000
1520,LTAS,41.506401062,32.0886001587,2024-03-06 11:50:00,80.0,36.0,q,green,8.0,1015.0,(1189.9656737773296+0j),5.0,7.0,250.0,8000.0,99999,4.0,0j,0,1114042507100802050301504000051000600007800084000
1522,LTBD,37.8149986267,27.8952999115,2024-03-06 11:50:00,,,,,15.0,1014.0,(1260.9273445188205+0j),9.0,0.0,0.0,10000.0,99999,6.0,0j,0,1116060000101502090301404000051000600007000086000
1523,LTBO,38.6814994812,29.4717006683,2024-03-06 11:50:00,,,,,9.0,1013.0,(15.327167403817153+0j),1.0,11.0,320.0,10000.0,99999,4.0,0j,0,1116043211100902010301304000051000600007000084000
1525,LTCL,37.9789009094,41.8404006958,2024-03-06 11:50:00,,,,,16.0,1014.0,(7109.414345789799+0j),3.0,9.0,160.0,10000.0,99999,4.0,0j,0,1116041609101602030301404000051000600007000084000
1526,LTCM,42.0158004761,35.0663986206,2024-03-06 11:50:00,,,,,11.0,1010.0,(1073.5784705086396+0j),6.0,23.0,280.0,10000.0,99999,3.0,0j,0,1116032823101102060301004000051000600007000083000
1527,LTCO,39.6545410156,43.0259780884,2024-03-06 11:50:00,,,,,4.0,1013.0,(29.479135890175684+0j),2.0,12.0,220.0,10000.0,99999,6.0,0j,0,1116062212100402020301304000051000600007000086000
1529,LTCR,37.2233009338,40.6316986084,2024-03-06 11:50:00,,,,,18.0,1011.0,(5588.875195142373+0j),5.0,13.0,130.0,9000.0,99999,4.0,0j,0,1115041313101802050301104000051000600007000084000
1530,LTFB,37.9506988525,27.329000473,2024-03-06 11:50:00,,,,,16.0,1014.0,(1035.7546455247682+0j),9.0,11.0,270.0,10000.0,99999,6.0,0j,0,1116062711101602090301404000051000600007000086000
1531,LTFK,40.204498291,25.8833007812,2024-03-06 11:50:00,,,,,14.0,1017.0,(1204.9374746576898+0j),7.0,8.0,40.0,10000.0,99999,,0j,0,1116000408101402070301704000051000600007000080000
1542,LUBM,47.862701416,28.2127990723,2024-03-06 12:00:00,,,,,12.0,1018.0,(2070.278497996641+0j),-2.0,99999.0,,10000.0,99999,,0j,0,1116003699999101202120301804000051000600007000080000
1567,EGQL,56.3728981018,-2.8684399128,2024-03-06 11:50:00,,,,,7.0,1022.0,(1218.90342313787+0j),4.0,14.0,140.0,10000.0,99999,8.0,0j,0,1116081414100702040302204000051000600007000088000
1955,EGYE,52.9622001648,-0.5616250038,2024-03-06 11:50:00,10.0,36.0,+,yellow,6.0,1021.0,(3807.2183593433438+0j),6.0,2.0,330.0,4000.0,99999,3.0,0j,0,1112033302100602060302104000051000600007100083000
2383,LPBJ,38.0788993835,-7.9324002266,2024-03-06 12:00:00,,,,,15.0,1020.0,(2852.348732872752+0j),5.0,5.0,110.0,10000.0,99999,1.0,0j,0,1116011105101502050302004000051000600007000081000
2392,UMII,55.126499176,30.3495998383,2024-03-06 12:00:00,,,,,0.0,1027.0,(39.27316133755799+0j),-7.0,4.0,40.0,10000.0,99999,,0j,0,1116000404100002170302704000051000600007000080000
2417,UWLW,54.4010009766,48.8027000427,2024-03-06 12:00:00,,,,,-5.0,1024.0,(30.580307184599214+0j),-10.0,4.0,10.0,10000.0,99999,,0j,0,11160001041105021100302404000051000600007000080000
2450,EGUL,52.4093017578,0.5609999895,2024-03-06 11:55:00,10.0,36.0,+,yellow,8.8,30.17,(1161.5224692525928+0j),6.1,0.0,0.0,8000.0,99999,4.0,0j,0,111404000010088206833014000051000600007100084000
2453,EGVA,51.6822013855,-1.7900300026,2024-03-06 11:55:00,,,,,5.8,30.13,(3228.6247906124204+0j),4.8,3.0,100.0,10000.0,99999,4.0,0j,0,111604100310057204733014000051000600007000084000
2501,EGWC,52.6399993896,-2.3055799007,2024-03-06 11:50:00,,,,,7.0,1021.0,(2681.6798063368424+0j),5.0,4.0,110.0,6000.0,99999,6.0,0j,0,1113061104100702050302104000051000600007000086000
2563,LGHI,38.3432006836,26.1406002045,2024-03-06 11:50:00,,,,,15.0,1014.0,(1048.9018986207736+0j),9.0,2.0,40.0,10000.0,99999,2.0,0j,0,1116020402101502090301404000051000600007000082000
2564,LGKC,36.2742996216,23.0170001984,2024-03-06 11:50:00,,,,,15.0,1017.0,(4234.122963156724+0j),9.0,3.0,,10000.0,99999,2.0,0j,0,1116023603101502090301704000051000600007000082000
2565,LGNX,37.0811004639,25.3680992126,2024-03-06 11:50:00,,,,,17.0,1015.0,(1035.4896871470726+0j),8.0,10.0,340.0,10000.0,99999,3.0,0j,0,1116033410101702080301504000051000600007000083000
2566,LGSO,37.4227981567,24.9508991241,2024-03-06 11:50:00,,,,,15.0,1016.0,(1619.7895271899574+0j),10.0,7.0,20.0,10000.0,99999,4.0,0j,0,11160402071015020100301604000051000600007000084000
2568,LKKB,50.1213989258,14.5436000824,2024-03-06 12:00:00,,,,,9.0,1020.0,(6074.294292348659+0j),3.0,5.0,320.0,10000.0,99999,4.0,0j,0,1116043205100902030302004000051000600007000084000
2570,LKLN,49.675201416,13.274600029,2024-03-06 12:00:00,,,,,9.0,1020.0,(7505.878525751705+0j),3.0,6.0,50.0,10000.0,99999,5.0,0j,0,1116050506100902030302004000051000600007000085000
2587,LTFH,41.2545013428,36.5671005249,2024-03-06 11:50:00,,,,,13.0,1009.0,(1057.220344305991+0j),8.0,8.0,350.0,10000.0,99999,3.0,0j,0,1116033508101302080300904000051000600007000083000
2594,UMOO,53.9548988342,30.0951004028,2024-03-06 12:00:00,,,,,3.0,1027.0,(11.368874680309121+0j),-6.0,5.0,70.0,10000.0,99999,3.0,0j,0,1116030705100302160302704000051000600007000083000
2602,LIPB,46.4602012634,11.3263998032,2024-03-06 11:50:00,,,,,10.0,1016.0,(4713.861185700718+0j),6.0,3.0,10.0,10000.0,99999,3.0,0j,0,1116030103101002060301604000051000600007000083000
2615,LIBF,41.4328994751,15.5349998474,2024-03-06 11:50:00,,,,,18.0,1015.0,(1576.279900503125+0j),6.0,18.0,250.0,10000.0,99999,1.0,0j,0,1116012518101802060301504000051000600007000081000
2619,LIMA,45.0863990784,7.6033701897,2024-03-06 11:50:00,,,,,10.0,1016.0,(5524.243290883092+0j),4.0,6.0,160.0,10000.0,99999,3.0,0j,0,1116031606101002040301604000051000600007000083000
2625,LIRI,40.6203994751,14.9112997055,2024-03-06 11:50:00,,,,,17.0,1018.0,(1273.522692797789+0j),12.0,12.0,230.0,10000.0,99999,1.0,0j,0,11160123121017020120301804000051000600007000081000
2719,LIBC,38.9972000122,17.0802001953,2024-03-06 11:50:00,,,,,19.0,1016.0,(2133.050854668385+0j),6.0,8.0,220.0,10000.0,99999,,0j,0,1116002208101902060301604000051000600007000080000
2720,LICG,36.8165016174,11.9688997269,2024-03-06 11:50:00,,,,,14.0,1023.0,(2982.6781914127523+0j),8.0,10.0,330.0,10000.0,99999,1.0,0j,0,1116013310101402080302304000051000600007000081000
2722,LICT,37.9113998413,12.4879999161,2024-03-06 11:55:00,,,,,16.0,1022.0,(1077.1864618842797+0j),9.0,9.0,310.0,10000.0,99999,1.0,0j,0,1116013109101602090302204000051000600007000081000
2723,LIMG,44.0505981445,8.1274299622,2024-03-06 11:50:00,,,,,12.0,1016.0,(1480.2853706697504+0j),1.0,9.0,300.0,10000.0,99999,3.0,0j,0,1116033009101202010301604000051000600007000083000
2727,LIBN,40.239200592,18.1333007813,2024-03-06 11:55:00,,,,,16.0,1016.0,(1377.4044346396486+0j),6.0,8.0,250.0,10000.0,99999,1.0,0j,0,1116012508101602060301604000051000600007000081000
2732,LIED,39.3541984558,8.9724798203,2024-03-06 11:55:00,61.0,36.0,^,green,15.0,1021.0,(1264.546235855146+0j),5.0,11.0,280.0,10000.0,99999,4.0,0j,0,1116042811101502050302104000051000600007610084000
2737,LIPA,46.0318984985,12.5965003967,2024-03-06 11:55:00,,,,,10.0,1015.0,(2769.928770943035+0j),7.0,9.0,10.0,10000.0,99999,4.0,0j,0,1116040109101002070301504000051000600007000084000
2739,LIPC,44.2242012024,12.3072004318,2024-03-06 11:55:00,,,,,13.0,1015.0,(1063.507085699287+0j),3.0,7.0,280.0,10000.0,99999,1.0,0j,0,1116012807101302030301504000051000600007000081000
2742,LIPI,45.9786987305,13.0493001938,2024-03-06 11:55:00,,,,,10.0,1015.0,(1709.3001368648665+0j),6.0,8.0,360.0,10000.0,99999,3.0,0j,0,1116033608101002060301504000051000600007000083000
2746,LIPU,45.3958015442,11.8479003906,2024-03-06 11:50:00,,,,,13.0,1015.0,(1135.250061884366+0j),9.0,10.0,70.0,10000.0,99999,3.0,0j,0,1116030710101302090301504000051000600007000083000
2749,LIQW,44.0880012512,9.987950325,2024-03-06 11:55:00,,,,,13.0,1014.0,(1136.926986222346+0j),6.0,7.0,170.0,10000.0,99999,3.0,0j,0,1116031707101302060301404000051000600007000083000
2751,LIRE,41.654499054,12.4451999664,2024-03-06 11:55:00,,,,,14.0,1016.0,(1119.8217066615064+0j),10.0,22.0,270.0,10000.0,99999,3.0,0j,0,11160327221014020100301604000051000600007000083000
2753,LIRG,41.9902992249,12.7407999039,2024-03-06 11:55:00,,,,,15.0,1017.0,(1771.1217962010858+0j),8.0,13.0,240.0,10000.0,99999,2.0,0j,0,1116022413101502080301704000051000600007000082000
2755,LIRH,41.6464004517,13.2997999191,2024-03-06 11:55:00,,,,,12.0,1015.0,(1015+0j),4.0,6.0,270.0,7000.0,99999,3.0,0j,0,1114032706101202040301504000051000600007000083000
2759,LIRU,41.9519004822,12.4989004135,2024-03-06 11:50:00,,,,,15.0,1016.0,(1146.6524237491412+0j),6.0,13.0,260.0,10000.0,99999,6.0,0j,0,1116062613101502060301604000051000600007000086000
2761,LIRV,42.4301986694,12.0642004013,2024-03-06 11:55:00,,,,,12.0,1015.0,(4907.1399371482075+0j),3.0,15.0,240.0,10000.0,99999,2.0,0j,0,1116022415101202030301504000051000600007000082000
2763,LICZ,37.4016990662,14.9224004745,2024-03-06 11:55:00,,,,,19.0,1018.0,(1166.9465163192117+0j),-5.0,14.0,300.0,10000.0,99999,,0j,0,1116003014101902150301804000051000600007000080000
2764,LIMP,44.8245010376,10.2964000702,2024-03-06 11:50:00,,,,,12.0,1015.0,(1522.7420042705921+0j),6.0,5.0,310.0,10000.0,99999,3.0,0j,0,1116033105101202060301504000051000600007000083000
2782,ETIK,49.4738998413,10.3880996704,2024-03-06 11:55:00,,,,,9.4,30.13,(6686.2931141567005+0j),5.8,6.0,30.0,10000.0,99999,5.0,0j,0,111605030610094205433014000051000600007000085000
2791,LIMN,45.5295982361,8.6692199707,2024-03-06 11:55:00,61.0,36.0,^,green,10.0,1015.0,(3652.841669508787+0j),6.0,9.0,10.0,10000.0,99999,2.0,0j,0,1116020109101002060301504000051000600007610082000
2799,LIBA,41.5414009094,15.7180995941,2024-03-06 11:55:00,,,,,18.0,1014.0,(1391.065484711525+0j),9.0,5.0,240.0,10000.0,99999,2.0,0j,0,1116022405101802090301404000051000600007000082000
2801,LIMS,44.9131011963,9.7233295441,2024-03-06 11:55:00,,,,,12.0,1014.0,(2621.9952329018947+0j),8.0,5.0,330.0,10000.0,99999,1.0,0j,0,1116013305101202080301404000051000600007000081000
2802,LIPF,44.8160018921,11.6134004593,2024-03-06 11:55:00,,,,,17.0,1014.0,(1055.113197325182+0j),8.0,3.0,140.0,10000.0,99999,1.0,0j,0,1116011403101702080301404000051000600007000081000
2803,LIPS,45.6848983765,12.0829000473,2024-03-06 11:55:00,,,,,12.0,1015.0,(1442.041447448067+0j),8.0,13.0,50.0,10000.0,99999,3.0,0j,0,1116030513101202080301504000051000600007000083000
2804,LIRL,41.5424003601,12.9090003967,2024-03-06 11:55:00,,,,,15.0,1017.0,(1244.443111445865+0j),7.0,16.0,270.0,10000.0,99999,2.0,0j,0,1116022716101502070301704000051000600007000082000
2821,LPOV,40.9159011841,-8.6459197998,2024-03-06 12:00:00,,,,,16.0,1019.0,(1143.9387947476102+0j),4.0,12.0,170.0,10000.0,99999,1.0,0j,0,1116011712101602040301904000051000600007000081000
2823,ETAD,49.9726982117,6.6925001144,2024-03-06 11:55:00,,,,,8.5,30.16,(8030.441221364629+0j),2.7,4.0,240.0,10000.0,99999,,0j,0,111600240410085202533014000051000600007000080000
2824,ETAR,49.4369010925,7.600279808,2024-03-06 11:55:00,,,,,10.3,30.16,(4589.99612943461+0j),2.9,0.0,0.0,10000.0,99999,3.0,0j,0,111603000010103202333014000051000600007000083000
2826,LIRM,41.060798645,14.0818996429,2024-03-06 11:55:00,,,,,15.0,1018.0,(1086.1962334476477+0j),8.0,18.0,230.0,10000.0,99999,2.0,0j,0,1116022318101502080301804000051000600007000082000
2835,LOAV,47.9650001526,16.2600002289,2024-03-06 12:00:00,,,,,11.0,99999.0,(99999+0j),7.0,9.0,330.0,10000.0,99999,3.0,0j,0,1116033309101102070399904000051000600007000083000
2837,LKKU,49.0293998718,17.439699173,2024-03-06 12:00:00,,,,,9.0,1018.0,(3971.7263987411307+0j),-0.0,18.0,360.0,10000.0,99999,1.0,0j,0,1116013618100902100301804000051000600007000081000
2838,LOAN,47.8432998657,16.260099411,2024-03-06 12:00:00,,,,,99999.0,99999.0,(99999+0j),99999.0,15.0,360.0,10000.0,99999,1.0,0j,0,11160136151099999020999990399904000051000600007000081000
2846,LPAR,38.8833007813,-9.0300998688,2024-03-06 12:00:00,,,,,14.0,1020.0,(1047.5425598155157+0j),10.0,2.0,,10000.0,99999,1.0,0j,0,11160136021014020100302004000051000600007000081000
2847,LPMR,39.831199646,-8.887260437,2024-03-06 12:00:00,,,,,15.0,1020.0,(1491.5190882356517+0j),5.0,8.0,140.0,10000.0,99999,1.0,0j,0,1116011408101502050302004000051000600007000081000
2848,LPMT,38.7038993835,-9.0359201431,2024-03-06 12:00:00,,,,,14.0,1020.0,(1137.231275909912+0j),10.0,5.0,350.0,10000.0,99999,1.0,0j,0,11160135051014020100302004000051000600007000081000
2849,LPST,38.8311004639,-9.3395500183,2024-03-06 12:00:00,,,,,15.0,1020.0,(2227.0121483484427+0j),6.0,10.0,160.0,10000.0,99999,,0j,0,1116001610101502060302004000051000600007000080000
2852,ETHN,49.3919448853,9.9588890076,2024-03-06 12:11:00,10.0,36.0,+,yellow,7.0,1020.0,(10.361361387850641+0j),6.0,5.0,30.0,5000.0,99999,7.0,0j,0,1113070305100702060302004000051000600007100087000
2855,LIQN,42.4272003174,12.8516998291,2024-03-06 12:10:00,95.0,36.0,2,red,9.0,1016.0,(7978.725553967804+0j),4.0,8.0,140.0,9000.0,99999,3.0,0j,0,1115031408100902040301604000051000600007950083000
2860,LTCP,37.7313995361,38.4688987732,2024-03-06 12:14:00,,,,,9.0,1012.0,(12.594689664497047+0j),8.0,0.0,0.0,10000.0,99999,3.0,0j,0,1116030000100902080301204000051000600007000083000
2875,LIRS,42.7597007751,11.0719003677,2024-03-06 12:10:00,,,,,13.0,1016.0,(1061.832142641469+0j),9.0,8.0,210.0,10000.0,99999,3.0,0j,0,1116032108101302090301604000051000600007000083000
2877,LIBV,40.7677993774,16.9333000183,2024-03-06 12:11:00,17.0,36.0,2,red,15.0,1015.0,(4721.474237479746+0j),10.0,11.0,270.0,10000.0,99999,3.0,0j,0,11160327111015020100301504000051000600007170083000
2880,EVGA,56.778301239,24.8539009094,2024-03-06 12:20:00,,,,,4.0,1030.0,(3263.358928881977+0j),-9.0,4.0,,10000.0,99999,,0j,0,1116003604100402190303004000051000600007000080000
2885,LATI,41.4146995544,19.7206001282,2024-03-06 12:20:00,,,,,16.0,1016.0,(1304.5091168659953+0j),9.0,6.0,240.0,10000.0,99999,3.0,0j,0,1116032406101602090301604000051000600007000083000
2886,LMML,35.857498,14.4775,2024-03-06 12:15:00,,,,,17.0,1021.0,(1708.6166924070778+0j),11.0,13.0,310.0,10000.0,99999,1.0,0j,0,11160131131017020110302104000051000600007000081000
2913,EYSA,55.893901825,23.3950004578,2024-03-06 12:20:00,,,,,3.0,1030.0,(8373.449120819381+0j),-4.0,9.0,50.0,10000.0,99999,,0j,0,1116000509100302140303004000051000600007000080000
2917,EVVA,57.35779953,21.5442008972,2024-03-06 12:20:00,,,,,6.0,1031.0,(1145.1082449728135+0j),-4.0,5.0,80.0,10000.0,99999,,0j,0,1116000805100602140303104000051000600007000080000
2931,LSZC,46.9744444444,8.3969444444,2024-03-06 12:20:00,71.0,36.0,h,magenta,2.0,1022.0,(24.317551391973822+0j),0.0,1.0,,10000.0,99999,3.0,0j,0,1116033601100202000302204000051000600007710083000
2939,LRCT,46.5023002625,23.8859004974,2024-03-06 12:00:00,61.0,36.0,^,green,8.0,1015.0,(7639.33782777698+0j),8.0,4.0,320.0,7000.0,99999,7.0,0j,0,1114073204100802080301504000051000600007610087000
2941,EKRS,55.4258003235,11.8066997528,2024-03-06 12:20:00,,,,,4.0,1028.0,(2194.124399892613+0j),4.0,7.0,90.0,10000.0,99999,8.0,0j,0,1116080907100402040302804000051000600007000088000
2966,LSMA,46.943901062,8.2841701508,2024-03-06 12:20:00,61.0,36.0,^,green,1.0,1022.0,(30.23253664784384+0j),0.0,0.0,0.0,10000.0,99999,3.0,0j,0,1116030000100102000302204000051000600007610083000
2967,LSMD,47.398601532,8.648229599,2024-03-06 12:20:00,61.0,36.0,^,green,3.0,1021.0,(20.00129159562447+0j),2.0,3.0,200.0,6000.0,99999,3.0,0j,0,1113032003100302020302104000051000600007610083000
2968,LSMM,46.7433013916,8.1099996567,2024-03-06 12:20:00,68.0,36.0,e,magenta,1.0,1021.0,(31.928792211252045+0j),0.0,2.0,100.0,6000.0,99999,4.0,0j,0,1113041002100102000302104000051000600007680084000
2969,LSMP,46.8432006836,6.9150600433,2024-03-06 12:20:00,,,,,8.0,1021.0,(9.99837019243888+0j),-1.0,3.0,,10000.0,99999,6.0,0j,0,1116063603100802110302104000051000600007000086000
3018,LIPL,45.4322013855,10.2677001953,2024-03-06 12:15:00,,,,,11.0,1014.0,(2257.239900327588+0j),8.0,5.0,10.0,5000.0,99999,3.0,0j,0,1113030105101102080301404000051000600007000083000
3033,EGCK,53.1041984558,-4.340280056,2024-03-06 12:20:00,,,,,12.0,1019.0,(1021.9034375594969+0j),4.0,14.0,170.0,10000.0,99999,1.0,0j,0,1116011714101202040301904000051000600007000081000
3036,EGTK,51.8368988037,-1.3200000525,2024-03-06 12:20:00,,,,,7.0,1021.0,(2667.8012148412827+0j),7.0,2.0,,10000.0,99999,2.0,0j,0,1116023602100702070302104000051000600007000082000
3037,EGHC,50.1027984619,-5.6705598831,2024-03-06 12:20:00,,,,,10.0,1017.0,(2731.5048418256138+0j),10.0,14.0,150.0,9000.0,99999,3.0,0j,0,11150315141010020100301704000051000600007000083000
3039,EGHQ,50.4406013489,-4.9954099655,2024-03-06 12:20:00,,,,,10.0,1018.0,(2680.7255300562474+0j),7.0,19.0,130.0,10000.0,99999,6.0,0j,0,1116061319101002070301804000051000600007000086000
3043,EGNO,53.745098114,-2.8830599785,2024-03-06 12:20:00,,,,,10.0,1020.0,(1219.1982570311714+0j),3.0,9.0,160.0,10000.0,99999,1.0,0j,0,1116011609101002030302004000051000600007000081000
3045,EGEO,56.4635009766,-5.3996701241,2024-03-06 12:20:00,,,,,9.0,1019.0,(1097.6237166396434+0j),4.0,13.0,120.0,10000.0,99999,1.0,0j,0,1116011213100902040301904000051000600007000081000
3102,ESOH,60.0200996399,13.5789003372,2024-03-06 12:20:00,,,,,2.0,1033.0,(12.480943514906608+0j),-4.0,5.0,50.0,10000.0,99999,,0j,0,1116000505100202140303304000051000600007000080000
3110,ESNZ,63.1944007874,14.5003004074,2024-03-06 12:20:00,,,,,-2.0,1031.0,(88.49918966379362+0j),-4.0,3.0,,10000.0,99999,,0j,0,1116003603110202140303104000051000600007000080000
3112,ESCF,58.4023017883,15.5256996155,2024-03-06 12:20:00,,,,,1.0,1033.0,(15.159025971694321+0j),-1.0,7.0,40.0,10000.0,99999,6.0,0j,0,1116060407100102110303304000051000600007000086000
3114,ESIB,58.426399231,12.7144002914,2024-03-06 12:20:00,,,,,1.0,1033.0,(10.016450887781364+0j),-2.0,10.0,80.0,10000.0,99999,6.0,0j,0,1116060810100102120303304000051000600007000086000
3115,ESPE,65.8752975464,20.1499004364,2024-03-06 12:20:00,,,,,-0.0,1031.0,(39.42612399125831+0j),-3.0,0.0,0.0,10000.0,99999,,0j,0,1116000000110002130303104000051000600007000080000
3117,ESIA,58.5138015747,14.5071001053,2024-03-06 12:20:00,,,,,0.0,1033.0,(39.50260531810847+0j),-2.0,12.0,70.0,10000.0,99999,6.0,0j,0,1116060712100002120303304000051000600007000086000
3118,ESCM,59.8973007202,17.5886001587,2024-03-06 12:20:00,,,,,3.0,1034.0,(1951.4101187594406+0j),-1.0,5.0,360.0,10000.0,99999,,0j,0,1116003605100302110303404000051000600007000080000
3129,EFET,68.3626022339,23.4242992401,2024-03-06 12:20:00,,,,,-1.0,1028.0,(61.95215537583386+0j),-8.0,2.0,,10000.0,99999,,0j,0,1116003602110102180302804000051000600007000080000
3130,EFHA,61.8559989929,24.7866001129,2024-03-06 12:20:00,,,,,4.0,1031.0,(6951.984106808072+0j),-6.0,8.0,320.0,10000.0,99999,,0j,0,1116003208100402160303104000051000600007000080000
3131,EFJO,62.6628990173,29.6075000763,2024-03-06 12:20:00,,,,,-3.0,1029.0,(-4405908.022797649-4605112.287888485j),-6.0,6.0,350.0,10000.0,99999,8.0,0j,0,1116083506110302160302904000051000600007000088000
3134,EFKT,67.7009963989,24.8467998505,2024-03-06 12:20:00,,,,,0.0,1029.0,(39.349642664408144+0j),-5.0,2.0,,10000.0,99999,,0j,0,1116003602100002150302904000051000600007000080000
3136,EFLP,61.0446014404,28.1443996429,2024-03-06 12:20:00,,,,,4.0,1029.0,(5219.186512163848+0j),-8.0,5.0,310.0,10000.0,99999,,0j,0,1116003105100402180302904000051000600007000080000
3137,EFSA,61.9430999756,28.9451007843,2024-03-06 12:20:00,,,,,-5.0,1030.0,(2.6343185977942003+0j),-7.0,6.0,10.0,10000.0,99999,8.0,0j,0,1116080106110502170303004000051000600007000088000
3138,EFUT,60.8964004517,26.9384002686,2024-03-06 12:20:00,,,,,3.0,1030.0,(6591.537752517448+0j),-6.0,8.0,280.0,10000.0,99999,,0j,0,1116002808100302160303004000051000600007000080000
3153,EFKS,65.9876022339,29.2394008636,2024-03-06 12:20:00,,,,,-3.0,1028.0,(421.8741932540042+0j),-5.0,6.0,310.0,10000.0,99999,1.0,0j,0,1116013106110302150302804000051000600007000081000
3155,EFMI,61.6865997314,27.2017993927,2024-03-06 12:20:00,,,,,3.0,1029.0,(6409.699177786263+0j),-6.0,7.0,300.0,10000.0,99999,,0j,0,1116003007100302160302904000051000600007000080000
3159,EFSI,62.6921005249,22.8323001862,2024-03-06 12:20:00,,,,,-3.0,1032.0,(-393.4353146410928-411.22370066920035j),-3.0,5.0,290.0,10000.0,99999,6.0,0j,0,1116062905110302130303204000051000600007000086000
3246,LIMW,45.7384986877,7.3687200546,2024-03-06 12:20:00,,,,,13.0,1016.0,(7767.212748054092+0j),-7.0,12.0,260.0,10000.0,99999,,0j,0,1116002612101302170301604000051000600007000080000
3247,LIMZ,44.547000885,7.6232199669,2024-03-06 12:20:00,,,,,13.0,1016.0,(5690.364814221344+0j),2.0,4.0,,10000.0,99999,1.0,0j,0,1116013604101302020301604000051000600007000081000
3250,LICB,36.9946010208,14.6071815491,2024-03-06 12:20:00,,,,,18.0,1019.0,(2472.4143679335684+0j),6.0,10.0,270.0,10000.0,99999,1.0,0j,0,1116012710101802060301904000051000600007000081000
3252,LIPO,45.4289016724,10.3305997849,2024-03-06 12:20:00,61.0,36.0,^,green,13.0,1015.0,(2123.3987458784013+0j),7.0,7.0,290.0,10000.0,99999,3.0,0j,0,1116032907101302070301504000051000600007610083000
3255,ESMV,57.2921981812,14.1372003555,2024-03-06 12:20:00,,,,,5.0,1030.0,(6496.779935080299+0j),-1.0,7.0,50.0,10000.0,99999,,0j,0,1116000507100502110303004000051000600007000080000
3282,LGIO,39.6963996887,20.8225002289,2024-03-06 12:20:00,,,,,15.0,1016.0,(6026.069927995452+0j),6.0,99999.0,,10000.0,99999,3.0,0j,0,1116033699999101502060301604000051000600007000083000
3297,ESNV,64.5791015625,16.8335990906,2024-03-06 12:20:00,,,,,-1.0,1031.0,(58.515198156582635+0j),-5.0,2.0,,10000.0,99999,,0j,0,1116003602110102150303104000051000600007000080000
3299,ESST,60.1576004028,12.9912996292,2024-03-06 12:20:00,,,,,3.0,1034.0,(7557.33861323478+0j),-3.0,99999.0,,10000.0,99999,,0j,0,1116003699999100302130303404000051000600007000080000
3300,ESUP,67.2455978394,23.0688991547,2024-03-06 12:20:00,,,,,-2.0,1030.0,(559.4947960568677+0j),-6.0,2.0,290.0,10000.0,99999,,0j,0,1116002902110202160303004000051000600007000080000
3301,ESND,62.0477981567,14.4229001999,2024-03-06 12:20:00,,,,,-2.0,1032.0,(92.86187911931103+0j),-6.0,5.0,280.0,10000.0,99999,,0j,0,1116002805110202160303204000051000600007000080000
3305,EVLA,56.5175018311,21.0969009399,2024-03-06 12:20:00,,,,,5.0,1030.0,(1145.2241188538746+0j),-4.0,11.0,80.0,10000.0,99999,,0j,0,1116000811100502140303004000051000600007000080000
3307,EYKA,54.9639015198,24.0848007202,2024-03-06 12:20:00,,,,,5.0,1028.0,(3318.213135268059+0j),-6.0,10.0,,10000.0,99999,,0j,0,1116003610100502160302804000051000600007000080000
3308,EYPA,55.9732017517,21.0939006805,2024-03-06 12:20:00,,,,,6.0,1029.0,(1229.955888710858+0j),-4.0,10.0,90.0,10000.0,99999,,0j,0,1116000910100602140302904000051000600007000080000
3445,EEKE,58.2299003601,22.5095005035,2024-03-06 12:20:00,,,,,3.0,1033.0,(1203.220223105832+0j),-6.0,6.0,100.0,10000.0,99999,,0j,0,1116001006100302160303304000051000600007000080000
3446,EETU,58.3074989319,26.6903991699,2024-03-06 12:20:00,,,,,3.0,1031.0,(4469.28686071858+0j),-8.0,2.0,,10000.0,99999,,0j,0,1116003602100302180303104000051000600007000080000
3447,EEPU,58.4189987183,24.4727993011,2024-03-06 12:20:00,,,,,4.0,1032.0,(1479.7545522520722+0j),-6.0,3.0,,10000.0,99999,,0j,0,1116003603100402160303204000051000600007000080000
3497,EDHI,53.5352783203,9.8355560303,2024-03-06 12:20:00,,,,,8.0,1026.0,(1128.8873550401631+0j),1.0,4.0,110.0,10000.0,99999,,0j,0,1116001104100802010302604000051000600007000080000
3499,EDJA,47.9888000488,10.2395000458,2024-03-06 12:20:00,61.0,36.0,^,green,2.0,1019.0,(27.44362644105101+0j),2.0,10.0,210.0,10000.0,99999,8.0,0j,0,1116082110100202020301904000051000600007610088000
3506,EDTY,49.1183319092,9.7838888168,2024-03-06 12:20:00,,,,,6.0,1020.0,(11.470119390906131+0j),5.0,7.0,340.0,4800.0,99999,8.0,0j,0,1112083407100602050302004000051000600007000088000
3510,EDWE,53.3911094666,7.2274999619,2024-03-06 12:20:00,,,,,8.0,1025.0,(1038.1704306622833+0j),3.0,6.0,100.0,10000.0,99999,3.0,0j,0,1116031006100802030302504000051000600007000083000
3513,EKBI,55.7402992249,9.1517801285,2024-03-06 12:20:00,,,,,4.0,1027.0,(3860.0327432565755+0j),3.0,8.0,100.0,10000.0,99999,7.0,0j,0,1116071008100402030302704000051000600007000087000
3514,EKCH,55.6179008484,12.6560001373,2024-03-06 12:20:00,,,,,4.0,1029.0,(1182.9873573139707+0j),2.0,9.0,90.0,10000.0,99999,6.0,0j,0,1116060909100402020302904000051000600007000086000
3518,EKRN,55.0633010864,14.7595996857,2024-03-06 12:20:00,,,,,5.0,1027.0,(1418.2182895981673+0j),2.0,12.0,60.0,10000.0,99999,3.0,0j,0,1116030612100502020302704000051000600007000083000
3519,EKSP,55.2256011963,9.2639303207,2024-03-06 12:20:00,,,,,5.0,1027.0,(2189.6761920804593+0j),3.0,7.0,110.0,10000.0,99999,4.0,0j,0,1116041107100502030302704000051000600007000084000
3521,EKVJ,55.9901008606,8.3539104462,2024-03-06 12:20:00,,,,,99999.0,1027.0,(99999+0j),99999.0,5.0,110.0,10000.0,99999,7.0,0j,0,11160711051099999020999990302704000051000600007000087000
3529,EETN,59.4132995605,24.8327999115,2024-03-06 12:20:00,,,,,2.0,1032.0,(4076.147298471376+0j),-5.0,5.0,330.0,10000.0,99999,,0j,0,1116003305100202150303204000051000600007000080000
3530,EFHK,60.317199707,24.963300705,2024-03-06 12:20:00,,,,,3.0,1032.0,(3769.7222437207156+0j),-7.0,6.0,280.0,10000.0,99999,,0j,0,1116002806100302170303204000051000600007000080000
3531,EFIV,68.6072998047,27.4053001404,2024-03-06 12:20:00,,,,,2.0,1028.0,(12.563196720696308+0j),-3.0,5.0,240.0,10000.0,99999,1.0,0j,0,1116012405100202130302804000051000600007000081000
3532,EFJY,62.3995018005,25.6783008575,2024-03-06 12:20:00,,,,,0.0,1030.0,(39.38788332783323+0j),-7.0,7.0,340.0,10000.0,99999,,0j,0,1116003407100002170303004000051000600007000080000
3533,EFKE,65.7787017822,24.5820999146,2024-03-06 12:20:00,,,,,-2.0,1031.0,(231.60175261794356+0j),-3.0,2.0,,10000.0,99999,8.0,0j,0,1116083602110202130303104000051000600007000088000
3534,EFKK,63.7211990356,23.1431007385,2024-03-06 12:20:00,,,,,-1.0,1032.0,(-0.16173921625149645-0.16905192944093086j),-3.0,6.0,270.0,10000.0,99999,8.0,0j,0,1116082706110102130303204000051000600007000088000
3536,EFMA,60.1222000122,19.8981990814,2024-03-06 12:20:00,,,,,3.0,1034.0,(1242.2812440949563+0j),-5.0,2.0,,10000.0,99999,,0j,0,1116003602100302150303404000051000600007000080000
3537,EFOU,64.9300994873,25.3546009064,2024-03-06 12:20:00,,,,,-3.0,1032.0,(548.1965519298761+0j),-4.0,4.0,310.0,10000.0,99999,8.0,0j,0,1116083104110302140303204000051000600007000088000
3538,EFPO,61.4617004395,21.7999992371,2024-03-06 12:20:00,,,,,2.0,1033.0,(1919.6978794381544+0j),-3.0,8.0,270.0,10000.0,99999,,0j,0,1116002708100202130303304000051000600007000080000
3539,EFRO,66.5647964478,25.8304004669,2024-03-06 12:20:00,,,,,-3.0,1030.0,(2990.9508086573674+0j),-3.0,4.0,250.0,7000.0,99999,3.0,0j,0,1114032504110302130303004000051000600007000083000
3540,EFTP,61.414100647,23.6044006348,2024-03-06 12:20:00,,,,,2.0,1032.0,(10.652648793965938+0j),-4.0,7.0,240.0,10000.0,99999,,0j,0,1116002407100202140303204000051000600007000080000
3541,EFTU,60.5140991211,22.2628002167,2024-03-06 12:20:00,,,,,4.0,1033.0,(2781.8957629551937+0j),-6.0,3.0,270.0,10000.0,99999,,0j,0,1116002703100402160303304000051000600007000080000
3542,EFVA,63.0507011414,21.7621994019,2024-03-06 12:20:00,,,,,-1.0,1033.0,(464.90296343772246+0j),-3.0,5.0,240.0,10000.0,99999,6.0,0j,0,1116062405110102130303304000051000600007000086000
3544,ENBR,60.2933998108,5.2181401253,2024-03-06 12:20:00,,,,,4.0,1030.0,(2885.287945624257+0j),4.0,12.0,160.0,10000.0,99999,3.0,0j,0,1116031612100402040303004000051000600007000083000
3545,ENCN,58.2042007446,8.0853700638,2024-03-06 12:20:00,71.0,36.0,h,magenta,1.0,1032.0,(3630.6921723410646+0j),-1.0,13.0,50.0,4500.0,99999,6.0,0j,0,1112060513100102110303204000051000600007710086000
3547,ENHD,59.3452987671,5.2083601952,2024-03-06 12:20:00,51.0,36.0,T,green,2.0,1031.0,(2913.0165086724633+0j),0.0,5.0,230.0,10000.0,99999,4.0,0j,0,1116042305100202000303104000051000600007510084000
3550,ENZV,58.876701355,5.6377801895,2024-03-06 12:20:00,,,,,1.0,1031.0,(2235.4550786877244+0j),0.0,3.0,300.0,10000.0,99999,3.0,0j,0,1116033003100102000303104000051000600007000083000
3551,EVRA,56.9235992432,23.9710998535,2024-03-06 12:20:00,,,,,4.0,1031.0,(1367.9655664893098+0j),-7.0,3.0,70.0,10000.0,99999,,0j,0,1116000703100402170303104000051000600007000080000
3552,EYVI,54.6341018677,25.2858009338,2024-03-06 12:20:00,,,,,4.0,1027.0,(9.029951030867963+0j),-7.0,8.0,70.0,10000.0,99999,,0j,0,1116000708100402170302704000051000600007000080000
3555,LGAV,37.9364013672,23.9444999695,2024-03-06 12:20:00,,,,,15.0,1016.0,(1824.0853207438956+0j),9.0,8.0,70.0,10000.0,99999,2.0,0j,0,1116020708101502090301604000051000600007000082000
3557,LGIR,35.3396987915,25.1802997589,2024-03-06 12:20:00,,,,,17.0,1016.0,(1262.0739665953229+0j),9.0,14.0,310.0,10000.0,99999,3.0,0j,0,1116033114101702090301604000051000600007000083000
3560,LGKR,39.6018981934,19.911699295,2024-03-06 12:20:00,,,,,16.0,1016.0,(1029.054787856468+0j),10.0,10.0,230.0,10000.0,99999,2.0,0j,0,11160223101016020100301604000051000600007000082000
3564,LGRP,36.4053993225,28.0862007141,2024-03-06 12:20:00,,,,,17.0,1013.0,(1047.8674786024098+0j),8.0,10.0,260.0,10000.0,99999,1.0,0j,0,1116012610101702080301304000051000600007000081000
3602,ENDU,69.0558013916,18.5403995514,2024-03-06 12:20:00,,,,,0.0,1032.0,(39.46436465468339+0j),-6.0,0.0,0.0,10000.0,99999,1.0,0j,0,1116010000100002160303204000051000600007000081000
3619,ENRO,62.5783996582,11.342300415,2024-03-06 12:20:00,,,,,-2.0,1030.0,(61.394238308880254+0j),-9.0,0.0,0.0,10000.0,99999,,0j,0,1116000000110202190303004000051000600007000080000
3621,ENRY,59.3788986206,10.7855997086,2024-03-06 12:20:00,,,,,3.0,1033.0,(3686.310331956538+0j),-4.0,7.0,60.0,10000.0,99999,1.0,0j,0,1116010607100302140303304000051000600007000081000
3629,ENTO,59.1866989136,10.258600235,2024-03-06 12:20:00,,,,,1.0,1033.0,(14.379233431895553+0j),-4.0,8.0,30.0,10000.0,99999,8.0,0j,0,1116080308100102140303304000051000600007000088000
3632,ESGG,57.6627998352,12.279800415,2024-03-06 12:20:00,,,,,4.0,1030.0,(7296.038294794096+0j),-3.0,8.0,90.0,10000.0,99999,4.0,0j,0,1116040908100402130303004000051000600007000084000
3633,ESGJ,57.757598877,14.0686998367,2024-03-06 12:20:00,,,,,3.0,1030.0,(12.849862385986864+0j),-1.0,9.0,40.0,10000.0,99999,1.0,0j,0,1116010409100302110303004000051000600007000081000
3635,ESKN,58.7886009216,16.9122009277,2024-03-06 12:20:00,,,,,4.0,1033.0,(2525.152899172283+0j),-1.0,4.0,360.0,10000.0,99999,3.0,0j,0,1116033604100402110303304000051000600007000083000
3636,ESMK,55.9216995239,14.0854997635,2024-03-06 12:20:00,,,,,5.0,1029.0,(1618.0518217657286+0j),2.0,7.0,100.0,10000.0,99999,6.0,0j,0,1116061007100502020302904000051000600007000086000
3637,ESMS,55.536305364,13.3761978149,2024-03-06 12:20:00,,,,,3.0,1028.0,(4757.128364594057+0j),2.0,11.0,80.0,10000.0,99999,7.0,0j,0,1116070811100302020302804000051000600007000087000
3640,ESNO,63.4082984924,18.9899997711,2024-03-06 12:20:00,,,,,-1.0,1032.0,(218.11723837346486+0j),-2.0,5.0,260.0,10000.0,99999,8.0,0j,0,1116082605110102120303204000051000600007000088000
3641,ESNQ,67.8219985962,20.3367996216,2024-03-06 12:20:00,,,,,-1.0,1028.0,(52.56067699321257+0j),-8.0,5.0,220.0,10000.0,99999,,0j,0,1116002205110102180302804000051000600007000080000
3642,ESNS,64.6248016357,21.0769004822,2024-03-06 12:20:00,,,,,-1.0,1032.0,(956288511.1881971+0j),-2.0,3.0,,10000.0,99999,6.0,0j,0,1116063603110102120303204000051000600007000086000
3643,ESNU,63.7918014526,20.2828006744,2024-03-06 12:20:00,,,,,-0.0,1032.0,(39.46436465468339+0j),-3.0,3.0,,10000.0,99999,,0j,0,1116003603110002130303204000051000600007000080000
3645,ESOW,59.5894012451,16.633600235,2024-03-06 12:20:00,,,,,4.0,1034.0,(1226.433563497334+0j),-3.0,3.0,,10000.0,99999,1.0,0j,0,1116013603100402130303404000051000600007000081000
3648,ESSB,59.3544006348,17.9416999817,2024-03-06 12:20:00,,,,,3.0,1034.0,(1645.6590253547836+0j),-2.0,5.0,80.0,10000.0,99999,1.0,0j,0,1116010805100302120303404000051000600007000081000
3649,ESSD,60.422000885,15.5151996613,2024-03-06 12:20:00,,,,,-1.0,1034.0,(112.62324727255533+0j),-4.0,2.0,,10000.0,99999,8.0,0j,0,1116083602110102140303404000051000600007000088000
3652,LSGC,47.0839004517,6.792840004,2024-03-06 12:20:00,,,,,2.0,1019.0,(31.12310532144067+0j),-1.0,2.0,,10000.0,99999,6.0,0j,0,1116063602100202110301904000051000600007000086000
3653,LSGG,46.2380981445,6.1089501381,2024-03-06 12:20:00,,,,,9.0,1021.0,(8748.1258422342+0j),-1.0,5.0,,10000.0,99999,3.0,0j,0,1116033605100902110302104000051000600007000083000
3654,LSGS,46.2196006775,7.3267598152,2024-03-06 12:20:00,,,,,9.0,1019.0,(9.653314679873084+0j),0.0,11.0,250.0,10000.0,99999,3.0,0j,0,1116032511100902000301904000051000600007000083000
3655,LSZA,46.0042991638,8.9105796814,2024-03-06 12:20:00,,,,,14.0,1014.0,(3997.64619844863+0j),-1.0,11.0,10.0,10000.0,99999,1.0,0j,0,1116010111101402110301404000051000600007000081000
3656,LSZB,46.914100647,7.4971499443,2024-03-06 12:20:00,,,,,6.0,1021.0,(13.957957026225671+0j),3.0,4.0,110.0,10000.0,99999,4.0,0j,0,1116041104100602030302104000051000600007000084000
3657,LSZG,47.1815986633,7.4171900749,2024-03-06 12:20:00,,,,,7.0,1021.0,(10.83213273739217+0j),1.0,6.0,280.0,10000.0,99999,3.0,0j,0,1116032806100702010302104000051000600007000083000
3658,LSZH,47.4646987915,8.5491695404,2024-03-06 12:20:00,61.0,36.0,^,green,4.0,1021.0,(16.464710885878493+0j),3.0,6.0,190.0,10000.0,99999,3.0,0j,0,1116031906100402030302104000051000600007610083000
3659,LSZL,46.1608009338,8.8786096573,2024-03-06 12:20:00,,,,,15.0,1015.0,(2884.1953398133355+0j),-1.0,7.0,110.0,10000.0,99999,1.0,0j,0,1116011107101502110301504000051000600007000081000
3660,LSZR,47.4850006104,9.5607700348,2024-03-06 12:20:00,61.0,36.0,^,green,5.0,1021.0,(13.29111862012099+0j),5.0,6.0,250.0,9000.0,99999,3.0,0j,0,1115032506100502050302104000051000600007610083000
3661,LSZS,46.5340995789,9.8841104507,2024-03-06 12:20:00,,,,,1.0,1013.0,(36.09160945346454+0j),-7.0,5.0,10.0,9000.0,99999,3.0,0j,0,1115030105100102170301304000051000600007000083000
3663,EGBB,52.4538993835,-1.7480299473,2024-03-06 12:20:00,,,,,6.0,1021.0,(3463.7415678384655+0j),5.0,7.0,140.0,3600.0,99999,8.0,0j,0,1112081407100602050302104000051000600007000088000
3666,EGGD,51.3827018738,-2.7190899849,2024-03-06 12:20:00,,,,,10.0,1020.0,(3857.066069357147+0j),5.0,6.0,110.0,10000.0,99999,1.0,0j,0,1116011106101002050302004000051000600007000081000
3669,EGHH,50.7799987793,-1.8424999714,2024-03-06 12:20:00,,,,,11.0,1021.0,(1144.5195951910873+0j),7.0,6.0,170.0,10000.0,99999,1.0,0j,0,1116011706101102070302104000051000600007000081000
3673,EGKA,50.8356018066,-0.2972219884,2024-03-06 12:20:00,,,,,9.0,1022.0,(1049.3162438616785+0j),8.0,3.0,330.0,10000.0,99999,3.0,0j,0,1116033303100902080302204000051000600007000083000
3674,EGKB,51.3307991028,0.0324999988,2024-03-06 12:20:00,,,,,8.0,1021.0,(4518.0961759379925+0j),3.0,4.0,120.0,10000.0,99999,3.0,0j,0,1116031204100802030302104000051000600007000083000
3675,EGKK,51.1481018066,-0.1902779937,2024-03-06 12:20:00,,,,,10.0,1021.0,(1818.5416277198458+0j),6.0,4.0,40.0,10000.0,99999,3.0,0j,0,1116030404101002060302104000051000600007000083000
3676,EGLF,51.2757987976,-0.7763329744,2024-03-06 12:20:00,,,,,8.0,1021.0,(2248.516714916185+0j),5.0,5.0,80.0,10000.0,99999,2.0,0j,0,1116020805100802050302104000051000600007000082000
3678,EGMC,51.5713996887,0.695555985,2024-03-06 12:20:00,,,,,9.0,1022.0,(1219.4999773549182+0j),6.0,6.0,80.0,9000.0,99999,2.0,0j,0,1115020806100902060302204000051000600007000082000
3679,EGMD,50.9561004639,0.9391670227,2024-03-06 12:20:00,,,,,10.0,1022.0,(1067.8290867537878+0j),9.0,7.0,120.0,10000.0,99999,1.0,0j,0,1116011207101002090302204000051000600007000081000
3680,EGNH,53.7717018127,-3.0286099911,2024-03-06 12:20:00,,,,,11.0,1020.0,(1130.1322463828405+0j),4.0,9.0,170.0,9000.0,99999,2.0,0j,0,1115021709101102040302004000051000600007000082000
3683,EGNS,54.0833015442,-4.6238899231,2024-03-06 12:20:00,,,,,10.0,1019.0,(1206.7732702103667+0j),7.0,14.0,130.0,10000.0,99999,1.0,0j,0,1116011314101002070301904000051000600007000081000
3686,EGNX,52.8311004639,-1.3280600309,2024-03-06 12:20:00,,,,,7.0,1022.0,(2922.9666814987168+0j),5.0,6.0,80.0,7000.0,99999,6.0,0j,0,1114060806100702050302204000051000600007000086000
3687,EGPA,58.9578018188,-2.9049999714,2024-03-06 12:20:00,61.0,36.0,^,green,6.0,1024.0,(1332.597261066933+0j),3.0,12.0,140.0,10000.0,99999,4.0,0j,0,1116041412100602030302404000051000600007610084000
3688,EGPB,59.8788986206,-1.2955600023,2024-03-06 12:20:00,,,,,6.0,1027.0,(1146.7858447330902+0j),2.0,18.0,150.0,10000.0,99999,3.0,0j,0,1116031518100602020302704000051000600007000083000
3694,EGSH,52.6758003235,1.2827800512,2024-03-06 12:20:00,,,,,10.0,1022.0,(1463.3985226157279+0j),5.0,2.0,,10000.0,99999,2.0,0j,0,1116023602101002050302204000051000600007000082000
3695,EGTE,50.7344017029,-3.4138898849,2024-03-06 12:20:00,,,,,11.0,1020.0,(1364.0538689147681+0j),5.0,12.0,140.0,10000.0,99999,3.0,0j,0,1116031412101102050302004000051000600007000083000
3697,EGAC,54.6180992126,-5.8724999428,2024-03-06 12:20:00,,,,,10.0,1018.0,(1070.7481279724395+0j),5.0,14.0,150.0,10000.0,99999,4.0,0j,0,1116041514101002050301804000051000600007000084000
3699,EGGP,53.3335990906,-2.8497200012,2024-03-06 12:20:00,,,,,8.0,1021.0,(1394.0654006677419+0j),5.0,6.0,150.0,7000.0,99999,4.0,0j,0,1114041506100802050302104000051000600007000084000
3700,EGGW,51.8746986389,-0.3683330119,2024-03-06 12:20:00,,,,,8.0,1021.0,(4045.752585274313+0j),6.0,6.0,110.0,10000.0,99999,1.0,0j,0,1116011106100802060302104000051000600007000081000
3702,EGJA,49.7061004639,-2.2147200108,2024-03-06 12:20:00,,,,,10.0,1021.0,(2213.772682192208+0j),7.0,9.0,150.0,10000.0,99999,1.0,0j,0,1116011509101002070302104000051000600007000081000
3703,EGLC,51.5052986145,0.0552779995,2024-03-06 12:20:00,,,,,10.0,1022.0,(1089.267894256141+0j),5.0,5.0,90.0,9000.0,99999,3.0,0j,0,1115030905101002050302204000051000600007000083000
3704,EGNT,55.0374984741,-1.6916699409,2024-03-06 12:20:00,,,,,6.0,1022.0,(2953.7026029981175+0j),5.0,7.0,140.0,7000.0,99999,6.0,0j,0,1114061407100602050302204000051000600007000086000
3707,EGPF,55.8718986511,-4.4330601692,2024-03-06 12:20:00,,,,,11.0,1020.0,(1103.7924227118178+0j),4.0,10.0,100.0,10000.0,99999,6.0,0j,0,1116061010101102040302004000051000600007000086000
3708,EGPN,56.4524993896,-3.0258300304,2024-03-06 12:20:00,16.0,36.0,1,,6.0,1022.0,(1122.9716313350318+0j),4.0,13.0,130.0,9000.0,99999,3.0,0j,0,1115031313100602040302204000051000600007160083000
3721,EDGS,50.707698822,8.0829696655,2024-03-06 12:20:00,,,,,7.0,1021.0,(14.025841303093054+0j),3.0,6.0,350.0,10000.0,99999,3.0,0j,0,1116033506100702030302104000051000600007000083000
3722,EDLV,51.6024017334,6.1421699524,2024-03-06 12:20:00,,,,,10.0,1023.0,(1420.6692410609062+0j),6.0,5.0,10.0,10000.0,99999,4.0,0j,0,1116040105101002060302304000051000600007000084000
3725,EGEC,55.4371986389,-5.6863899231,2024-03-06 12:20:00,,,,,8.0,1017.0,(1206.2697621632385+0j),5.0,17.0,120.0,10000.0,99999,3.0,0j,0,1116031217100802050301704000051000600007000083000
3726,EGNR,53.1781005859,-2.9777801037,2024-03-06 12:20:00,10.0,36.0,+,yellow,6.0,1022.0,(1297.733874990337+0j),5.0,8.0,190.0,4500.0,99999,8.0,0j,0,1112081908100602050302204000051000600007100088000
3733,ESMT,56.6911010742,12.8201999664,2024-03-06 12:20:00,,,,,6.0,1029.0,(1687.1875929617217+0j),-1.0,6.0,90.0,10000.0,99999,3.0,0j,0,1116030906100602110302904000051000600007000083000
3734,ESNG,67.1324005127,20.8145999908,2024-03-06 12:20:00,,,,,1.0,1029.0,(27.615238946574618+0j),-4.0,3.0,260.0,10000.0,99999,,0j,0,1116002603100102140302904000051000600007000080000
3735,ESNK,63.0485992432,17.7688999176,2024-03-06 12:20:00,,,,,-0.0,1033.0,(39.50260531810847+0j),-3.0,7.0,10.0,10000.0,99999,1.0,0j,0,1116010107110002130303304000051000600007000081000
3737,ESNX,65.5903015137,19.2819004059,2024-03-06 12:20:00,,,,,-3.0,1030.0,(153.03006137185832+0j),-4.0,6.0,290.0,10000.0,99999,,0j,0,1116002906110302140303004000051000600007000080000
3738,ESOE,59.2237014771,15.0380001068,2024-03-06 12:20:00,,,,,1.0,1034.0,(10.352250435853058+0j),-3.0,7.0,70.0,10000.0,99999,8.0,0j,0,1116080707100102130303404000051000600007000088000
3740,ESTA,56.2961006165,12.8471002579,2024-03-06 12:20:00,,,,,5.0,1029.0,(1551.3262716236566+0j),1.0,11.0,110.0,10000.0,99999,8.0,0j,0,1116081111100502010302904000051000600007000088000
3741,ESTL,56.0828018188,13.2124996185,2024-03-06 12:20:00,,,,,4.0,1029.0,(2515.374959582071+0j),2.0,10.0,100.0,10000.0,99999,3.0,0j,0,1116031010100402020302904000051000600007000083000
3742,ESUT,65.806098938,15.0827999115,2024-03-06 12:20:00,,,,,-5.0,1030.0,(361.0495017123865+0j),-5.0,3.0,330.0,10000.0,99999,,0j,0,1116003303110502150303004000051000600007000080000
3743,LOXZ,47.2028007507,14.7441997528,2024-03-06 12:20:00,,,,,7.0,1016.0,(15.216136463891155+0j),2.0,0.0,0.0,10000.0,99999,3.0,0j,0,1116030000100702020301604000051000600007000083000
3753,ENBS,70.6005020142,29.691400528,2024-03-06 12:20:00,63.0,36.0,',green,3.0,1024.0,(9.092191891183562+0j),2.0,27.0,290.0,10000.0,99999,3.0,0j,0,1116032927100302020302404000051000600007630083000
3754,ENEV,68.4913024902,16.6781005859,2024-03-06 12:20:00,,,,,2.0,1032.0,(2865.986061930233+0j),-1.0,2.0,200.0,10000.0,99999,,0j,0,1116002002100202110303204000051000600007000080000
3755,ENHV,71.0096969604,25.9836006165,2024-03-06 12:20:00,,,,,5.0,1027.0,(1354.7906134487482+0j),3.0,16.0,250.0,10000.0,99999,4.0,0j,0,1116042516100502030302704000051000600007000084000
3756,ENNO,59.565700531,9.212220192,2024-03-06 12:20:00,,,,,3.0,1033.0,(1875.238233437218+0j),-4.0,4.0,280.0,10000.0,99999,3.0,0j,0,1116032804100302140303304000051000600007000083000
3757,ENOV,62.1800003052,6.0741000175,2024-03-06 12:20:00,,,,,6.0,1028.0,(2780.743186057351+0j),-2.0,6.0,230.0,10000.0,99999,,0j,0,1116002306100602120302804000051000600007000080000
3758,LGAL,40.8558998108,25.9563007355,2024-03-06 12:20:00,,,,,12.0,1016.0,(1086.442451172884+0j),10.0,4.0,190.0,10000.0,99999,3.0,0j,0,11160319041012020100301604000051000600007000083000
3759,LGEL,38.0638008118,23.5559997559,2024-03-06 12:20:00,,,,,18.0,1015.0,(1305.8949293708968+0j),7.0,6.0,20.0,10000.0,99999,3.0,0j,0,1116030206101802070301504000051000600007000083000
3760,LGKL,37.0682983398,22.0254993439,2024-03-06 12:20:00,,,,,17.0,1016.0,(1069.688007863201+0j),10.0,5.0,140.0,10000.0,99999,2.0,0j,0,11160214051017020100301604000051000600007000082000
3761,LGKO,36.7933006287,27.0916996002,2024-03-06 12:20:00,,,,,16.0,1014.0,(2050.890375252149+0j),8.0,11.0,320.0,10000.0,99999,1.0,0j,0,1116013211101602080301404000051000600007000081000
3762,LGRX,38.1511001587,21.4256000519,2024-03-06 12:20:00,,,,,17.0,1017.0,(1112.872642904152+0j),10.0,4.0,250.0,10000.0,99999,1.0,0j,0,11160125041017020100301704000051000600007000081000
3763,LGTS,40.5196990967,22.9708995819,2024-03-06 12:20:00,,,,,14.0,1016.0,(1071.1794826138168+0j),11.0,6.0,230.0,10000.0,99999,3.0,0j,0,11160323061014020110301604000051000600007000083000
3764,LGZA,37.7509002686,20.8843002319,2024-03-06 12:20:00,,,,,15.0,1017.0,(1052.0051586758645+0j),12.0,4.0,150.0,10000.0,99999,6.0,0j,0,11160615041015020120301704000051000600007000086000
3765,LIBD,41.1389007568,16.7605991364,2024-03-06 12:20:00,,,,,15.0,1015.0,(1457.3832803587156+0j),8.0,5.0,80.0,10000.0,99999,,0j,0,1116000805101502080301504000051000600007000080000
3766,LIPE,44.5354003906,11.2887001038,2024-03-06 12:20:00,,,,,13.0,1014.0,(1363.4015188159713+0j),4.0,3.0,340.0,10000.0,99999,,0j,0,1116003403101302040301404000051000600007000080000
3767,LIPR,44.0203018188,12.611700058,2024-03-06 12:20:00,,,,,12.0,1015.0,(1133.3862048725282+0j),1.0,7.0,160.0,10000.0,99999,3.0,0j,0,1116031607101202010301504000051000600007000083000
3769,LOWW,48.1102981567,16.5697002411,2024-03-06 12:20:00,,,,,11.0,1018.0,(3455.8825784019737+0j),2.0,13.0,360.0,10000.0,99999,1.0,0j,0,1116013613101102020301804000051000600007000081000
3790,EGJJ,49.207901001,-2.1955099106,2024-03-06 12:20:00,,,,,10.0,1020.0,(2151.8095367346473+0j),5.0,12.0,130.0,10000.0,99999,1.0,0j,0,1116011312101002050302004000051000600007000081000
3791,EKEB,55.5259017944,8.5534000397,2024-03-06 12:20:00,,,,,5.0,1027.0,(1794.331387507124+0j),3.0,6.0,70.0,10000.0,99999,6.0,0j,0,1116060706100502030302704000051000600007000086000
3792,EKRK,55.5856018066,12.1314001083,2024-03-06 12:20:00,10.0,36.0,+,yellow,3.0,1028.0,(3189.277561538587+0j),3.0,7.0,80.0,4200.0,99999,8.0,0j,0,1112080807100302030302804000051000600007100088000
3793,EKVD,55.4362983704,9.3309202194,2024-03-06 12:20:00,,,,,5.0,1027.0,(2208.206718021412+0j),3.0,8.0,100.0,10000.0,99999,6.0,0j,0,1116061008100502030302704000051000600007000086000
3810,ESDF,56.2667007446,15.2650003433,2024-03-06 12:20:00,,,,,7.0,1029.0,(2151.673808423209+0j),-1.0,14.0,50.0,10000.0,99999,,0j,0,1116000514100702110302904000051000600007000080000
3811,ESGP,57.7747001648,11.8704004288,2024-03-06 12:20:00,,,,,4.0,1031.0,(1602.292032492386+0j),-2.0,10.0,60.0,10000.0,99999,6.0,0j,0,1116060610100402120303104000051000600007000086000
3812,ESGT,58.3180999756,12.345000267,2024-03-06 12:20:00,,,,,1.0,1033.0,(7857.9141487642355+0j),-2.0,12.0,60.0,10000.0,99999,8.0,0j,0,1116080612100102120303304000051000600007000088000
3813,ESKM,60.957901001,14.5114002228,2024-03-06 12:20:00,,,,,-0.0,1033.0,(39.50260531810847+0j),-4.0,2.0,,10000.0,99999,,0j,0,1116003602110002140303304000051000600007000080000
3814,ESMQ,56.6855010986,16.2875995636,2024-03-06 12:20:00,,,,,5.0,1031.0,(1153.7138510717546+0j),1.0,12.0,50.0,10000.0,99999,3.0,0j,0,1116030512100502010303104000051000600007000083000
3815,ESMX,56.9291000366,14.7279996872,2024-03-06 12:20:00,,,,,7.0,1029.0,(5213.473411628638+0j),-2.0,9.0,50.0,10000.0,99999,,0j,0,1116000509100702120302904000051000600007000080000
3816,ESNN,62.5280990601,17.4438991547,2024-03-06 12:20:00,,,,,3.0,1033.0,(1228.4073806165757+0j),-3.0,2.0,,10000.0,99999,,0j,0,1116003602100302130303304000051000600007000080000
3817,ESOK,59.4446983337,13.3374004364,2024-03-06 12:20:00,,,,,2.0,1033.0,(9.780674072084127+0j),-3.0,6.0,90.0,10000.0,99999,3.0,0j,0,1116030906100202130303304000051000600007000083000
3818,ESSL,58.4062004089,15.6805000305,2024-03-06 12:20:00,,,,,1.0,1033.0,(9.590226990857499+0j),-1.0,6.0,30.0,10000.0,99999,7.0,0j,0,1116070306100102110303304000051000600007000087000
3819,ESSP,58.5862998962,16.2506008148,2024-03-06 12:20:00,,,,,2.0,1034.0,(1659.8138616386598+0j),-1.0,5.0,360.0,10000.0,99999,6.0,0j,0,1116063605100202110303404000051000600007000086000
3820,ESSV,57.6627998352,18.346200943,2024-03-06 12:20:00,,,,,4.0,1032.0,(2816.321666614002+0j),-4.0,9.0,80.0,10000.0,99999,,0j,0,1116000809100402140303204000051000600007000080000
3838,ENBN,65.4610977173,12.217499733,2024-03-06 12:20:00,,,,,6.0,1031.0,(1182.1758430985678+0j),-2.0,2.0,,10000.0,99999,,0j,0,1116003602100602120303104000051000600007000080000
3839,ENBV,70.8713989258,29.0342006683,2024-03-06 12:20:00,61.0,36.0,^,green,2.0,1025.0,(1860.715575288624+0j),2.0,19.0,260.0,10000.0,99999,6.0,0j,0,1116062619100202020302504000051000600007610086000
3840,ENHF,70.6797027588,23.6686000824,2024-03-06 12:20:00,,,,,3.0,1028.0,(5289.578356018652+0j),2.0,12.0,240.0,10000.0,99999,3.0,0j,0,1116032412100302020302804000051000600007000083000
3841,ENSK,68.5788269043,15.033416748,2024-03-06 12:20:00,,,,,5.0,1032.0,(1110.8181592260391+0j),-1.0,2.0,,10000.0,99999,,0j,0,1116003602100502110303204000051000600007000080000
3842,ENSO,59.7919006348,5.3408498764,2024-03-06 12:20:00,,,,,2.0,1031.0,(4842.139184834666+0j),2.0,5.0,190.0,10000.0,99999,4.0,0j,0,1116041905100202020303104000051000600007000084000
3844,LIEE,39.251499176,9.0542802811,2024-03-06 12:20:00,,,,,16.0,1021.0,(1049.5149548216345+0j),6.0,12.0,310.0,10000.0,99999,3.0,0j,0,1116033112101602060302104000051000600007000083000
3845,LIEO,40.8987007141,9.5176296234,2024-03-06 12:20:00,,,,,16.0,1019.0,(1100.8698035553357+0j),5.0,22.0,250.0,10000.0,99999,6.0,0j,0,1116062522101602050301904000051000600007000086000
3846,LIML,45.445098877,9.2767400742,2024-03-06 12:20:00,,,,,12.0,1015.0,(2219.933197756093+0j),6.0,6.0,360.0,10000.0,99999,3.0,0j,0,1116033606101202060301504000051000600007000083000
3847,LIRA,41.7994003296,12.5949001312,2024-03-06 12:20:00,,,,,13.0,1017.0,(2384.1477263604224+0j),5.0,13.0,260.0,10000.0,99999,6.0,0j,0,1116062613101302050301704000051000600007000086000
3849,EDDB,52.362167,13.500667,2024-03-06 12:20:00,,,,,7.0,1024.0,(1915.6255073364002+0j),1.0,6.0,40.0,10000.0,99999,4.0,0j,0,1116040406100702010302404000051000600007000084000
3850,EDDC,51.1328010559,13.76720047,2024-03-06 12:20:00,,,,,6.0,1022.0,(7205.131669684548+0j),1.0,6.0,70.0,10000.0,99999,1.0,0j,0,1116010706100602010302204000051000600007000081000
3851,EDDE,50.979801178,10.9581003189,2024-03-06 12:20:00,,,,,8.0,1022.0,(7393.045095749334+0j),2.0,8.0,50.0,10000.0,99999,1.0,0j,0,1116010508100802020302204000051000600007000081000
3852,EDDF,50.0264015198,8.543129921,2024-03-06 12:20:00,,,,,11.0,1022.0,(2407.448033596437+0j),4.0,9.0,50.0,10000.0,99999,1.0,0j,0,1116010509101102040302204000051000600007000081000
3853,EDDG,52.134601593,7.6848301888,2024-03-06 12:20:00,,,,,9.0,1024.0,(1719.225621154951+0j),5.0,2.0,,10000.0,99999,6.0,0j,0,1116063602100902050302404000051000600007000086000
3854,EDDH,53.6304016113,9.9882297516,2024-03-06 12:20:00,,,,,7.0,1026.0,(1305.5769047162505+0j),1.0,7.0,60.0,10000.0,99999,6.0,0j,0,1116060607100702010302604000051000600007000086000
3855,EDDK,50.8658981323,7.1427397728,2024-03-06 12:20:00,,,,,11.0,1023.0,(2146.868987308777+0j),5.0,3.0,,10000.0,99999,1.0,0j,0,1116013603101102050302304000051000600007000081000
3856,EDDL,51.2895011902,6.7667798996,2024-03-06 12:20:00,,,,,11.0,1023.0,(1532.5663653297977+0j),6.0,2.0,,10000.0,99999,2.0,0j,0,1116023602101102060302304000051000600007000082000
3857,EDDM,48.3538017273,11.7861003876,2024-03-06 12:20:00,,,,,7.0,1019.0,(11.284415928994294+0j),3.0,11.0,110.0,10000.0,99999,6.0,0j,0,1116061111100702030301904000051000600007000086000
3858,EDDN,49.4986991882,11.0669002533,2024-03-06 12:20:00,,,,,10.0,1020.0,(6088.290277430826+0j),3.0,7.0,40.0,10000.0,99999,4.0,0j,0,1116040407101002030302004000051000600007000084000
3859,EDDP,51.4323997498,12.2416000366,2024-03-06 12:20:00,,,,,8.0,1023.0,(3657.0817275266654+0j),1.0,8.0,40.0,10000.0,99999,3.0,0j,0,1116030408100802010302304000051000600007000083000
3860,EDDR,49.2145996094,7.1095099449,2024-03-06 12:20:00,,,,,9.0,1022.0,(6777.49747304046+0j),2.0,2.0,,10000.0,99999,,0j,0,1116003602100902020302204000051000600007000080000
3861,EDDS,48.6898994446,9.2219600677,2024-03-06 12:20:00,61.0,36.0,^,green,6.0,1020.0,(11.30574876951037+0j),4.0,6.0,310.0,10000.0,99999,5.0,0j,0,1116053106100602040302004000051000600007610085000
3862,EDDV,52.461101532,9.6850795746,2024-03-06 12:20:00,,,,,7.0,1024.0,(2088.9828785800887+0j),2.0,9.0,80.0,10000.0,99999,8.0,0j,0,1116080809100702020302404000051000600007000088000
3863,EDDW,53.0475006104,8.7866697311,2024-03-06 12:20:00,,,,,8.0,1025.0,(1087.0730469252514+0j),1.0,10.0,140.0,10000.0,99999,6.0,0j,0,1116061410100802010302504000051000600007000086000
3866,EDLW,51.5182991028,7.6122398377,2024-03-06 12:20:00,,,,,10.0,1023.0,(2865.6791925957427+0j),5.0,3.0,,10000.0,99999,2.0,0j,0,1116023603101002050302304000051000600007000082000
3868,EDNY,47.6712989807,9.5114898682,2024-03-06 12:20:00,63.0,36.0,',green,5.0,1021.0,(13.751345431196281+0j),5.0,6.0,250.0,9000.0,99999,7.0,0j,0,1115072506100502050302104000051000600007630087000
3871,EDXW,54.9132003784,8.340470314,2024-03-06 12:20:00,,,,,4.0,1027.0,(1513.345301490352+0j),1.0,7.0,100.0,10000.0,99999,8.0,0j,0,1116081007100402010302704000051000600007000088000
3879,ENAT,69.9760971069,23.3717002869,2024-03-06 12:20:00,,,,,1.0,1030.0,(1366.6387327681757+0j),-3.0,0.0,0.0,10000.0,99999,4.0,0j,0,1116040000100102130303004000051000600007000084000
3880,ENBL,61.3911018372,5.756939888,2024-03-06 12:20:00,,,,,7.0,1028.0,(8444.981726366394+0j),-7.0,4.0,180.0,10000.0,99999,,0j,0,1116001804100702170302804000051000600007000080000
3881,ENNA,70.0688018799,24.9734992981,2024-03-06 12:20:00,,,,,3.0,1029.0,(1339.1040836307363+0j),-2.0,7.0,50.0,10000.0,99999,4.0,0j,0,1116040507100302120302904000051000600007000084000
3882,ENSD,61.8300018311,6.1058301926,2024-03-06 12:20:00,,,,,3.0,1028.0,(4051.589375554097+0j),-2.0,5.0,60.0,10000.0,99999,,0j,0,1116000605100302120302804000051000600007000080000
3883,ENSR,69.7867965698,20.959400177,2024-03-06 12:20:00,,,,,3.0,1031.0,(1226.029050741229+0j),-2.0,0.0,0.0,10000.0,99999,6.0,0j,0,1116060000100302120303104000051000600007000086000
3884,LGAD,37.9207000732,21.2926006317,2024-03-06 12:20:00,,,,,17.0,1017.0,(1132.0527285402236+0j),11.0,6.0,270.0,10000.0,99999,3.0,0j,0,11160327061017020110301704000051000600007000083000
3885,LGBL,39.2196006775,22.7943000793,2024-03-06 12:20:00,,,,,16.0,1016.0,(1202.7548351368932+0j),10.0,9.0,90.0,10000.0,99999,3.0,0j,0,11160309091016020100301604000051000600007000083000
3886,LGKP,35.4213981628,27.1459999084,2024-03-06 12:20:00,,,,,18.0,1014.0,(1144.3952339386112+0j),10.0,18.0,310.0,10000.0,99999,3.0,0j,0,11160331181018020100301404000051000600007000083000
3887,LGKV,40.9132995605,24.6191997528,2024-03-06 12:20:00,,,,,15.0,1015.0,(1056.9839079226758+0j),9.0,8.0,220.0,10000.0,99999,2.0,0j,0,1116022208101502090301504000051000600007000082000
3888,LGLM,39.917098999,25.2362995148,2024-03-06 12:20:00,,,,,14.0,1016.0,(1050.970738657501+0j),6.0,5.0,10.0,10000.0,99999,1.0,0j,0,1116010105101402060301604000051000600007000081000
3889,LGMK,37.4351005554,25.3481006622,2024-03-06 12:20:00,,,,,15.0,1016.0,(2111.4978712311818+0j),9.0,10.0,350.0,10000.0,99999,3.0,0j,0,1116033510101502090301604000051000600007000083000
3890,LGMT,39.0567016602,26.5983009338,2024-03-06 12:20:00,,,,,16.0,1015.0,(1148.5665463446705+0j),9.0,4.0,360.0,10000.0,99999,1.0,0j,0,1116013604101602090301504000051000600007000081000
3892,LICC,37.4668006897,15.0663995743,2024-03-06 12:20:00,,,,,18.0,1019.0,(1095.6281179873672+0j),7.0,11.0,90.0,10000.0,99999,,0j,0,1116000911101802070301904000051000600007000080000
3894,LICJ,38.1759986877,13.0909996033,2024-03-06 12:20:00,,,,,15.0,1021.0,(1176.8741181897535+0j),8.0,5.0,250.0,10000.0,99999,,0j,0,1116002505101502080302104000051000600007000080000
3895,LIPZ,45.5052986145,12.3519001007,2024-03-06 12:20:00,61.0,36.0,^,green,12.0,1015.0,(1035.3182169126828+0j),10.0,10.0,50.0,10000.0,99999,2.0,0j,0,11160205101012020100301504000051000600007610082000
3896,LOWK,46.6425018311,14.3376998901,2024-03-06 12:20:00,,,,,10.0,1016.0,(8226.732574613488+0j),5.0,8.0,100.0,10000.0,99999,3.0,0j,0,1116031008101002050301604000051000600007000083000
3898,EGPH,55.9500007629,-3.3724999428,2024-03-06 12:20:00,,,,,9.0,1021.0,(1597.1419957549033+0j),4.0,10.0,120.0,10000.0,99999,2.0,0j,0,1116021210100902040302104000051000600007000082000
3899,EGPK,55.5093994141,-4.5866699219,2024-03-06 12:20:00,,,,,11.0,1020.0,(1234.5938737108029+0j),4.0,15.0,150.0,10000.0,99999,1.0,0j,0,1116011515101102040302004000051000600007000081000
3901,EGPU,56.4991989136,-6.8691701889,2024-03-06 12:20:00,,,,,9.0,1017.0,(1168.1683645268754+0j),6.0,19.0,130.0,10000.0,99999,8.0,0j,0,1116081319100902060301704000051000600007000088000
3902,EKAH,56.2999992371,10.6190004349,2024-03-06 12:20:00,,,,,4.0,1029.0,(1845.9598493079627+0j),2.0,7.0,90.0,10000.0,99999,8.0,0j,0,1116080907100402020302904000051000600007000088000
3903,EKKA,56.2975006104,9.1246299744,2024-03-06 12:20:00,,,,,4.0,1028.0,(2879.685444758967+0j),2.0,7.0,80.0,10000.0,99999,8.0,0j,0,1116080807100402020302804000051000600007000088000
3904,EKYT,57.0927589138,9.8492431641,2024-03-06 12:20:00,,,,,3.0,1030.0,(1150.1357546982306+0j),2.0,9.0,90.0,10000.0,99999,8.0,0j,0,1116080909100302020303004000051000600007000088000
3905,ENAN,69.2925033569,16.1441993713,2024-03-06 12:20:00,,,,,3.0,1032.0,(1586.3954587743651+0j),0.0,8.0,190.0,10000.0,99999,,0j,0,1116001908100302000303204000051000600007000080000
3906,ENBO,67.269203186,14.3653001785,2024-03-06 12:20:00,,,,,4.0,1032.0,(1429.1432398774693+0j),-3.0,10.0,100.0,10000.0,99999,,0j,0,1116001010100402130303204000051000600007000080000
3907,ENGM,60.193901062,11.100399971,2024-03-06 12:20:00,,,,,2.0,1032.0,(16.22000990991916+0j),-4.0,7.0,20.0,10000.0,99999,,0j,0,1116000207100202140303204000051000600007000080000
3908,ENOL,63.6988983154,9.6040000916,2024-03-06 12:20:00,,,,,5.0,1029.0,(1233.7452438918685+0j),-3.0,15.0,130.0,10000.0,99999,,0j,0,1116001315100502130302904000051000600007000080000
3909,ENTC,69.6832962036,18.9188995361,2024-03-06 12:20:00,,,,,1.0,1032.0,(2331.6125713966185+0j),-2.0,7.0,180.0,10000.0,99999,,0j,0,1116001807100102120303204000051000600007000080000
3913,ENFL,61.5835990906,5.024720192,2024-03-06 12:20:00,,,,,6.0,1029.0,(1255.3064107609055+0j),-4.0,5.0,210.0,10000.0,99999,,0j,0,1116002105100602140302904000051000600007000080000
3914,ENKB,63.1118011475,7.8245201111,2024-03-06 12:20:00,,,,,8.0,1029.0,(2069.8279778988913+0j),-4.0,3.0,,10000.0,99999,,0j,0,1116003603100802140302904000051000600007000080000
3915,ENKR,69.7257995605,29.8913002014,2024-03-06 12:20:00,61.0,36.0,^,green,2.0,1026.0,(8032.09218146212+0j),-0.0,1.0,,10000.0,99999,6.0,0j,0,1116063601100202100302604000051000600007610086000
3916,ENML,62.7447013855,7.2624998093,2024-03-06 12:20:00,,,,,5.0,1029.0,(1100.3437817489148+0j),-1.0,6.0,50.0,10000.0,99999,,0j,0,1116000506100502110302904000051000600007000080000
3917,ENSG,61.1561012268,7.1377801895,2024-03-06 12:20:00,,,,,4.0,1028.0,(1028+0j),-10.0,5.0,100.0,10000.0,99999,,0j,0,11160010051004021100302804000051000600007000080000
3918,ENSS,70.3554000854,31.0449008942,2024-03-06 12:20:00,,,,,3.0,1024.0,(1560.2944268577387+0j),1.0,10.0,300.0,10000.0,99999,6.0,0j,0,1116063010100302010302404000051000600007000086000
3919,LGPZ,38.9254989624,20.7653007507,2024-03-06 12:20:00,,,,,18.0,1017.0,(1038.331992486759+0j),10.0,9.0,270.0,10000.0,99999,1.0,0j,0,11160127091018020100301704000051000600007000081000
3920,LGSA,35.5317001343,24.1497001648,2024-03-06 12:20:00,,,,,17.0,1016.0,(2194.818786049658+0j),8.0,7.0,300.0,10000.0,99999,1.0,0j,0,1116013007101702080301604000051000600007000081000
3921,LGSR,36.3992004395,25.4792995453,2024-03-06 12:20:00,,,,,17.0,1015.0,(1287.7200983841828+0j),11.0,10.0,320.0,10000.0,99999,3.0,0j,0,11160332101017020110301504000051000600007000083000
3923,LIBR,40.6576004028,17.9470005035,2024-03-06 12:20:00,,,,,15.0,1016.0,(1127.2387430327387+0j),12.0,5.0,40.0,10000.0,99999,,0j,0,11160004051015020120301604000051000600007000080000
3924,LIPH,45.648399353,12.1943998337,2024-03-06 12:20:00,,,,,13.0,1015.0,(1177.5187057616183+0j),8.0,11.0,60.0,10000.0,99999,6.0,0j,0,1116060611101302080301504000051000600007000086000
3925,LIPQ,45.8274993896,13.4722003937,2024-03-06 12:20:00,,,,,13.0,1015.0,(1121.3020092582258+0j),7.0,6.0,60.0,10000.0,99999,8.0,0j,0,1116080606101302070301504000051000600007000088000
3926,LIPX,45.3956985474,10.8885002136,2024-03-06 12:20:00,,,,,14.0,1014.0,(1672.6069175914306+0j),7.0,5.0,150.0,10000.0,99999,3.0,0j,0,1116031505101402070301404000051000600007000083000
3928,LOWI,47.2602005005,11.3439998627,2024-03-06 12:20:00,61.0,36.0,^,green,6.0,1017.0,(15.248484609829903+0j),4.0,6.0,70.0,10000.0,99999,5.0,0j,0,1116050706100602040301704000051000600007610085000
3929,LOWL,48.2332000732,14.1875,2024-03-06 12:20:00,,,,,9.0,1019.0,(6295.180530139463+0j),3.0,6.0,140.0,10000.0,99999,3.0,0j,0,1116031406100902030301904000051000600007000083000
3930,LOWS,47.7933006287,13.0043001175,2024-03-06 12:20:00,,,,,4.0,1019.0,(16.394444954384443+0j),4.0,8.0,310.0,10000.0,99999,3.0,0j,0,1116033108100402040301904000051000600007000083000
3931,EDAH,53.8787002563,14.152299881,2024-03-06 12:20:00,,,,,5.0,1026.0,(1757.9457487331756+0j),4.0,7.0,10.0,8000.0,99999,8.0,0j,0,1114080107100502040302604000051000600007000088000
3932,EDHK,54.3794441223,10.145277977,2024-03-06 12:20:00,,,,,4.0,1027.0,(2065.804988631838+0j),1.0,4.0,120.0,10000.0,99999,8.0,0j,0,1116081204100402010302704000051000600007000088000
3933,EDMO,48.081401825,11.2831001282,2024-03-06 12:20:00,61.0,36.0,^,green,4.0,1018.0,(19.870458242396992+0j),3.0,7.0,230.0,9000.0,99999,4.0,0j,0,1115042307100402030301804000051000600007610084000
3934,EDTL,48.3693008423,7.8277201653,2024-03-06 12:20:00,,,,,9.0,1022.0,(3584.071143243881+0j),5.0,3.0,,10000.0,99999,3.0,0j,0,1116033603100902050302204000051000600007000083000
3935,EDVE,52.3191986084,10.5560998917,2024-03-06 12:20:00,,,,,8.0,1024.0,(2593.3541861414333+0j),-0.0,5.0,100.0,10000.0,99999,,0j,0,1116001005100802100302404000051000600007000080000
3936,ENHK,70.4867019653,22.1396999359,2024-03-06 12:20:00,,,,,4.0,1030.0,(1221.6891396540175+0j),1.0,11.0,260.0,10000.0,99999,6.0,0j,0,1116062611100402010303004000051000600007000086000
3937,ENLK,68.1524963379,13.6093997955,2024-03-06 12:20:00,41.0,36.0,J,yellow,4.0,1032.0,(1807.4382785909265+0j),3.0,2.0,170.0,10000.0,99999,3.0,0j,0,1116031702100402030303204000051000600007410083000
3938,ENMH,71.0297012329,27.8267002106,2024-03-06 12:20:00,61.0,36.0,^,green,4.0,1026.0,(1390.9615649018497+0j),3.0,17.0,280.0,10000.0,99999,5.0,0j,0,1116052817100402030302604000051000600007610085000
3939,ENMS,65.783996582,13.2149000168,2024-03-06 12:20:00,,,,,1.0,1032.0,(12.468861284979303+0j),-6.0,6.0,180.0,10000.0,99999,,0j,0,1116001806100102160303204000051000600007000080000
3940,ENNM,64.4721984863,11.5785999298,2024-03-06 12:20:00,,,,,4.0,1031.0,(1093.4364013462773+0j),-5.0,7.0,80.0,10000.0,99999,,0j,0,1116000807100402150303104000051000600007000080000
3941,ENRA,66.363899231,14.3014001846,2024-03-06 12:20:00,,,,,-1.0,1032.0,(1604.8977440284436+0j),-7.0,5.0,310.0,10000.0,99999,,0j,0,1116003105110102170303204000051000600007000080000
3942,ENRM,64.8383026123,11.1461000443,2024-03-06 12:20:00,,,,,7.0,1030.0,(1101.413114870148+0j),-4.0,3.0,90.0,10000.0,99999,,0j,0,1116000903100702140303004000051000600007000080000
3943,ENRS,67.5278015137,12.1033000946,2024-03-06 12:20:00,,,,,6.0,1032.0,(1073.4914047590637+0j),3.0,4.0,300.0,10000.0,99999,6.0,0j,0,1116063004100602030303204000051000600007000086000
3945,ENST,65.9568023682,12.4688997269,2024-03-06 12:20:00,,,,,5.0,1031.0,(1455.9921787364465+0j),-3.0,7.0,70.0,10000.0,99999,,0j,0,1116000707100502130303104000051000600007000080000
3946,ENVD,70.0652999878,29.8446998596,2024-03-06 12:20:00,61.0,36.0,^,green,2.0,1025.0,(3943.8354468278076+0j),1.0,15.0,280.0,10000.0,99999,3.0,0j,0,1116032815100202010302504000051000600007610083000
3947,LIEA,40.6320991516,8.290769577,2024-03-06 12:20:00,,,,,15.0,1021.0,(1231.6871568918286+0j),7.0,13.0,280.0,10000.0,99999,3.0,0j,0,1116032813101502070302104000051000600007000083000
3948,LIMC,45.6305999756,8.7281103134,2024-03-06 12:20:00,,,,,10.0,1015.0,(4599.008381729819+0j),6.0,7.0,360.0,10000.0,99999,6.0,0j,0,1116063607101002060301504000051000600007000086000
3949,LIME,45.6739006042,9.7041702271,2024-03-06 12:20:00,,,,,11.0,1015.0,(4300.131906476329+0j),7.0,6.0,250.0,10000.0,99999,3.0,0j,0,1116032506101102070301504000051000600007000083000
3950,LIMF,45.2008018494,7.6496300697,2024-03-06 12:20:00,,,,,11.0,1016.0,(5293.234242611814+0j),3.0,7.0,200.0,10000.0,99999,4.0,0j,0,1116042007101102030301604000051000600007000084000
3951,LIMJ,44.4132995605,8.8374996185,2024-03-06 12:20:00,,,,,12.0,1015.0,(1052.870385106454+0j),4.0,3.0,,10000.0,99999,2.0,0j,0,1116023603101202040301504000051000600007000082000
3952,LIRF,41.8045005798,12.2508001328,2024-03-06 12:20:00,,,,,15.0,1016.0,(1050.970738657501+0j),5.0,18.0,260.0,10000.0,99999,1.0,0j,0,1116012618101502050301604000051000600007000081000
3954,LIRP,43.6838989258,10.3927001953,2024-03-06 12:15:00,,,,,13.0,1014.0,(1030.0459076001512+0j),7.0,4.0,180.0,10000.0,99999,6.0,0j,0,1116061804101302070301404000051000600007000086000
3955,LIRQ,43.8100013733,11.2051000595,2024-03-06 12:20:00,,,,,13.0,1015.0,(1422.3762630114659+0j),5.0,5.0,200.0,10000.0,99999,3.0,0j,0,1116032005101302050301504000051000600007000083000
3974,ETIC,49.6986999512,11.940199852,2024-03-06 12:25:00,,,,,10.0,30.09,(7800.108251664209+0j),2.0,5.0,70.0,10000.0,99999,8.0,0j,0,111608070510100202033004000051000600007000088000
3986,EDLP,51.6141014099,8.6163196564,2024-03-06 12:20:00,,,,,8.0,1023.0,(5195.380339711452+0j),4.0,3.0,10.0,10000.0,99999,5.0,0j,0,1116050103100802040302304000051000600007000085000
3992,ELLX,49.6265983582,6.211520195,2024-03-06 12:20:00,,,,,8.0,1022.0,(8633.089665344718+0j),2.0,3.0,,10000.0,99999,3.0,0j,0,1116033603100802020302204000051000600007000083000
3993,ESNL,64.5483016968,18.7161998749,2024-03-06 12:20:00,,,,,1.0,1031.0,(24.074252597913006+0j),-4.0,2.0,,10000.0,99999,,0j,0,1116003602100102140303104000051000600007000080000
4012,LOWG,46.9911003113,15.4395999908,2024-03-06 12:20:00,,,,,9.0,1016.0,(7063.378597785172+0j),5.0,3.0,290.0,10000.0,99999,4.0,0j,0,1116042903100902050301604000051000600007000084000
4013,EDAC,50.9819450378,12.5063886642,2024-03-06 12:20:00,,,,,7.0,1022.0,(5404.93479265466+0j),-0.0,9.0,40.0,10000.0,99999,,0j,0,1116000409100702100302204000051000600007000080000
4014,EDFH,49.9486999512,7.2638897896,2024-03-06 12:20:00,,,,,8.0,1021.0,(11.032584314191471+0j),1.0,5.0,320.0,10000.0,99999,1.0,0j,0,1116013205100802010302104000051000600007000081000
4015,EDFM,49.4730567932,8.514166832,2024-03-06 12:20:00,,,,,10.0,1022.0,(2299.6634973630703+0j),5.0,5.0,320.0,10000.0,99999,3.0,0j,0,1116033205101002050302204000051000600007000083000
4016,EDHL,53.8054008484,10.7192001343,2024-03-06 12:20:00,,,,,5.0,1027.0,(1426.2241550044484+0j),-0.0,3.0,110.0,10000.0,99999,6.0,0j,0,1116061103100502100302704000051000600007000086000
4018,EDMA,48.42527771,10.9316673279,2024-03-06 12:20:00,,,,,8.0,1019.0,(10.270290554427639+0j),6.0,5.0,30.0,10000.0,99999,6.0,0j,0,1116060305100802060301904000051000600007000086000
4019,EDQM,50.2886123657,11.8563890457,2024-03-06 12:20:00,,,,,6.0,1020.0,(15.583895845432112+0j),2.0,10.0,30.0,10000.0,99999,3.0,0j,0,1116030310100602020302004000051000600007000083000
4020,EDSB,48.7793998718,8.0804996491,2024-03-06 12:20:00,,,,,8.0,1022.0,(3288.6931745251495+0j),5.0,4.0,190.0,10000.0,99999,1.0,0j,0,1116011904100802050302204000051000600007000081000
4030,EBCI,50.4592018127,4.4538202286,2024-03-06 12:20:00,,,,,8.0,1022.0,(4628.084943603249+0j),2.0,2.0,,10000.0,99999,1.0,0j,0,1116013602100802020302204000051000600007000081000
4031,EBLG,50.6374015808,5.4432201385,2024-03-06 12:20:00,,,,,9.0,1022.0,(4441.979958315856+0j),2.0,4.0,350.0,10000.0,99999,3.0,0j,0,1116033504100902020302204000051000600007000083000
4032,EBOS,51.1988983154,2.8622200489,2024-03-06 12:20:00,,,,,10.0,1023.0,(1068.8739293044275+0j),7.0,5.0,30.0,10000.0,99999,3.0,0j,0,1116030305101002070302304000051000600007000083000
4033,EDLN,51.2302780151,6.5044441223,2024-03-06 12:20:00,,,,,10.0,1023.0,(1497.2624707504851+0j),5.0,2.0,,10000.0,99999,3.0,0j,0,1116033602101002050302304000051000600007000083000
4034,EDVK,51.4083328247,9.3774995804,2024-03-06 12:20:00,,,,,7.0,1023.0,(7418.547316907677+0j),3.0,6.0,80.0,9000.0,99999,3.0,0j,0,1115030806100702030302304000051000600007000083000
4059,EGSC,52.2050018311,0.174999997,2024-03-06 12:20:00,,,,,9.0,1022.0,(1211.1589222511964+0j),5.0,1.0,,7000.0,99999,2.0,0j,0,1114023601100902050302204000051000600007000082000
4075,LIBP,42.4317016602,14.1810998917,2024-03-06 12:20:00,95.0,36.0,2,red,13.0,1014.0,(1145.3301793196097+0j),9.0,8.0,70.0,10000.0,99999,4.0,0j,0,1116040708101302090301404000051000600007950084000
4076,LICA,38.9053993225,16.2423000336,2024-03-06 12:20:00,,,,,15.0,1019.0,(1111.2339971349707+0j),9.0,19.0,270.0,10000.0,99999,6.0,0j,0,1116062719101502090301904000051000600007000086000
4077,LICR,38.0712013245,15.651599884,2024-03-06 12:20:00,,,,,17.0,1020.0,(1224.7237042577158+0j),8.0,15.0,340.0,10000.0,99999,6.0,0j,0,1116063415101702080302004000051000600007000086000
4078,LIPY,43.6162986755,13.3622999191,2024-03-06 12:20:00,63.0,36.0,',green,8.0,1017.0,(1239.0953517885705+0j),5.0,5.0,300.0,10000.0,99999,4.0,0j,0,1116043005100802050301704000051000600007630084000
4080,LICD,35.4978981018,12.6181001663,2024-03-06 12:20:00,,,,,16.0,1023.0,(1180.7256858343842+0j),9.0,12.0,330.0,10000.0,99999,,0j,0,1116003312101602090302304000051000600007000080000
4081,LIRZ,43.0959014893,12.5131998062,2024-03-06 12:20:00,,,,,8.0,1015.0,(5141.602570960847+0j),5.0,5.0,100.0,10000.0,99999,6.0,0j,0,1116061005100802050301504000051000600007000086000
4089,EHLE,52.4603004456,5.5272197723,2024-03-06 12:25:00,,,,,10.0,1023.0,(977.9927565453347+0j),8.0,4.0,120.0,10000.0,99999,1.0,0j,0,1116011204101002080302304000051000600007000081000
4098,ETHC,52.5912017822,10.0221004486,2024-03-06 12:20:00,,,,,8.0,1024.0,(1649.0290737290943+0j),0.0,7.0,60.0,10000.0,99999,2.0,0j,0,1116020607100802000302404000051000600007000082000
4099,ETHF,51.1146,9.286,2024-03-06 12:20:00,,,,,8.0,1023.0,(9.313161251255446+0j),4.0,4.0,50.0,8000.0,99999,3.0,0j,0,1114030504100802040302304000051000600007000083000
4100,ETHL,48.2202987671,9.9100198746,2024-03-06 12:20:00,61.0,36.0,^,green,5.0,1019.0,(16.408143297532092+0j),3.0,4.0,330.0,9000.0,99999,4.0,0j,0,1115043304100502030301904000051000600007610084000
4103,ETND,52.5855560303,8.3422222137,2024-03-06 12:20:00,,,,,6.0,1024.0,(1873.553895516662+0j),3.0,7.0,90.0,10000.0,99999,4.0,0j,0,1116040907100602030302404000051000600007000084000
4104,ETNH,54.3121986389,9.5381698608,2024-03-06 12:20:00,,,,,4.0,1026.0,(1390.9615649018497+0j),1.0,5.0,90.0,10000.0,99999,6.0,0j,0,1116060905100402010302604000051000600007000086000
4107,ETNS,54.4593009949,9.5163297653,2024-03-06 12:20:00,,,,,4.0,1026.0,(1710.6921695702524+0j),1.0,5.0,80.0,10000.0,99999,3.0,0j,0,1116030805100402010302604000051000600007000083000
4115,EFKI,64.2854995728,27.6923999786,2024-03-06 12:20:00,,,,,-3.0,1030.0,(16638421.463974046+0j),-4.0,5.0,310.0,10000.0,99999,8.0,0j,0,1116083105110302140303004000051000600007000088000
4116,EFKU,63.0070991516,27.7978000641,2024-03-06 12:20:00,,,,,-3.0,1030.0,(-3207.3293732721863-3352.34231666569j),-4.0,8.0,320.0,10000.0,99999,8.0,0j,0,1116083208110302140303004000051000600007000088000
4140,EHGR,51.567401886,4.9318299294,2024-03-06 12:25:00,,,,,12.0,1022.0,(1168.7758294928979+0j),5.0,4.0,120.0,10000.0,99999,3.0,0j,0,1116031204101202050302204000051000600007000083000
4158,EGOW,53.5816001892,-3.0555200577,2024-03-06 12:20:00,,,,,10.0,1021.0,(1153.5192794340746+0j),4.0,12.0,160.0,10000.0,99999,1.0,0j,0,1116011612101002040302104000051000600007000081000
4173,EGAA,54.6575012207,-6.2158298492,2024-03-06 12:20:00,,,,,10.0,1017.0,(2104.486466097102+0j),4.0,16.0,150.0,10000.0,99999,1.0,0j,0,1116011516101002040301704000051000600007000081000
4174,EGBJ,51.8941993713,-2.1672201157,2024-03-06 12:20:00,,,,,8.0,1021.0,(1499.4164461184112+0j),6.0,0.0,0.0,9000.0,99999,3.0,0j,0,1115030000100802060302104000051000600007000083000
4177,EGFF,51.3967018127,-3.3433299065,2024-03-06 12:20:00,,,,,10.0,1020.0,(1895.5390484287682+0j),6.0,10.0,110.0,10000.0,99999,,0j,0,1116001110101002060302004000051000600007000080000
4178,EGHE,49.9132995605,-6.2916698456,2024-03-06 12:20:00,,,,,10.0,1016.0,(1450.7992635180492+0j),9.0,13.0,140.0,10000.0,99999,2.0,0j,0,1116021413101002090301604000051000600007000082000
4179,EGHI,50.9502983093,-1.3567999601,2024-03-06 12:20:00,,,,,10.0,1021.0,(1179.3436475780136+0j),6.0,4.0,130.0,10000.0,99999,3.0,0j,0,1116031304101002060302104000051000600007000083000
4180,EGJB,49.4350013733,-2.6019699574,2024-03-06 12:20:00,,,,,10.0,1020.0,(2426.820872579996+0j),5.0,13.0,150.0,10000.0,99999,,0j,0,1116001513101002050302004000051000600007000080000
4182,EGNJ,53.5744018555,-0.3508329988,2024-03-06 12:20:00,10.0,36.0,+,yellow,8.0,1022.0,(1603.9159719345491+0j),7.0,7.0,90.0,1600.0,99999,3.0,0j,0,1110030907100802070302204000051000600007100083000
4183,EGNM,53.8658981323,-1.6605700254,2024-03-06 12:20:00,,,,,5.0,1021.0,(7726.22244969117+0j),5.0,6.0,100.0,300.0,99999,,0j,0,1110001006100502050302104000051000600007000080000
4184,EGNV,54.5092010498,-1.4294099808,2024-03-06 12:20:00,,,,,8.0,1022.0,(1598.7062876214604+0j),6.0,7.0,110.0,7000.0,99999,4.0,0j,0,1114041107100802060302204000051000600007000084000
4186,EGPC,58.4589004517,-3.0930600166,2024-03-06 12:20:00,,,,,7.0,1023.0,(1727.0521008441215+0j),3.0,17.0,140.0,10000.0,99999,6.0,0j,0,1116061417100702030302304000051000600007000086000
4187,EGPD,57.2019004822,-2.1977798939,2024-03-06 12:20:00,,,,,6.0,1023.0,(2540.6593324271444+0j),3.0,10.0,130.0,10000.0,99999,5.0,0j,0,1116051310100602030302304000051000600007000085000
4188,EGPE,57.5424995422,-4.0475001335,2024-03-06 12:20:00,,,,,9.0,1021.0,(1144.1498599259498+0j),3.0,10.0,110.0,10000.0,99999,2.0,0j,0,1116021110100902030302104000051000600007000082000
4189,EGPL,57.481098175,-7.3627800941,2024-03-06 12:20:00,,,,,9.0,1017.0,(1091.487554920141+0j),5.0,22.0,160.0,10000.0,99999,1.0,0j,0,1116011622100902050301704000051000600007000081000
4190,EGPO,58.2155990601,-6.3311100006,2024-03-06 12:20:00,,,,,10.0,1019.0,(1111.2339971349707+0j),4.0,9.0,140.0,10000.0,99999,1.0,0j,0,1116011409101002040301904000051000600007000081000
4191,EGSS,51.8849983215,0.2349999994,2024-03-06 12:20:00,,,,,10.0,1022.0,(2488.708697837858+0j),5.0,4.0,110.0,10000.0,99999,5.0,0j,0,1116051104101002050302204000051000600007000085000
4192,EGTC,52.0722007751,-0.6166669726,2024-03-06 12:20:00,,,,,8.0,1021.0,(2971.5178433315464+0j),5.0,5.0,110.0,8000.0,99999,3.0,0j,0,1114031105100802050302104000051000600007000083000
4204,EHBK,50.9117012024,5.7701401711,2024-03-06 12:25:00,,,,,11.0,1022.0,(2454.908677298703+0j),3.0,2.0,,10000.0,99999,,0j,0,1116003602101102030302204000051000600007000080000
4228,ETMN,53.7677001953,8.6584997177,2024-03-06 12:20:00,,,,,8.0,1025.0,(1364.9211333363398+0j),1.0,7.0,110.0,10000.0,99999,1.0,0j,0,1116011107100802010302504000051000600007000081000
4264,EHRD,51.9569015503,4.4372200966,2024-03-06 12:25:00,,,,,11.0,1023.0,(975.8121779200833+0j),5.0,5.0,150.0,10000.0,99999,1.0,0j,0,1116011505101102050302304000051000600007000081000
4308,EGCC,53.3536987305,-2.2749500275,2024-03-06 12:20:00,,,,,11.0,1021.0,(1957.8480941076102+0j),4.0,5.0,130.0,10000.0,99999,3.0,0j,0,1116031305101102040302104000051000600007000083000
4312,EGDR,50.086101532,-5.255710125,2024-03-06 12:20:00,51.0,36.0,T,green,10.0,1017.0,(2099.9460007530815+0j),9.0,10.0,150.0,10000.0,99999,4.0,0j,0,1116041510101002090301704000051000600007510084000
4314,EGDY,51.0093994141,-2.6388199329,2024-03-06 12:20:00,,,,,12.0,1020.0,(1247.4825531637034+0j),4.0,9.0,140.0,10000.0,99999,3.0,0j,0,1116031409101202040302004000051000600007000083000
4318,EGOV,53.2481002808,-4.5353398323,2024-03-06 12:20:00,,,,,11.0,1019.0,(1138.9583085441109+0j),5.0,11.0,180.0,10000.0,99999,1.0,0j,0,1116011811101102050301904000051000600007000081000
4322,EGPI,55.6819000244,-6.2566699982,2024-03-06 12:20:00,,,,,9.0,1018.0,(1243.9863851807977+0j),5.0,18.0,160.0,10000.0,99999,3.0,0j,0,1116031618100902050301804000051000600007000083000
4326,EGUW,52.1273002625,0.956264019,2024-03-06 12:20:00,,,,,8.0,1022.0,(2522.1916234333685+0j),6.0,1.0,130.0,10000.0,99999,6.0,0j,0,1116061301100802060302204000051000600007000086000
4333,EGWU,51.5530014038,-0.418166995,2024-03-06 12:20:00,,,,,10.0,1021.0,(1490.2748969265936+0j),6.0,2.0,100.0,7000.0,99999,3.0,0j,0,1114031002101002060302104000051000600007000083000
4349,LIRN,40.8860015869,14.2908000946,2024-03-06 12:20:00,,,,,14.0,1018.0,(1848.0082494086041+0j),5.0,15.0,280.0,10000.0,99999,6.0,0j,0,1116062815101402050301804000051000600007000086000
4350,ESSA,59.6519012451,17.9186000824,2024-03-06 12:20:00,,,,,2.0,1033.0,(4238.848153437297+0j),-3.0,5.0,90.0,10000.0,99999,1.0,0j,0,1116010905100202130303304000051000600007000081000
4390,ETNL,53.9182014465,12.2783002853,2024-03-06 12:20:00,,,,,6.0,1026.0,(1951.1779349792369+0j),0.0,5.0,90.0,10000.0,99999,2.0,0j,0,1116020905100602000302604000051000600007000082000
4391,ETNN,50.831199646,6.6581702232,2024-03-06 12:20:00,,,,,11.0,1022.0,(2485.236534945783+0j),3.0,3.0,80.0,10000.0,99999,1.0,0j,0,1116010803101102030302204000051000600007000081000
4393,ETNW,52.4572982788,9.4271697998,2024-03-06 12:20:00,,,,,8.0,1024.0,(1964.108586387852+0j),2.0,8.0,120.0,10000.0,99999,6.0,0j,0,1116061208100802020302404000051000600007000086000
4394,ETSB,50.1738014221,7.0633301735,2024-03-06 12:20:00,,,,,9.0,1021.0,(9.583592594119718+0j),1.0,5.0,100.0,10000.0,99999,3.0,0j,0,1116031005100902010302104000051000600007000083000
4395,ETSH,51.7677993774,13.1676998138,2024-03-06 12:20:00,,,,,7.0,1024.0,(2640.917390689432+0j),-1.0,7.0,30.0,10000.0,99999,1.0,0j,0,1116010307100702110302404000051000600007000081000
4396,ETSI,48.7156982422,11.5340003967,2024-03-06 12:20:00,,,,,10.0,1018.0,(6887.533473684534+0j),3.0,6.0,10.0,10000.0,99999,3.0,0j,0,1116030106101002030301804000051000600007000083000
4397,ETSN,48.7109985352,11.2115001678,2024-03-06 12:20:00,,,,,9.0,1019.0,(7840.852879883834+0j),5.0,3.0,30.0,10000.0,99999,5.0,0j,0,1116050303100902050301904000051000600007000085000
4398,ETWM,52.7232017517,7.3263301849,2024-03-06 12:20:00,,,,,7.0,1024.0,(1024+0j),3.0,4.0,60.0,10000.0,99999,4.0,0j,0,1116040604100702030302404000051000600007000084000
4399,EBAW,51.1893997192,4.4602799416,2024-03-06 12:20:00,,,,,11.0,1023.0,(1150.0979083909624+0j),3.0,1.0,,10000.0,99999,1.0,0j,0,1116013601101102030302304000051000600007000081000
4400,EBBR,50.9014015198,4.4844398499,2024-03-06 12:20:00,,,,,10.0,1023.0,(1744.206730976804+0j),4.0,1.0,,10000.0,99999,3.0,0j,0,1116033601101002040302304000051000600007000083000
4401,EHAM,52.3086013794,4.7638897896,2024-03-06 12:25:00,,,,,10.0,1023.0,(984.859800018271+0j),7.0,6.0,130.0,10000.0,99999,3.0,0j,0,1116031306101002070302304000051000600007000083000
4402,ENSH,68.2433013916,14.6691999435,2024-03-06 12:20:00,,,,,3.0,1032.0,(1369.2924002104442+0j),-0.0,0.0,0.0,10000.0,99999,,0j,0,1116000000100302100303204000051000600007000080000
4403,ETNT,53.5477981567,7.6673297882,2024-03-06 12:20:00,,,,,8.0,1025.0,(1141.4966878927803+0j),3.0,7.0,100.0,10000.0,99999,3.0,0j,0,1116031007100802030302504000051000600007000083000
4435,LTFM,41.275333,28.752,2024-03-06 12:20:00,,,,,7.0,1017.0,(3043.261460843827+0j),4.0,12.0,350.0,10000.0,99999,4.0,0j,0,1116043512100702040301704000051000600007000084000
4458,ESPA,65.543800354,22.1219997406,2024-03-06 12:20:00,10.0,36.0,+,yellow,-3.0,1032.0,(402.6593783501205+0j),-3.0,4.0,330.0,2500.0,99999,,0j,0,1111003304110302130303204000051000600007100080000
4462,LTAZ,38.771900177,34.5345001221,2024-03-06 12:20:00,,,,,6.0,1011.0,(20.373731510125175+0j),3.0,11.0,190.0,10000.0,99999,4.0,0j,0,1116041911100602030301104000051000600007000084000
4463,LTBR,40.2551994324,29.5625991821,2024-03-06 12:20:00,,,,,10.0,1015.0,(4578.029288572554+0j),5.0,2.0,310.0,10000.0,99999,6.0,0j,0,1116063102101002050301504000051000600007000086000
4466,LTFC,37.8554000854,30.3684005737,2024-03-06 12:20:00,,,,,10.0,1012.0,(13.997422063351117+0j),3.0,11.0,330.0,10000.0,99999,6.0,0j,0,1116063311101002030301204000051000600007000086000
4467,LTFJ,40.898601532,29.3092002869,2024-03-06 12:20:00,,,,,9.0,1017.0,(2470.1994797123452+0j),5.0,10.0,300.0,10000.0,99999,4.0,0j,0,1116043010100902050301704000051000600007000084000
4479,EPBY,53.0968017578,17.9776992798,2024-03-06 12:30:00,,,,,6.0,1024.0,(2704.657991599745+0j),3.0,10.0,70.0,10000.0,99999,6.0,0j,0,1116060710100602030302404000051000600007000086000
4483,EPRA,51.388833,21.211667,2024-03-06 12:30:00,,,,,4.0,1021.0,(8697.990280244256+0j),3.0,10.0,50.0,2000.0,99999,8.0,0j,0,1111080510100402030302104000051000600007000088000
4485,EPSY,53.481944,20.937778,2024-03-06 12:30:00,,,,,6.0,1024.0,(4668.015319436334+0j),-4.0,8.0,80.0,10000.0,99999,,0j,0,1116000808100602140302404000051000600007000080000
4487,EPZG,52.1385002136,15.7986001968,2024-03-06 12:30:00,,,,,6.0,1024.0,(2376.298479917669+0j),3.0,4.0,310.0,10000.0,99999,8.0,0j,0,1116083104100602030302404000051000600007000088000
4496,LFCK,43.5563011169,2.2891800404,2024-03-06 12:30:00,,,,,11.0,1023.0,(4362.745207758802+0j),4.0,4.0,310.0,10000.0,99999,4.0,0j,0,1116043104101102040302304000051000600007000084000
4497,LFLP,45.9291992188,6.098760128,2024-03-06 12:30:00,,,,,8.0,1021.0,(10.318860217937942+0j),0.0,3.0,,10000.0,99999,3.0,0j,0,1116033603100802000302104000051000600007000083000
4498,LFLU,44.9216003418,4.9699001312,2024-03-06 12:30:00,,,,,11.0,1021.0,(3120.3169422399174+0j),4.0,14.0,340.0,10000.0,99999,3.0,0j,0,1116033414101102040302104000051000600007000083000
4503,LFQA,49.2086982727,4.1565799713,2024-03-06 12:30:00,,,,,8.0,1022.0,(2697.3457598801906+0j),4.0,6.0,150.0,10000.0,99999,5.0,0j,0,1116051506100802040302204000051000600007000085000
4533,LFAC,50.9621009827,1.9547599554,2024-03-06 12:30:00,,,,,12.0,1022.0,(1057.177258767683+0j),6.0,5.0,170.0,10000.0,99999,3.0,0j,0,1116031705101202060302204000051000600007000083000
4535,LFGA,48.1099014282,7.3590102196,2024-03-06 12:30:00,,,,,9.0,1022.0,(4260.77505319394+0j),2.0,1.0,,10000.0,99999,8.0,0j,0,1116083601100902020302204000051000600007000088000
4536,LFJR,47.5602989197,-0.3122220039,2024-03-06 12:30:00,,,,,12.0,1022.0,(1647.562048126611+0j),5.0,4.0,180.0,10000.0,99999,3.0,0j,0,1116031804101202050302204000051000600007000083000
4538,LFRU,48.6031990051,-3.8157799244,2024-03-06 12:30:00,,,,,11.0,1019.0,(2014.9355419200695+0j),9.0,6.0,170.0,10000.0,99999,4.0,0j,0,1116041706101102090301904000051000600007000084000
4547,LFLH,46.8260993958,4.8176298141,2024-03-06 12:30:00,,,,,9.0,1022.0,(4231.605090969018+0j),3.0,3.0,,10000.0,99999,,0j,0,1116003603100902030302204000051000600007000080000
4563,LHPR,47.6244010925,17.8136005402,2024-03-06 12:15:00,,,,,13.0,1016.0,(2370.96391808097+0j),4.0,7.0,320.0,10000.0,99999,1.0,0j,0,1116013207101302040301604000051000600007000081000
4564,LHSM,46.6864013672,17.1590995789,2024-03-06 12:15:00,,,,,13.0,1016.0,(2313.379302464021+0j),4.0,9.0,10.0,10000.0,99999,,0j,0,1116000109101302040301604000051000600007000080000
4575,LTAC,40.1281013489,32.995098114,2024-03-06 12:20:00,80.0,36.0,q,green,5.0,1010.0,(22.357730321077643+0j),3.0,10.0,300.0,10000.0,99999,6.0,0j,0,1116063010100502030301004000051000600007800086000
4577,LTAI,36.8987007141,30.8005008698,2024-03-06 12:20:00,,,,,19.0,1010.0,(1352.3540356598755+0j),3.0,10.0,320.0,10000.0,99999,3.0,0j,0,1116033210101902030301004000051000600007000083000
4580,LTBA,40.9768981934,28.8145999908,2024-03-06 12:20:00,,,,,10.0,1017.0,(1645.0904225803215+0j),4.0,9.0,350.0,10000.0,99999,6.0,0j,0,1116063509101002040301704000051000600007000086000
4584,LTCG,40.995098114,39.7896995544,2024-03-06 12:20:00,80.0,36.0,q,green,13.0,1009.0,(1300.3000755230478+0j),8.0,9.0,290.0,10000.0,99999,4.0,0j,0,1116042909101302080300904000051000600007800084000
4587,EHGG,53.1197013855,6.5794401169,2024-03-06 12:25:00,,,,,7.0,1024.0,(1110.4714516415297+0j),3.0,5.0,90.0,10000.0,99999,8.0,0j,0,1116080905100702030302404000051000600007000088000
4589,LYBT,44.935299,20.2575,2024-03-06 12:30:00,95.0,36.0,2,red,15.0,1014.0,(1697.732073373622+0j),10.0,6.0,100.0,10000.0,99999,1.0,0j,0,11160110061015020100301404000051000600007950081000
4590,LYKV,43.818298,20.5872,2024-03-06 12:30:00,,,,,16.0,1014.0,(2858.8508578198876+0j),6.0,3.0,340.0,10000.0,99999,3.0,0j,0,1116033403101602060301404000051000600007000083000
4593,LYVR,45.1469,21.3099,2024-03-06 12:30:00,61.0,36.0,^,green,12.0,1015.0,(1930.258873298173+0j),9.0,3.0,60.0,10000.0,99999,2.0,0j,0,1116020603101202090301504000051000600007610082000
4599,LBGO,43.1514015198,25.7129001617,2024-03-06 12:30:00,,,,,12.0,1017.0,(1967.3463301076722+0j),5.0,0.0,0.0,10000.0,99999,8.0,0j,0,1116080000101202050301704000051000600007000088000
4612,LGKF,38.120098114,20.5004997253,2024-03-06 12:20:00,,,,,17.0,1017.0,(1140.620705872931+0j),13.0,12.0,280.0,10000.0,99999,2.0,0j,0,11160228121017020130301704000051000600007000082000
4613,LGSM,37.6899986267,26.911699295,2024-03-06 12:20:00,,,,,16.0,1014.0,(1055.5019194397973+0j),8.0,12.0,10.0,10000.0,99999,3.0,0j,0,1116030112101602080301404000051000600007000083000
4615,LOXT,48.3166999817,16.1166992188,2024-03-06 12:20:00,,,,,10.0,1019.0,(3605.501543998759+0j),2.0,8.0,10.0,20.0,99999,6.0,0j,0,1110060108101002020301904000051000600007000086000
4721,LFRL,48.2817001343,-4.4450201988,2024-03-06 12:30:00,,,,,12.0,1019.0,(1978.6503772519407+0j),11.0,7.0,180.0,10000.0,99999,8.0,0j,0,11160818071012020110301904000051000600007000088000
4724,LFYR,47.3208007813,1.6888899803,2024-03-06 12:30:00,,,,,10.0,1022.0,(2211.315518949207+0j),6.0,8.0,200.0,10000.0,99999,5.0,0j,0,1116052008101002060302204000051000600007000085000
4727,EGXV,53.8758010864,-0.4350000024,2024-03-06 12:20:00,10.0,36.0,+,yellow,7.0,1022.0,(1208.1855709446888+0j),6.0,8.0,80.0,2400.0,99999,8.0,0j,0,1111080808100702060302204000051000600007100088000
4748,UMBB,52.1082992554,23.8980998993,2024-03-06 12:30:00,,,,,4.0,1023.0,(6755.243924908082+0j),-0.0,5.0,80.0,6000.0,99999,8.0,0j,0,1113080805100402100302304000051000600007000088000
4750,UMMG,53.6020011902,24.0538005829,2024-03-06 12:30:00,,,,,5.0,1026.0,(5275.743175473834+0j),-5.0,6.0,70.0,10000.0,99999,6.0,0j,0,1116060706100502150302604000051000600007000086000
4752,EGLL,51.4706001282,-0.4619410038,2024-03-06 12:20:00,,,,,9.0,1022.0,(1364.7437460427434+0j),5.0,2.0,,7000.0,99999,1.0,0j,0,1114013602100902050302204000051000600007000081000
4757,EPLL,51.7219009399,19.3980998993,2024-03-06 12:30:00,10.0,36.0,+,yellow,5.0,1021.0,(6938.845423880022+0j),4.0,11.0,50.0,4600.0,99999,3.0,0j,0,1112030511100502040302104000051000600007100083000
4758,EPWR,51.1026992798,16.885799408,2024-03-06 12:30:00,,,,,6.0,1022.0,(4132.561905001859+0j),1.0,9.0,10.0,10000.0,99999,,0j,0,1116000109100602010302204000051000600007000080000
4759,LFBE,44.8252983093,0.5186110139,2024-03-06 12:30:00,,,,,9.0,1022.0,(1768.3156551632367+0j),8.0,7.0,70.0,10000.0,99999,8.0,0j,0,1116080707100902080302204000051000600007000088000
4761,LFCR,44.4079017639,2.4826700687,2024-03-06 12:30:00,,,,,7.0,1021.0,(13.731162913447253+0j),2.0,4.0,320.0,10000.0,99999,6.0,0j,0,1116063204100702020302104000051000600007000086000
4762,LFJL,48.9821014404,6.2513198853,2024-03-06 12:30:00,,,,,9.0,1022.0,(5681.977961297874+0j),3.0,3.0,220.0,10000.0,99999,5.0,0j,0,1116052203100902030302204000051000600007000085000
4766,LHDC,47.488899231,21.6152992249,2024-03-06 12:15:00,,,,,12.0,1015.0,(2242.9992741912583+0j),6.0,4.0,60.0,10000.0,99999,,0j,0,1116000604101202060301504000051000600007000080000
4767,LHKE,46.9174995422,19.7492008209,2024-03-06 12:15:00,,,,,14.0,1015.0,(2102.9386030096252+0j),5.0,7.0,50.0,10000.0,99999,3.0,0j,0,1116030507101402050301504000051000600007000083000
4768,LHPP,45.9908981323,18.2409992218,2024-03-06 12:15:00,,,,,15.0,1015.0,(4069.592447830504+0j),5.0,2.0,,10000.0,99999,,0j,0,1116003602101502050301504000051000600007000080000
4769,LHSN,47.1228981018,20.2355003357,2024-03-06 12:15:00,,,,,13.0,1015.0,(2008.902379996683+0j),5.0,7.0,40.0,10000.0,99999,,0j,0,1116000407101302050301504000051000600007000080000
4774,LZPP,48.6251983643,17.8283996582,2024-03-06 12:30:00,,,,,13.0,1016.0,(2817.7842918853926+0j),3.0,10.0,360.0,10000.0,99999,,0j,0,1116003610101302030301604000051000600007000080000
4775,LZZI,49.2314987183,18.6135005951,2024-03-06 12:30:00,,,,,10.0,1017.0,(5934.209038886307+0j),-1.0,6.0,40.0,10000.0,99999,,0j,0,1116000406101002110301704000051000600007000080000
4776,EGAE,55.0428009033,-7.1611099243,2024-03-06 12:20:00,,,,,10.0,1015.0,(1092.5197980759979+0j),5.0,13.0,140.0,10000.0,99999,1.0,0j,0,1116011413101002050301504000051000600007000081000
4777,EGDM,51.1521987915,-1.747410059,2024-03-06 12:20:00,,,,,10.0,1021.0,(2771.6000768790277+0j),5.0,7.0,150.0,10000.0,99999,1.0,0j,0,1116011507101002050302104000051000600007000081000
4778,EGOS,52.7981987,-2.6680400372,2024-03-06 12:20:00,10.0,36.0,+,yellow,7.0,1021.0,(2523.143403592633+0j),5.0,7.0,140.0,7000.0,99999,6.0,0j,0,1114061407100702050302104000051000600007100086000
4779,EGQS,57.7052001953,-3.3391699791,2024-03-06 12:20:00,,,,,7.0,1022.0,(1240.4531279150517+0j),2.0,18.0,140.0,10000.0,99999,3.0,0j,0,1116031418100702020302204000051000600007000083000
4780,EGUB,51.6164016724,-1.0958299637,2024-03-06 12:20:00,,,,,8.0,1021.0,(2179.183864095679+0j),7.0,1.0,230.0,10000.0,99999,1.0,0j,0,1116012301100802070302104000051000600007000081000
4781,EGVN,51.75,-1.5836199522,2024-03-06 12:20:00,,,,,7.0,1021.0,(2793.3101949938746+0j),6.0,4.0,150.0,7000.0,99999,6.0,0j,0,1114061504100702060302104000051000600007000086000
4782,EGVO,51.2341003418,-0.9428250194,2024-03-06 12:20:00,,,,,9.0,1021.0,(2983.9555127363897+0j),7.0,5.0,130.0,10000.0,99999,3.0,0j,0,1116031305100902070302104000051000600007000083000
4783,EGXC,53.0929985046,-0.1660140008,2024-03-06 12:20:00,10.0,36.0,+,yellow,7.0,1022.0,(1149.9267130158476+0j),6.0,3.0,300.0,3500.0,99999,7.0,0j,0,1112073003100702060302204000051000600007100087000
4784,EGXE,54.2924003601,-1.535400033,2024-03-06 12:20:00,,,,,7.0,1022.0,(1762.1579001114073+0j),5.0,6.0,110.0,7000.0,99999,8.0,0j,0,1114081106100702050302204000051000600007000088000
4785,EGXT,52.6125984192,-0.4764530063,2024-03-06 12:20:00,,,,,10.0,1021.0,(2135.598979235595+0j),4.0,4.0,90.0,10000.0,99999,1.0,0j,0,1116010904101002040302104000051000600007000081000
4786,LTCS,37.4456634521,38.8955917358,2024-03-06 12:20:00,,,,,11.0,1011.0,(12.58065405196156+0j),5.0,4.0,210.0,10000.0,99999,4.0,0j,0,1116042104101102050301104000051000600007000084000
4790,LJCE,45.9000015259,15.5302000046,2024-03-06 12:30:00,,,,,13.0,1015.0,(2683.988503193543+0j),4.0,2.0,320.0,10000.0,99999,3.0,0j,0,1116033202101302040301504000051000600007000083000
4799,LFOV,48.0313987732,-0.7429860234,2024-03-06 12:30:00,,,,,12.0,1021.0,(2144.753328763969+0j),4.0,3.0,170.0,10000.0,99999,1.0,0j,0,1116011703101202040302104000051000600007000081000
4803,LFRV,47.7233009338,-2.7185599804,2024-03-06 12:30:00,,,,,9.0,1020.0,(3209.2409644084755+0j),9.0,6.0,150.0,4400.0,99999,8.0,0j,0,1112081506100902090302004000051000600007000088000
4804,LFSG,48.3250007629,6.0699801445,2024-03-06 12:30:00,,,,,9.0,1022.0,(6927.247264249028+0j),1.0,3.0,,10000.0,99999,,0j,0,1116003603100902010302204000051000600007000080000
4810,LFAQ,49.9715003967,2.6976599693,2024-03-06 12:30:00,,,,,8.0,1022.0,(3011.809925225028+0j),4.0,5.0,120.0,10000.0,99999,4.0,0j,0,1116041205100802040302204000051000600007000084000
4811,LFBU,45.7291984558,0.2214560062,2024-03-06 12:30:00,,,,,10.0,1022.0,(2917.299831789726+0j),6.0,5.0,150.0,10000.0,99999,6.0,0j,0,1116061505101002060302204000051000600007000086000
4814,LFOZ,47.896900177,2.1633300781,2024-03-06 12:30:00,,,,,8.0,1022.0,(3212.725759986721+0j),4.0,0.0,0.0,10000.0,99999,3.0,0j,0,1116030000100802040302204000051000600007000083000
4815,LFPT,49.0965995789,2.0408298969,2024-03-06 12:30:00,,,,,10.0,1021.0,(2377.190612769187+0j),2.0,3.0,60.0,10000.0,99999,6.0,0j,0,1116060603101002020302104000051000600007000086000
4819,LFSM,47.4869995117,6.7905402184,2024-03-06 12:30:00,,,,,9.0,1021.0,(6672.773671681926+0j),1.0,4.0,,10000.0,99999,4.0,0j,0,1116043604100902010302104000051000600007000084000
4850,LEMI,37.803,-1.125,2024-03-06 12:30:00,,,,,18.0,1021.0,(2503.780834129662+0j),5.0,7.0,120.0,10000.0,99999,,0j,0,1116001207101802050302104000051000600007000080000
4851,ULWC,59.276667,38.028333,2024-03-06 12:30:00,,,,,-0.0,1025.0,(39.19668001070782+0j),-7.0,4.0,240.0,10000.0,99999,6.0,0j,0,1116062404110002170302504000051000600007000086000
4852,UUBC,54.5499992371,36.3666687012,2024-03-06 12:30:00,,,,,0.0,1026.0,(39.2349206741329+0j),-9.0,3.0,50.0,10000.0,99999,,0j,0,1116000503100002190302604000051000600007000080000
4853,UUOB,50.6437988281,36.5900993347,2024-03-06 12:30:00,,,,,-1.0,1021.0,(75.05076022157306+0j),-5.0,6.0,40.0,9000.0,99999,6.0,0j,0,1115060406110102150302104000051000600007000086000
4854,UUOK,51.7505989075,36.2956008911,2024-03-06 12:30:00,,,,,-2.0,1023.0,(235.2078723573083+0j),-5.0,6.0,50.0,10000.0,99999,6.0,0j,0,1116060506110202150302304000051000600007000086000
4857,UWPS,54.1251296997,45.2122573853,2024-03-06 12:30:00,,,,,-3.0,1023.0,(1820.2067226830197+0j),-11.0,3.0,10.0,10000.0,99999,,0j,0,11160001031103021110302304000051000600007000080000
4860,UWKS,56.0903015137,47.3473014832,2024-03-06 12:30:00,,,,,-4.0,1024.0,(-62417960.60399122-65240063.08689588j),-13.0,2.0,340.0,10000.0,99999,,0j,0,11160034021104021130302404000051000600007000080000
4865,ULPB,61.8852005005,34.1547012329,2024-03-06 12:30:00,,,,,-2.0,1028.0,(2.7741318741865588e-05+0j),-5.0,4.0,360.0,10000.0,99999,8.0,0j,0,1116083604110202150302804000051000600007000088000
4870,LECH,40.9000015259,-1.3041199446,2024-03-06 12:30:00,,,,,15.0,1021.0,(10.572023072420519+0j),2.0,10.0,120.0,10000.0,99999,,0j,0,1116001210101502020302104000051000600007000080000
4882,UUBW,55.5532989502,38.1500015259,2024-03-06 12:30:00,,,,,-1.0,1027.0,(186.33696065332887+0j),-13.0,3.0,330.0,10000.0,99999,,0j,0,11160033031101021130302704000051000600007000080000
4883,UUOL,52.7028007507,39.5377998352,2024-03-06 12:30:00,,,,,-3.0,1024.0,(10265.28402717591+0j),-7.0,8.0,20.0,10000.0,99999,6.0,0j,0,1116060208110302170302404000051000600007000086000
4886,URMG,43.3883018494,45.698600769,2024-03-06 12:30:00,,,,,6.0,1012.0,(1012+0j),3.0,6.0,30.0,9000.0,99999,1.0,0j,0,1115010306100602030301204000051000600007000081000
4890,URMO,43.2051010132,44.6066017151,2024-03-06 12:30:00,,,,,11.0,1010.0,(8426.921719834949+0j),2.0,6.0,60.0,10000.0,99999,6.0,0j,0,1116060606101102020301004000051000600007000086000
4892,URRP,47.50083333,39.93361111,2024-03-06 12:30:00,,,,,7.0,1015.0,(2735.157230126784+0j),-4.0,8.0,80.0,10000.0,99999,,0j,0,1116000808100702140301504000051000600007000080000
4904,UUDL,57.5606994629,40.1573982239,2024-03-06 12:30:00,,,,,-2.0,1026.0,(-482938591.7679835-504773688.36086637j),-11.0,4.0,250.0,10000.0,99999,,0j,0,11160025041102021110302604000051000600007000080000
4907,UUMO,55.5116996765,37.5071983337,2024-03-06 12:30:00,,,,,-1.0,1027.0,(96.17285447137532+0j),-12.0,2.0,320.0,10000.0,99999,,0j,0,11160032021101021120302704000051000600007000080000
4914,EBBL,51.1683006287,5.4699997902,2024-03-06 12:25:00,,,,,11.0,1022.0,(1733.1466884902331+0j),3.0,2.0,,10000.0,99999,3.0,0j,0,1116033602101102030302204000051000600007000083000
4916,EBDT,50.9991989136,5.065559864,2024-03-06 12:25:00,,,,,11.0,1022.0,(1359.5886097865014+0j),3.0,5.0,190.0,10000.0,99999,2.0,0j,0,1116021905101102030302204000051000600007000082000
4917,EBFS,50.2433013916,4.6458301544,2024-03-06 12:25:00,,,,,8.0,1022.0,(6742.145203481847+0j),3.0,3.0,130.0,10000.0,99999,1.0,0j,0,1116011303100802030302204000051000600007000081000
4923,LTAJ,36.9472007751,37.4786987305,2024-03-06 12:20:00,,,,,13.0,1010.0,(9.658964638604209+0j),8.0,12.0,210.0,10000.0,99999,4.0,0j,0,1116042112101302080301004000051000600007000084000
4925,LTBJ,38.2924003601,27.156999588,2024-03-06 12:20:00,,,,,16.0,1014.0,(2050.890375252149+0j),5.0,12.0,340.0,10000.0,99999,3.0,0j,0,1116033412101602050301404000051000600007000083000
4926,LTBS,36.7131004333,28.7924995422,2024-03-06 12:20:00,,,,,18.0,1012.0,(1050.7343536186845+0j),9.0,12.0,250.0,10000.0,99999,1.0,0j,0,1116012512101802090301204000051000600007000081000
4928,LTFE,37.2505989075,27.6643009186,2024-03-06 12:20:00,,,,,16.0,1013.0,(1058.8663937645374+0j),9.0,11.0,240.0,10000.0,99999,6.0,0j,0,1116062411101602090301304000051000600007000086000
4929,LPCS,38.7249984741,-9.3552303314,2024-03-06 12:30:00,,,,,14.0,1020.0,(1949.2870433462106+0j),9.0,8.0,180.0,10000.0,99999,1.0,0j,0,1116011808101402090302004000051000600007000081000
4941,LHPA,47.3636016846,17.5007991791,2024-03-06 12:15:00,,,,,12.0,1016.0,(2667.39565645848+0j),5.0,7.0,350.0,10000.0,99999,6.0,0j,0,1116063507101202050301604000051000600007000086000
4943,LQMO,43.2829017639,17.8458995819,2024-03-06 12:30:00,61.0,36.0,^,green,13.0,1014.0,(1463.967867353696+0j),8.0,6.0,150.0,10000.0,99999,3.0,0j,0,1116031506101302080301404000051000600007610083000
4950,EBCV,50.5758018494,3.8310000896,2024-03-06 12:25:00,,,,,9.0,1022.0,(1879.6652810498886+0j),4.0,1.0,,10000.0,99999,5.0,0j,0,1116053601100902040302204000051000600007000085000
4956,LFLN,46.4124984741,4.0132598877,2024-03-06 12:30:00,,,,,9.0,1022.0,(5246.937401444872+0j),2.0,5.0,280.0,10000.0,99999,4.0,0j,0,1116042805100902020302204000051000600007000084000
4959,LFMK,43.2159996033,2.306319952,2024-03-06 12:30:00,,,,,13.0,1021.0,(2415.350275530523+0j),6.0,6.0,250.0,10000.0,99999,,0j,0,1116002506101302060302104000051000600007000080000
4961,LFMU,43.3235015869,3.3538999557,2024-03-06 12:30:00,,,,,14.0,1021.0,(1164.5582010984992+0j),4.0,8.0,330.0,10000.0,99999,6.0,0j,0,1116063308101402040302104000051000600007000086000
4964,LFPM,48.6046981812,2.6711199284,2024-03-06 12:30:00,,,,,8.0,1022.0,(2630.570556775806+0j),5.0,2.0,,10000.0,99999,4.0,0j,0,1116043602100802050302204000051000600007000084000
4994,LEHC,42.0760993958,-0.3166669905,2024-03-06 12:30:00,,,,,12.0,1021.0,(8283.755700125543+0j),3.0,5.0,230.0,10000.0,99999,,0j,0,1116002305101202030302104000051000600007000080000
