,station,lat,lon,time,weather,weatherfont,weathersymbol,weathercolour,temperature,pressure,sl_pressure,dewpoint,windspeed,winddir,visibility,visual_range,cloudcover,pressure3h_change,rain,wwletter
21,EEEI,59.2602996826,24.2084999084,2023-04-03 11:50:00,,,,,2.0,1029.0,1029.127295858526,-10.0,17.0,10.0,10000.0,99999,,0.0,0,11160001171002021100302904029151000600007000080000
218,EGEO,56.4635009766,-5.3996701241,2023-04-03 11:50:00,,,,,11.0,1028.0,1028.123054947154,3.0,13.0,160.0,10000.0,99999,1.0,0.0,0,1116011613101102030302804028151000600007000081000
553,ETNG,50.9608001709,6.0424199104,2023-04-03 11:50:00,,,,,9.0,1029.0,1029.123322915499,-1.0,13.0,60.0,10000.0,99999,,0.0,0,1116000613100902110302904029151000600007000080000
698,LGLR,39.6562825886,22.3400008678,2023-04-03 11:50:00,95.0,36.0,2,red,12.0,1001.0,1001.1187810921547,12.0,8.0,100.0,7000.0,99999,4.0,0.0,0,11140410081012020120300104001151000600007950084000
771,LGTG,38.3398017883,23.5650005341,2023-04-03 11:50:00,,,,,17.0,1000.0,1000.1158999969552,10.0,6.0,190.0,8000.0,99999,4.0,0.0,0,11140419061017020100300004000151000600007000084000
828,EKVD,55.4362983704,9.3309202194,2023-04-03 11:50:00,,,,,6.0,1035.0,1035.1258899436932,-2.0,11.0,60.0,10000.0,99999,3.0,0.0,0,1116030611100602120303504035151000600007000083000
829,EKVJ,55.9901008606,8.3539104462,2023-04-03 11:50:00,,,,,8.0,1035.0,1035.1253080758447,99999.0,4.0,,10000.0,99999,1.0,0.0,0,11160136041008020999990303504035151000600007000081000
906,LIPK,44.1948013306,12.0700998306,2023-04-03 11:50:00,,,,,13.0,1013.0,1013.1201519139792,0.0,10.0,50.0,10000.0,99999,1.0,0.0,0,1116010510101302000301304013151000600007000081000
1096,LGKZ,40.2860984802,21.8407993317,2023-04-03 11:50:00,63.0,36.0,',green,7.0,1002.0,1002.1162831301029,6.0,7.0,40.0,6000.0,99999,5.0,0.0,0,1113050407100702060300204002151000600007630085000
1115,LGKF,38.120098114,20.5004997253,2023-04-03 11:50:00,,,,,15.0,998.0,998.1176103953795,14.0,10.0,200.0,10000.0,99999,3.0,0.0,0,11160320101015020140399804998151000600007000083000
1118,LGKP,35.4213981628,27.1459999084,2023-04-03 11:50:00,,,,,20.0,1008.0,1008.1166673008688,15.0,19.0,140.0,10000.0,99999,,0.0,0,11160014191020020150300804008151000600007000080000
1123,LGSK,39.1771011353,23.5037002563,2023-04-03 11:50:00,,,,,16.0,1000.0,1000.11743329827,14.0,6.0,10.0,7000.0,99999,6.0,0.0,0,11140601061016020140300004000151000600007000086000
1124,LGSM,37.6899986267,26.911699295,2023-04-03 11:50:00,,,,,20.0,1007.0,1007.1166722730528,11.0,15.0,140.0,10000.0,99999,1.0,0.0,0,11160114151020020110300704007151000600007000081000
1125,LGZA,37.7509002686,20.8843002319,2023-04-03 11:50:00,,,,,16.0,999.0,999.1174181455048,11.0,10.0,210.0,10000.0,99999,3.0,0.0,0,11160321101016020110399904999151000600007000083000
1208,ETEK,49.6502990723,7.300069809,2023-04-03 11:55:00,,,,,4.0,30.31,1030.3137270042726,-3.3,10.0,80.0,10000.0,99999,6.0,0.0,0,111606081010040213033034030351000600007000086000
1329,LTAL,41.314201355,33.7957992554,2023-04-03 11:50:00,,,,,15.0,1013.0,1013.1107840738316,4.0,13.0,270.0,10000.0,99999,4.0,0.0,0,1116042713101502040301304013151000600007000084000
1330,LTAS,41.506401062,32.0886001587,2023-04-03 11:50:00,,,,,20.0,1011.0,1011.1170841158482,12.0,9.0,10.0,10000.0,99999,4.0,0.0,0,11160401091020020120301104011151000600007000084000
1333,LTBO,38.6814994812,29.4717006683,2023-04-03 11:50:00,,,,,19.0,1011.0,1011.1105162653861,1.0,3.0,240.0,10000.0,99999,4.0,0.0,0,1116042403101902010301104011151000600007000084000
1335,LTCL,37.9789009094,41.8404006958,2023-04-03 11:50:00,,,,,18.0,1018.0,1018.1137804569596,7.0,5.0,200.0,10000.0,99999,3.0,0.0,0,1116032005101802070301804018151000600007000083000
1336,LTCO,39.6545410156,43.0259780884,2023-04-03 11:50:00,,,,,11.0,1016.0,1016.1082112817131,3.0,12.0,200.0,10000.0,99999,4.0,0.0,0,1116042012101102030301604016151000600007000084000
1337,LTCP,37.7313995361,38.4688987732,2023-04-03 11:50:00,,,,,17.0,1017.0,1017.1135379479211,9.0,6.0,130.0,10000.0,99999,3.0,0.0,0,1116031306101702090301704017151000600007000083000
1338,LTCR,37.2233009338,40.6316986084,2023-04-03 11:50:00,,,,,19.0,1017.0,1017.1139390411623,10.0,5.0,270.0,10000.0,99999,3.0,0.0,0,11160327051019020100301704017151000600007000083000
1339,LTFB,37.9506988525,27.329000473,2023-04-03 11:50:00,,,,,23.0,1007.0,1007.1154797570359,6.0,10.0,150.0,10000.0,99999,,0.0,0,1116001510102302060300704007151000600007000080000
1340,LTFK,40.204498291,25.8833007812,2023-04-03 11:50:00,,,,,18.0,1007.0,1007.1173610894067,15.0,4.0,30.0,10000.0,99999,3.0,0.0,0,11160303041018020150300704007151000600007000083000
1353,LTAY,37.7855987549,29.7012996674,2023-04-03 11:50:00,,,,,20.0,1011.0,1011.1103832472103,4.0,14.0,150.0,10000.0,99999,3.0,0.0,0,1116031514102002040301104011151000600007000083000
1354,LTBD,37.8149986267,27.8952999115,2023-04-03 11:50:00,,,,,23.0,1008.0,1008.11536294394,6.0,13.0,110.0,10000.0,99999,,0.0,0,1116001113102302060300804008151000600007000080000
1356,LTBH,40.1376991272,26.4267997742,2023-04-03 11:50:00,,,,,17.0,1006.0,1006.1177950462989,13.0,13.0,70.0,10000.0,99999,4.0,0.0,0,11160407131017020130300604006151000600007000084000
1358,LTBY,39.8098983765,30.5193996429,2023-04-03 11:50:00,,,,,21.0,1010.0,1010.1103827929777,1.0,6.0,270.0,10000.0,99999,3.0,0.0,0,1116032706102102010301004010151000600007000083000
1360,LTCB,40.966667,38.08,2023-04-03 11:50:00,,,,,13.0,1015.0,1015.1206040714552,10.0,5.0,280.0,10000.0,99999,4.0,0.0,0,11160428051013020100301504015151000600007000084000
1364,LTCN,37.5388259888,36.9535217285,2023-04-03 11:50:00,,,,,20.0,1016.0,1016.1134547991193,10.0,6.0,230.0,10000.0,99999,3.0,0.0,0,11160323061020020100301604016151000600007000083000
1365,LTCT,39.9766273499,43.8766479492,2023-04-03 11:50:00,,,,,18.0,1013.0,1013.1106345610189,2.0,6.0,120.0,10000.0,99999,4.0,0.0,0,1116041206101802020301304013151000600007000084000
1366,LTDA,36.36277771,36.2822227478,2023-04-03 11:50:00,,,,,23.0,1015.0,1015.1157433293557,9.0,3.0,,10000.0,99999,,0.0,0,1116003603102302090301504015151000600007000080000
1367,LTFD,39.554599762,27.0137996674,2023-04-03 11:50:00,,,,,23.0,1006.0,1006.1152645180138,10.0,5.0,10.0,10000.0,99999,3.0,0.0,0,11160301051023020100300604006151000600007000083000
1368,LTFG,36.2992172241,32.3005981445,2023-04-03 11:50:00,,,,,20.0,1015.0,1015.1174257912362,14.0,7.0,230.0,10000.0,99999,2.0,0.0,0,11160223071020020140301504015151000600007000082000
1406,EGYE,52.9622001648,-0.5616250038,2023-04-03 11:50:00,,,,,99999.0,99999.0,99999.0,99999.0,9.0,120.0,10000.0,99999,1.0,0.0,0,11160112091099999020999990399904999051000600007000081000
1418,LGSY,38.9676017761,24.4871997833,2023-04-03 11:50:00,,,,,19.0,1001.0,1001.1163230545469,12.0,18.0,140.0,10000.0,99999,2.0,0.0,0,11160214181019020120300104001151000600007000082000
1445,EGQL,56.3728981018,-2.8684399128,2023-04-03 11:50:00,,,,,10.0,1030.0,1030.1237083206522,1.0,4.0,190.0,10000.0,99999,1.0,0.0,0,1116011904101002010303004030151000600007000081000
1461,LBPG,42.2904014587,24.7140007019,2023-04-03 12:00:00,61.0,36.0,^,green,12.0,1009.0,1009.1198683632518,5.0,4.0,120.0,8000.0,99999,4.0,0.0,0,1114041204101202050300904009151000600007610084000
1463,LBPL,43.4514007568,24.5027999878,2023-04-03 12:00:00,,,,,17.0,1010.0,1010.1174603330476,8.0,6.0,250.0,10000.0,99999,3.0,0.0,0,1116032506101702080301004010151000600007000083000
1499,LTAH,38.726398468,30.6011009216,2023-04-03 11:50:00,,,,,19.0,1012.0,1012.1096837561578,2.0,12.0,170.0,10000.0,99999,4.0,0.0,0,1116041712101902020301204012151000600007000084000
1501,LTAN,37.9790000916,32.5619010925,2023-04-03 11:50:00,,,,,21.0,1013.0,1013.1089153333655,0.0,9.0,160.0,10000.0,99999,2.0,0.0,0,1116021609102102000301304013151000600007000082000
1503,LTBI,39.7840995789,30.5820999146,2023-04-03 11:50:00,,,,,20.0,1011.0,1011.1108759728103,2.0,3.0,,10000.0,99999,3.0,0.0,0,1116033603102002020301104011151000600007000083000
1504,LTBL,38.5130004883,27.010099411,2023-04-03 11:50:00,,,,,22.0,1006.0,1006.1157509819964,6.0,15.0,130.0,10000.0,99999,3.0,0.0,0,1116031315102202060300604006151000600007000083000
1514,LTAD,39.949798584,32.6885986328,2023-04-03 11:50:00,,,,,20.0,1013.0,1013.1109287159859,2.0,7.0,260.0,10000.0,99999,3.0,0.0,0,1116032607102002020301304013151000600007000083000
1522,LTBT,38.8088989258,27.8339004517,2023-04-03 11:50:00,,,,,24.0,1006.0,1006.1143387812683,4.0,12.0,170.0,10000.0,99999,3.0,0.0,0,1116031712102402040300604006151000600007000083000
1554,LBWB,43.4238014221,28.1812992096,2023-04-03 12:00:00,,,,,15.0,1011.0,1011.1175587903024,9.0,10.0,90.0,10000.0,99999,4.0,0.0,0,1116040910101502090301104011151000600007000084000
1561,LTAE,40.0788993835,32.5656013489,2023-04-03 11:50:00,,,,,19.0,1013.0,1013.1110350028325,2.0,6.0,,10000.0,99999,2.0,0.0,0,1116023606101902020301304013151000600007000082000
1584,ETIC,49.6986999512,11.940199852,2023-04-03 11:55:00,,,,,6.0,30.27,1030.2735807627128,-6.9,5.0,340.0,10000.0,99999,3.0,0.0,0,111603340510060216033024030251000600007000083000
2061,LTAB,39.9350013733,32.7407989502,2023-04-03 11:50:00,,,,,20.0,1012.0,1012.1107407915333,2.0,7.0,250.0,10000.0,99999,2.0,0.0,0,1116022507102002020301204012151000600007000082000
2062,LTAR,39.8138008118,36.9034996033,2023-04-03 11:50:00,,,,,12.0,1017.0,1017.1084534234903,1.0,12.0,270.0,10000.0,99999,4.0,0.0,0,1116042712101202010301704017151000600007000084000
2063,LTAV,39.451499939,31.3652992249,2023-04-03 11:50:00,,,,,19.0,1011.0,1011.1098584516974,0.0,8.0,190.0,10000.0,99999,6.0,0.0,0,1116061908101902000301104011151000600007000086000
2064,LTAW,40.3074302673,36.3674087524,2023-04-03 11:50:00,,,,,19.0,1013.0,1013.1132447692154,7.0,4.0,220.0,10000.0,99999,4.0,0.0,0,1116042204101902070301304013151000600007000084000
2065,LTBF,39.6193008423,27.9260005951,2023-04-03 11:50:00,,,,,23.0,1007.0,1007.1146545111316,11.0,4.0,30.0,10000.0,99999,3.0,0.0,0,11160303041023020110300704007151000600007000083000
2066,LTBG,40.3180007935,27.9776992798,2023-04-03 11:50:00,,,,,17.0,1008.0,1008.1176440914809,13.0,13.0,40.0,10000.0,99999,,0.0,0,11160004131017020130300804008151000600007000080000
2067,LTBQ,40.7350006104,30.0832996368,2023-04-03 11:50:00,,,,,22.0,1009.0,1009.1156759409351,9.0,4.0,80.0,10000.0,99999,4.0,0.0,0,1116040804102202090300904009151000600007000084000
2068,LTCA,38.6068992615,39.2914009094,2023-04-03 11:50:00,,,,,18.0,1016.0,1016.1113647185414,8.0,8.0,70.0,10000.0,99999,4.0,0.0,0,1116040708101802080301604016151000600007000084000
2069,LTCI,38.4682006836,43.3322982788,2023-04-03 11:50:00,,,,,10.0,1020.0,1020.1089617349047,0.0,3.0,290.0,10000.0,99999,2.0,0.0,0,1116022903101002000302004020151000600007000082000
2070,LTCK,38.7477989197,41.6612014771,2023-04-03 11:50:00,,,,,15.0,1016.0,1016.1096591988182,4.0,6.0,270.0,10000.0,99999,3.0,0.0,0,1116032706101502040301604016151000600007000083000
2071,LTFA,38.5176010132,26.977399826,2023-04-03 11:50:00,,,,,21.0,1006.0,1006.1161633098113,8.0,15.0,130.0,10000.0,99999,3.0,0.0,0,1116031315102102080300604006151000600007000083000
2232,LFLC,45.7867012024,3.1691699028,2023-04-03 12:00:00,,,,,7.0,1021.0,1021.1210777370711,6.0,10.0,360.0,10000.0,99999,8.0,0.0,0,1116083610100702060302104021151000600007000088000
2296,UMBB,52.1082992554,23.8980998993,2023-04-03 12:00:00,,,,,4.0,1020.0,1020.1240642153163,-8.0,8.0,10.0,8000.0,99999,3.0,0.0,0,1114030108100402180302004020151000600007000083000
2299,UMMG,53.6020011902,24.0538005829,2023-04-03 12:00:00,,,,,4.0,1023.0,1023.1245011148775,-9.0,9.0,10.0,10000.0,99999,6.0,0.0,0,1116060109100402190302304023151000600007000086000
2324,UWLW,54.4010009766,48.8027000427,2023-04-03 12:00:00,,,,,17.0,1015.0,1015.1182458301904,-2.0,5.0,130.0,10000.0,99999,,0.0,0,1116001305101702120301504015151000600007000080000
2359,EGUL,52.4093017578,0.5609999895,2023-04-03 11:55:00,,,,,11.3,30.43,1030.4336374892055,2.6,6.0,100.0,10000.0,99999,3.0,0.0,0,111603100610113202333044030451000600007000083000
2361,EGVA,51.6822013855,-1.7900300026,2023-04-03 11:55:00,,,,,8.9,30.39,1030.393644358269,3.1,6.0,90.0,10000.0,99999,6.0,0.0,0,111606090610089203933034030351000600007000086000
2404,EGWC,52.6399993896,-2.3055799007,2023-04-03 11:50:00,,,,,9.0,1031.0,1031.1236302443717,1.0,10.0,110.0,10000.0,99999,3.0,0.0,0,1116031110100902010303104031151000600007000083000
2460,LGHI,38.3432006836,26.1406002045,2023-04-03 11:50:00,,,,,20.0,1004.0,1004.11633494372,15.0,10.0,160.0,10000.0,99999,1.0,0.0,0,11160116101020020150300404004151000600007000081000
2461,LGKC,36.2742996216,23.0170001984,2023-04-03 11:50:00,61.0,36.0,^,green,14.0,1002.0,1002.1159414309893,13.0,13.0,220.0,9000.0,99999,1.0,0.0,0,11150122131014020130300204002151000600007610081000
2462,LGPA,37.0102996826,25.1280994415,2023-04-03 11:50:00,,,,,20.0,1002.0,1002.1158071462676,11.0,18.0,140.0,10000.0,99999,3.0,0.0,0,11160314181020020110300204002151000600007000083000
2463,LGSO,37.4227981567,24.9508991241,2023-04-03 11:50:00,,,,,19.0,1001.0,1001.1158315114825,13.0,22.0,130.0,10000.0,99999,3.0,0.0,0,11160313221019020130300104001151000600007000083000
2466,LKKB,50.1213989258,14.5436000824,2023-04-03 12:00:00,,,,,4.0,1027.0,1027.1235692197542,-6.0,10.0,10.0,10000.0,99999,6.0,0.0,0,1116060110100402160302704027151000600007000086000
2468,LKLN,49.675201416,13.274600029,2023-04-03 12:00:00,,,,,5.0,1026.0,1026.1222985276722,-6.0,8.0,50.0,10000.0,99999,6.0,0.0,0,1116060508100502160302604026151000600007000086000
2482,LTCD,39.7102012634,39.5270004272,2023-04-03 11:50:00,,,,,15.0,1016.0,1016.1105076309968,4.0,1.0,,10000.0,99999,4.0,0.0,0,1116043601101502040301604016151000600007000084000
2483,LTCF,40.5621986389,43.1150016785,2023-04-03 11:50:00,,,,,11.0,1016.0,1016.1072832972164,1.0,10.0,170.0,10000.0,99999,6.0,0.0,0,1116061710101102010301604016151000600007000086000
2486,LTFH,41.2545013428,36.5671005249,2023-04-03 11:50:00,,,,,16.0,1014.0,1014.1191731884287,11.0,8.0,70.0,10000.0,99999,4.0,0.0,0,11160407081016020110301404014151000600007000084000
2493,UMOO,53.9548988342,30.0951004028,2023-04-03 12:00:00,,,,,1.0,1018.0,1018.1247279728291,-0.0,5.0,350.0,2700.0,99999,7.0,0.0,0,1111073505100102100301804018151000600007000087000
2504,LIPB,46.4602012634,11.3263998032,2023-04-03 11:50:00,,,,,18.0,1012.0,1012.1161011519324,-13.0,10.0,20.0,10000.0,99999,,0.0,0,11160002101018021130301204012151000600007000080000
2515,LIBF,41.4328994751,15.5349998474,2023-04-03 11:50:00,,,,,13.0,1004.0,1004.1186348052292,9.0,18.0,330.0,10000.0,99999,3.0,0.0,0,1116033318101302090300404004151000600007000083000
2518,LIMA,45.0863990784,7.6033701897,2023-04-03 11:50:00,,,,,19.0,1011.0,1011.1151961985653,-3.0,3.0,,10000.0,99999,1.0,0.0,0,1116013603101902130301104011151000600007000081000
2524,LIRI,40.6203994751,14.9112997055,2023-04-03 11:50:00,,,,,16.0,1000.0,1000.1172630558741,6.0,11.0,40.0,10000.0,99999,6.0,0.0,0,1116060411101602060300004000151000600007000086000
2551,EIWF,52.1871986389,-7.0869598389,2023-04-03 12:00:00,,,,,10.0,1027.0,1027.1231201924763,8.0,14.0,180.0,10000.0,99999,3.0,0.0,0,1116031814101002080302704027151000600007000083000
2572,LPBJ,38.0788993835,-7.9324002266,2023-04-03 12:00:00,,,,,22.0,1018.0,1018.115563724704,-1.0,3.0,,10000.0,99999,,0.0,0,1116003603102202110301804018151000600007000080000
2616,LIBC,38.9972000122,17.0802001953,2023-04-03 11:50:00,,,,,15.0,993.0,993.1158192361024,12.0,12.0,70.0,10000.0,99999,3.0,0.0,0,11160307121015020120399304993151000600007000083000
2617,LICG,36.8165016174,11.9688997269,2023-04-03 11:50:00,,,,,14.0,1005.0,1005.1173656457861,11.0,18.0,330.0,10000.0,99999,3.0,0.0,0,11160333181014020110300504005151000600007000083000
2619,LIMG,44.0505981445,8.1274299622,2023-04-03 11:50:00,,,,,21.0,1009.0,1009.116165305442,-3.0,11.0,330.0,10000.0,99999,1.0,0.0,0,1116013311102102130300904009151000600007000081000
2622,LIBA,41.5414009094,15.7180995941,2023-04-03 11:55:00,,,,,15.0,1003.0,1003.1178720215985,8.0,15.0,360.0,10000.0,99999,3.0,0.0,0,1116033615101502080300304003151000600007000083000
2623,LIBG,40.5175018311,17.4032001495,2023-04-03 11:50:00,61.0,36.0,^,green,13.0,998.0,998.1180584945994,10.0,18.0,40.0,9000.0,99999,3.0,0.0,0,11150304181013020100399804998151000600007610083000
2626,LIBV,40.7677993774,16.9333000183,2023-04-03 11:55:00,,,,,10.0,999.0,999.1169163297409,8.0,17.0,40.0,5000.0,99999,3.0,0.0,0,1113030417101002080399904999151000600007000083000
2628,LIMN,45.5295982361,8.6692199707,2023-04-03 11:55:00,,,,,18.0,1011.0,1011.1165024742903,5.0,8.0,100.0,10000.0,99999,1.0,0.0,0,1116011008101802050301104011151000600007000081000
2630,LIMS,44.9131011963,9.7233295441,2023-04-03 11:55:00,,,,,16.0,1011.0,1011.1176685400403,9.0,12.0,120.0,10000.0,99999,3.0,0.0,0,1116031212101602090301104011151000600007000083000
2632,LIPA,46.0318984985,12.5965003967,2023-04-03 11:55:00,,,,,15.0,1013.0,1013.11844623788,4.0,3.0,160.0,10000.0,99999,1.0,0.0,0,1116011603101502040301304013151000600007000081000
2634,LIPC,44.2242012024,12.3072004318,2023-04-03 11:55:00,,,,,13.0,1013.0,1013.1203664279647,4.0,10.0,70.0,10000.0,99999,1.0,0.0,0,1116010710101302040301304013151000600007000081000
2636,LIPF,44.8160018921,11.6134004593,2023-04-03 11:55:00,,,,,15.0,1013.0,1013.1194825313167,2.0,6.0,90.0,10000.0,99999,,0.0,0,1116000906101502020301304013151000600007000080000
2640,LIPL,45.4322013855,10.2677001953,2023-04-03 11:55:00,,,,,15.0,1012.0,1012.1185322860103,8.0,10.0,130.0,10000.0,99999,3.0,0.0,0,1116031310101502080301204012151000600007000083000
2642,LIPS,45.6848983765,12.0829000473,2023-04-03 11:55:00,,,,,14.0,1014.0,1014.119722351832,6.0,99999.0,,10000.0,99999,6.0,0.0,0,1116063699999101402060301404014151000600007000086000
2643,LIQN,42.4272003174,12.8516998291,2023-04-03 11:50:00,,,,,15.0,1006.0,1006.1154001412547,2.0,14.0,10.0,10000.0,99999,3.0,0.0,0,1116030114101502020300604006151000600007000083000
2645,LIQW,44.0880012512,9.987950325,2023-04-03 11:55:00,,,,,20.0,1010.0,1010.116952849158,1.0,6.0,40.0,10000.0,99999,1.0,0.0,0,1116010406102002010301004010151000600007000081000
2647,LIRE,41.654499054,12.4451999664,2023-04-03 11:55:00,,,,,20.0,1003.0,1003.1161525173145,4.0,14.0,360.0,10000.0,99999,3.0,0.0,0,1116033614102002040300304003151000600007000083000
2649,LIRG,41.9902992249,12.7407999039,2023-04-03 11:55:00,,,,,19.0,1004.0,1004.1160432988273,3.0,10.0,10.0,10000.0,99999,3.0,0.0,0,1116030110101902030300404004151000600007000083000
2651,LIRH,41.6464004517,13.2997999191,2023-04-03 11:55:00,,,,,18.0,1002.0,1002.1169676345027,3.0,18.0,20.0,10000.0,99999,3.0,0.0,0,1116030218101802030300204002151000600007000083000
2653,LIRL,41.5424003601,12.9090003967,2023-04-03 11:55:00,,,,,21.0,1002.0,1002.1154959690657,3.0,2.0,,10000.0,99999,3.0,0.0,0,1116033602102102030300204002151000600007000083000
2655,LIRS,42.7597007751,11.0719003677,2023-04-03 11:55:00,,,,,18.0,1008.0,1008.1176236435414,1.0,20.0,40.0,10000.0,99999,1.0,0.0,0,1116010420101802010300804008151000600007000081000
2656,LIRU,41.9519004822,12.4989004135,2023-04-03 11:50:00,,,,,19.0,1004.0,1004.1166433164001,6.0,13.0,10.0,10000.0,99999,,0.0,0,1116000113101902060300404004151000600007000080000
2661,LIMP,44.8245010376,10.2964000702,2023-04-03 11:50:00,,,,,15.0,1012.0,1012.1189882078727,6.0,11.0,110.0,10000.0,99999,3.0,0.0,0,1116031111101502060301204012151000600007000083000
2664,LIRM,41.060798645,14.0818996429,2023-04-03 11:55:00,,,,,18.0,1003.0,1003.1170090301177,3.0,19.0,330.0,10000.0,99999,3.0,0.0,0,1116033319101802030300304003151000600007000083000
2703,ETIK,49.4738998413,10.3880996704,2023-04-03 11:55:00,,,,,5.3,30.31,1030.3136178775012,-3.5,11.0,50.0,10000.0,99999,6.0,0.0,0,111606051110052213233034030351000600007000086000
2707,LPOV,40.9159011841,-8.6459197998,2023-04-03 12:00:00,,,,,17.0,1019.0,1019.119229623479,11.0,9.0,260.0,10000.0,99999,,0.0,0,11160026091017020110301904019151000600007000080000
2709,ETAD,49.9726982117,6.6925001144,2023-04-03 11:55:00,,,,,7.0,30.3,1030.303584547424,-3.3,13.0,50.0,10000.0,99999,3.0,0.0,0,111603051310070213033034030351000600007000083000
2710,ETAR,49.4369010925,7.600279808,2023-04-03 11:55:00,,,,,5.5,30.31,1030.3136402323219,-2.6,14.0,50.0,10000.0,99999,6.0,0.0,0,111606051410055212533034030351000600007000086000
2713,UMII,55.126499176,30.3495998383,2023-04-03 12:00:00,85.0,36.0,v,magenta,-0.0,1017.0,1017.1249411075784,-1.0,5.0,360.0,2900.0,99999,7.0,0.0,0,1111073605110002110301704017151000600007850087000
2720,LKVO,50.2165985107,14.3957996368,2023-04-03 12:00:00,,,,,4.0,1027.0,1027.1236258020908,-6.0,10.0,20.0,10000.0,99999,3.0,0.0,0,1116030210100402160302704027151000600007000083000
2725,LOAV,47.9650001526,16.2600002289,2023-04-03 12:00:00,,,,,5.0,99999.0,99999.0,-3.0,7.0,350.0,10000.0,99999,6.0,0.0,0,1116063507100502130399904999051000600007000086000
2728,LKKU,49.0293998718,17.439699173,2023-04-03 12:00:00,,,,,5.0,1022.0,1022.1235215671912,-6.0,20.0,20.0,10000.0,99999,2.0,0.0,0,1116020220100502160302204022151000600007000082000
2730,LOAN,47.8432998657,16.260099411,2023-04-03 12:00:00,,,,,99999.0,99999.0,99999.0,99999.0,15.0,360.0,10000.0,99999,4.0,0.0,0,11160436151099999020999990399904999051000600007000084000
2733,LIPI,45.9786987305,13.0493001938,2023-04-03 11:55:00,,,,,15.0,1012.0,1012.1189403308697,0.0,15.0,80.0,10000.0,99999,1.0,0.0,0,1116010815101502000301204012151000600007000081000
2735,LPAR,38.8833007813,-9.0300998688,2023-04-03 12:00:00,,,,,21.0,1018.0,1018.1175541191132,3.0,2.0,100.0,10000.0,99999,,0.0,0,1116001002102102030301804018151000600007000080000
2736,LPMR,39.831199646,-8.887260437,2023-04-03 12:00:00,,,,,18.0,1018.0,1018.118344034665,11.0,9.0,310.0,10000.0,99999,,0.0,0,11160031091018020110301804018151000600007000080000
2737,LPMT,38.7038993835,-9.0359201431,2023-04-03 12:00:00,,,,,21.0,1018.0,1018.1174638240194,6.0,3.0,,10000.0,99999,,0.0,0,1116003603102102060301804018151000600007000080000
2738,LPST,38.8311004639,-9.3395500183,2023-04-03 12:00:00,,,,,19.0,1019.0,1019.1173873528377,10.0,9.0,280.0,10000.0,99999,1.0,0.0,0,11160128091019020100301904019151000600007000081000
2743,LICT,37.9113998413,12.4879999161,2023-04-03 11:55:00,,,,,16.0,1002.0,1002.1177444309653,13.0,22.0,310.0,10000.0,99999,2.0,0.0,0,11160231221016020130300204002151000600007000082000
2744,LIBN,40.239200592,18.1333007813,2023-04-03 11:55:00,,,,,13.0,997.0,997.1180969682158,12.0,11.0,50.0,3500.0,99999,4.0,0.0,0,11120405111013020120399704997151000600007000084000
2745,LIRV,42.4301986694,12.0642004013,2023-04-03 11:55:00,,,,,14.0,1006.0,1006.1165402039006,3.0,22.0,30.0,10000.0,99999,,0.0,0,1116000322101402030300604006151000600007000080000
2746,EGUN,52.3619003296,0.4864059985,2023-04-03 11:55:00,,,,,11.0,30.43,1030.4336414922984,6.0,12.0,120.0,10000.0,99999,3.0,0.0,0,111603121210110206033044030451000600007000083000
2756,LICZ,37.4016990662,14.9224004745,2023-04-03 11:55:00,,,,,14.0,996.0,996.1177504692421,4.0,99999.0,,10000.0,99999,4.0,0.0,0,1116043699999101402040399604996151000600007000084000
2767,EVGA,56.778301239,24.8539009094,2023-04-03 12:20:00,,,,,2.0,1024.0,1024.1262762137458,-6.0,14.0,10.0,10000.0,99999,4.0,0.0,0,1116040114100202160302404024151000600007000084000
2799,EYSA,55.893901825,23.3950004578,2023-04-03 12:20:00,,,,,3.0,1025.0,1025.125212758347,-9.0,17.0,360.0,10000.0,99999,1.0,0.0,0,1116013617100302190302504025151000600007000081000
2803,EVVA,57.35779953,21.5442008972,2023-04-03 12:20:00,,,,,3.0,1029.0,1029.1269520329804,-5.0,17.0,360.0,10000.0,99999,,0.0,0,1116003617100302150302904029151000600007000080000
2811,LATI,41.4146995544,19.7206001282,2023-04-03 12:20:00,,,,,18.0,999.0,999.1162921045902,3.0,11.0,70.0,10000.0,99999,3.0,0.0,0,1116030711101802030399904999151000600007000083000
2826,LSZC,46.9744444444,8.3969444444,2023-04-03 12:20:00,,,,,5.0,1022.0,1022.1210342027024,-0.0,5.0,170.0,10000.0,99999,8.0,0.0,0,1116081705100502100302204022151000600007000088000
2849,EKRS,55.4258003235,11.8066997528,2023-04-03 12:20:00,,,,,7.0,1034.0,1034.1253823122606,-8.0,4.0,,10000.0,99999,,0.0,0,1116003604100702180303404034151000600007000080000
2898,LSMA,46.943901062,8.2841701508,2023-04-03 12:20:00,,,,,5.0,1022.0,1022.1210751104201,-1.0,10.0,60.0,10000.0,99999,7.0,0.0,0,1116070610100502110302204022151000600007000087000
2899,LSME,47.0923995972,8.3051204681,2023-04-03 12:20:00,,,,,5.0,1022.0,1022.121239018189,-0.0,5.0,50.0,10000.0,99999,8.0,0.0,0,1116080505100502100302204022151000600007000088000
2900,LSMM,46.7433013916,8.1099996567,2023-04-03 12:20:00,,,,,4.0,1020.0,1020.1200994874054,-0.0,14.0,30.0,10000.0,99999,3.0,0.0,0,1116030314100402100302004020151000600007000083000
2901,LSMP,46.8432006836,6.9150600433,2023-04-03 12:20:00,,,,,7.0,1020.0,1020.1199446483954,-0.0,16.0,60.0,10000.0,99999,,0.0,0,1116000616100702100302004020151000600007000080000
3024,LIED,39.3541984558,8.9724798203,2023-04-03 11:55:00,,,,,19.0,1007.0,1007.1168756365738,10.0,15.0,300.0,10000.0,99999,3.0,0.0,0,11160330151019020100300704007151000600007000083000
3032,EFKT,67.7009963989,24.8467998505,2023-04-03 12:20:00,66.0,36.0,c,red,-0.0,1028.0,1028.126404722585,-11.0,13.0,200.0,10000.0,99999,,0.0,0,11160020131100021110302804028151000600007660080000
3037,EFUT,60.8964004517,26.9384002686,2023-04-03 12:20:00,,,,,1.0,1028.0,1028.1268339834394,-11.0,12.0,360.0,10000.0,99999,,0.0,0,11160036121001021110302804028151000600007000080000
3047,ESGT,58.3180999756,12.345000267,2023-04-03 12:20:00,,,,,5.0,1036.0,1036.126504814629,-5.0,4.0,360.0,10000.0,99999,,0.0,0,1116003604100502150303604036151000600007000080000
3048,ESMQ,56.6855010986,16.2875995636,2023-04-03 12:20:00,,,,,3.0,1034.0,1034.1275748910562,-4.0,12.0,40.0,10000.0,99999,1.0,0.0,0,1116010412100302140303404034151000600007000081000
3050,ESTA,56.2961006165,12.8471002579,2023-04-03 12:20:00,,,,,6.0,1034.0,1034.125986905413,-10.0,5.0,360.0,10000.0,99999,,0.0,0,11160036051006021100303404034151000600007000080000
3051,ESTL,56.0828018188,13.2124996185,2023-04-03 12:20:00,,,,,6.0,1034.0,1034.125777040113,-11.0,4.0,50.0,10000.0,99999,,0.0,0,11160005041006021110303404034151000600007000080000
3055,EGCK,53.1041984558,-4.340280056,2023-04-03 12:20:00,,,,,12.0,1028.0,1028.122649319469,-0.0,10.0,200.0,10000.0,99999,,0.0,0,1116002010101202100302804028151000600007000080000
3057,EGTK,51.8368988037,-1.3200000525,2023-04-03 12:20:00,,,,,9.0,1030.0,1030.1235159654834,3.0,7.0,90.0,10000.0,99999,3.0,0.0,0,1116030907100902030303004030151000600007000083000
3058,EGHC,50.1027984619,-5.6705598831,2023-04-03 12:20:00,,,,,10.0,1026.0,1026.1222144721096,5.0,19.0,130.0,10000.0,99999,1.0,0.0,0,1116011319101002050302604026151000600007000081000
3060,EGHQ,50.4406013489,-4.9954099655,2023-04-03 12:20:00,,,,,10.0,1027.0,1027.1223640841908,3.0,15.0,120.0,10000.0,99999,1.0,0.0,0,1116011215101002030302704027151000600007000081000
3118,ESOH,60.0200996399,13.5789003372,2023-04-03 12:20:00,,,,,5.0,1034.0,1034.1252800664133,-7.0,6.0,230.0,10000.0,99999,,0.0,0,1116002306100502170303404034151000600007000080000
3126,ESNZ,63.1944007874,14.5003004074,2023-04-03 12:20:00,,,,,-0.0,1031.0,1031.1250510465643,-8.0,0.0,0.0,10000.0,99999,8.0,0.0,0,1116080000110002180303104031151000600007000088000
3128,ESCF,58.4023017883,15.5256996155,2023-04-03 12:20:00,,,,,3.0,1035.0,1035.1268321691582,-7.0,5.0,270.0,10000.0,99999,,0.0,0,1116002705100302170303504035151000600007000080000
3130,ESIB,58.426399231,12.7144002914,2023-04-03 12:20:00,,,,,4.0,1036.0,1036.1268525480293,-6.0,5.0,350.0,10000.0,99999,,0.0,0,1116003505100402160303604036151000600007000080000
3132,ESPE,65.8752975464,20.1499004364,2023-04-03 12:20:00,,,,,3.0,1030.0,1030.1253749534742,-9.0,8.0,240.0,10000.0,99999,1.0,0.0,0,1116012408100302190303004030151000600007000081000
3134,ESIA,58.5138015747,14.5071001053,2023-04-03 12:20:00,,,,,2.0,1035.0,1035.1273102107914,-5.0,4.0,210.0,10000.0,99999,,0.0,0,1116002104100202150303504035151000600007000080000
3135,ESCM,59.8973007202,17.5886001587,2023-04-03 12:20:00,,,,,3.0,1034.0,1034.127422393634,-5.0,6.0,360.0,10000.0,99999,,0.0,0,1116003606100302150303404034151000600007000080000
3152,ESNV,64.5791015625,16.8335990906,2023-04-03 12:20:00,,,,,-1.0,1030.0,1030.1256629239938,-9.0,6.0,200.0,10000.0,99999,4.0,0.0,0,1116042006110102190303004030151000600007000084000
3154,ESUP,67.2455978394,23.0688991547,2023-04-03 12:20:00,,,,,0.0,1029.0,1029.1268302329074,-11.0,15.0,190.0,10000.0,99999,,0.0,0,11160019151000021110302904029151000600007000080000
3155,ESND,62.0477981567,14.4229001999,2023-04-03 12:20:00,,,,,3.0,1032.0,1032.123951144581,-10.0,4.0,260.0,10000.0,99999,1.0,0.0,0,11160126041003021100303204032151000600007000081000
3174,LIMW,45.7384986877,7.3687200546,2023-04-03 12:20:00,,,,,17.0,1011.0,1011.1138959324139,-4.0,11.0,310.0,10000.0,99999,1.0,0.0,0,1116013111101702140301104011151000600007000081000
3175,LIMZ,44.547000885,7.6232199669,2023-04-03 12:20:00,,,,,18.0,1011.0,1011.1147891722599,-3.0,5.0,40.0,10000.0,99999,,0.0,0,1116000405101802130301104011151000600007000080000
3181,EVLA,56.5175018311,21.0969009399,2023-04-03 12:20:00,,,,,4.0,1029.0,1029.1264814539713,-6.0,11.0,350.0,10000.0,99999,3.0,0.0,0,1116033511100402160302904029151000600007000083000
3183,EYKA,54.9639015198,24.0848007202,2023-04-03 12:20:00,,,,,4.0,1024.0,1024.1251645964076,-7.0,12.0,350.0,10000.0,99999,6.0,0.0,0,1116063512100402170302404024151000600007000086000
3184,EYPA,55.9732017517,21.0939006805,2023-04-03 12:20:00,,,,,4.0,1028.0,1028.126308338193,-2.0,10.0,340.0,10000.0,99999,6.0,0.0,0,1116063410100402120302804028151000600007000086000
3220,EFET,68.3626022339,23.4242992401,2023-04-03 12:20:00,71.0,36.0,h,magenta,-1.0,1025.0,1025.125445882168,-11.0,19.0,210.0,10000.0,99999,,0.0,0,11160021191101021110302504025151000600007710080000
3221,EFHA,61.8559989929,24.7866001129,2023-04-03 12:20:00,,,,,0.0,1031.0,1031.1272647012427,-13.0,10.0,30.0,10000.0,99999,,0.0,0,11160003101000021130303104031151000600007000080000
3222,EFJO,62.6628990173,29.6075000763,2023-04-03 12:20:00,,,,,-0.0,1030.0,1030.1273835051047,-11.0,8.0,10.0,10000.0,99999,,0.0,0,11160001081100021110303004030151000600007000080000
3225,EFKI,64.2854995728,27.6923999786,2023-04-03 12:20:00,,,,,-0.0,1033.0,1033.1274996040117,-12.0,8.0,340.0,10000.0,99999,,0.0,0,11160034081100021120303304033151000600007000080000
3227,EFKS,65.9876022339,29.2394008636,2023-04-03 12:20:00,,,,,-2.0,1032.0,1032.127186484483,-11.0,5.0,150.0,10000.0,99999,,0.0,0,11160015051102021110303204032151000600007000080000
3228,EFLP,61.0446014404,28.1443996429,2023-04-03 12:20:00,,,,,0.0,1028.0,1028.127282863145,-9.0,12.0,10.0,10000.0,99999,,0.0,0,1116000112100002190302804028151000600007000080000
3229,EFMI,61.6865997314,27.2017993927,2023-04-03 12:20:00,,,,,1.0,1030.0,1030.127110570296,-12.0,7.0,,10000.0,99999,,0.0,0,11160036071001021120303004030151000600007000080000
3231,EFSA,61.9430999756,28.9451007843,2023-04-03 12:20:00,,,,,1.0,1030.0,1030.127164296238,-10.0,13.0,30.0,10000.0,99999,,0.0,0,11160003131001021100303004030151000600007000080000
3232,EFSI,62.6921005249,22.8323001862,2023-04-03 12:20:00,,,,,0.0,1033.0,1033.1280436643706,-12.0,6.0,320.0,10000.0,99999,,0.0,0,11160032061000021120303304033151000600007000080000
3242,ESMT,56.6911010742,12.8201999664,2023-04-03 12:20:00,,,,,7.0,1035.0,1035.1255383153791,-12.0,10.0,60.0,10000.0,99999,,0.0,0,11160006101007021120303504035151000600007000080000
3298,LICB,36.9946010208,14.6071815491,2023-04-03 12:20:00,61.0,36.0,^,green,15.0,998.0,998.1161421920946,5.0,8.0,350.0,10000.0,99999,6.0,0.0,0,1116063508101502050399804998151000600007610086000
3300,LIPO,45.4289016724,10.3305997849,2023-04-03 12:20:00,,,,,16.0,1012.0,1012.1180488616695,5.0,10.0,120.0,10000.0,99999,3.0,0.0,0,1116031210101602050301204012151000600007000083000
3318,LGIO,39.6963996887,20.8225002289,2023-04-03 12:20:00,,,,,14.0,997.0,997.114074985446,6.0,6.0,120.0,10000.0,99999,,0.0,0,1116001206101402060399704997151000600007000080000
3331,EEKA,58.9907989502,22.8306999207,2023-04-03 12:20:00,,,,,2.0,1030.0,1030.1275606305576,-7.0,17.0,360.0,10000.0,99999,,0.0,0,1116003617100202170303004030151000600007000080000
3332,EEKE,58.2299003601,22.5095005035,2023-04-03 12:20:00,,,,,2.0,1029.0,1029.1274487934613,-9.0,17.0,10.0,10000.0,99999,,0.0,0,1116000117100202190302904029151000600007000080000
3333,EETU,58.3074989319,26.6903991699,2023-04-03 12:20:00,71.0,36.0,h,magenta,-1.0,1025.0,1025.1277838194446,-5.0,9.0,10.0,10000.0,99999,7.0,0.0,0,1116070109110102150302504025151000600007710087000
3334,EEPU,58.4189987183,24.4727993011,2023-04-03 12:20:00,,,,,2.0,1027.0,1027.1271022721687,-7.0,14.0,20.0,10000.0,99999,3.0,0.0,0,1116030214100202170302704027151000600007000083000
3367,EDBC,51.8563995361,11.42029953,2023-04-03 12:20:00,,,,,4.0,1031.0,1031.1250376944345,-4.0,9.0,30.0,10000.0,99999,3.0,0.0,0,1116030309100402140303104031151000600007000083000
3495,EDJA,47.9888000488,10.2395000458,2023-04-03 12:20:00,,,,,3.0,1023.0,1023.1203975958734,-1.0,12.0,40.0,10000.0,99999,5.0,0.0,0,1116050412100302110302304023151000600007000085000
3502,EDTY,49.1183319092,9.7838888168,2023-04-03 12:20:00,,,,,5.0,1025.0,1025.1218726345633,-3.0,11.0,50.0,10000.0,99999,3.0,0.0,0,1116030511100502130302504025151000600007000083000
3506,EDWE,53.3911094666,7.2274999619,2023-04-03 12:20:00,,,,,8.0,1033.0,1033.125106266445,-5.0,8.0,50.0,10000.0,99999,,0.0,0,1116000508100802150303304033151000600007000080000
3509,EKBI,55.7402992249,9.1517801285,2023-04-03 12:20:00,,,,,7.0,1035.0,1035.125116903581,-5.0,10.0,70.0,10000.0,99999,1.0,0.0,0,1116010710100702150303504035151000600007000081000
3510,EKCH,55.6179008484,12.6560001373,2023-04-03 12:20:00,,,,,4.0,1035.0,1035.1272159810642,-7.0,5.0,10.0,10000.0,99999,,0.0,0,1116000105100402170303504035151000600007000080000
3511,EKEB,55.5259017944,8.5534000397,2023-04-03 12:20:00,,,,,8.0,1035.0,1035.1250776610561,-1.0,5.0,60.0,10000.0,99999,1.0,0.0,0,1116010605100802110303504035151000600007000081000
3513,EKOD,55.4766998291,10.3309001923,2023-04-03 12:20:00,,,,,6.0,1035.0,1035.1261438291665,-6.0,11.0,40.0,10000.0,99999,1.0,0.0,0,1116010411100602160303504035151000600007000081000
3514,EKRK,55.5856018066,12.1314001083,2023-04-03 12:20:00,,,,,4.0,1034.0,1034.1267109406692,-6.0,5.0,130.0,10000.0,99999,,0.0,0,1116001305100402160303404034151000600007000080000
3515,EKRN,55.0633010864,14.7595996857,2023-04-03 12:20:00,,,,,4.0,1034.0,1034.1269891617198,-6.0,9.0,10.0,10000.0,99999,6.0,0.0,0,1116060109100402160303404034151000600007000086000
3516,EKSB,54.9644012451,9.7917299271,2023-04-03 12:20:00,,,,,6.0,1034.0,1034.1261155015486,-2.0,6.0,110.0,10000.0,99999,3.0,0.0,0,1116031106100602120303404034151000600007000083000
3517,EKSP,55.2256011963,9.2639303207,2023-04-03 12:20:00,,,,,7.0,1035.0,1035.125422578022,-2.0,6.0,80.0,10000.0,99999,3.0,0.0,0,1116030806100702120303504035151000600007000083000
3525,EETN,59.4132995605,24.8327999115,2023-04-03 12:20:00,,,,,2.0,1028.0,1028.126974970212,-10.0,13.0,20.0,10000.0,99999,,0.0,0,11160002131002021100302804028151000600007000080000
3526,EFHK,60.317199707,24.963300705,2023-04-03 12:20:00,,,,,1.0,1029.0,1029.127435834182,-12.0,13.0,350.0,10000.0,99999,,0.0,0,11160035131001021120302904029151000600007000080000
3527,EFIV,68.6072998047,27.4053001404,2023-04-03 12:20:00,71.0,36.0,h,magenta,-1.0,1027.0,1027.1272426789888,-12.0,20.0,220.0,10000.0,99999,,0.0,0,11160022201101021120302704027151000600007710080000
3528,EFJY,62.3995018005,25.6783008575,2023-04-03 12:20:00,,,,,-0.0,1032.0,1032.1274479824724,-13.0,8.0,40.0,10000.0,99999,,0.0,0,11160004081100021130303204032151000600007000080000
3529,EFKE,65.7787017822,24.5820999146,2023-04-03 12:20:00,,,,,-2.0,1034.0,1034.1298838047753,-9.0,8.0,220.0,10000.0,99999,,0.0,0,1116002208110202190303404034151000600007000080000
3530,EFKK,63.7211990356,23.1431007385,2023-04-03 12:20:00,,,,,1.0,1034.0,1034.1283422472598,-13.0,4.0,360.0,10000.0,99999,,0.0,0,11160036041001021130303404034151000600007000080000
3531,EFKU,63.0070991516,27.7978000641,2023-04-03 12:20:00,,,,,-0.0,1032.0,1032.1278564114873,-13.0,6.0,50.0,10000.0,99999,,0.0,0,11160005061100021130303204032151000600007000080000
3532,EFMA,60.1222000122,19.8981990814,2023-04-03 12:20:00,,,,,1.0,1033.0,1033.1284212498445,-8.0,8.0,360.0,10000.0,99999,,0.0,0,1116003608100102180303304033151000600007000080000
3533,EFOU,64.9300994873,25.3546009064,2023-04-03 12:20:00,,,,,1.0,1034.0,1034.1284544495902,-14.0,5.0,140.0,10000.0,99999,,0.0,0,11160014051001021140303404034151000600007000080000
3534,EFPO,61.4617004395,21.7999992371,2023-04-03 12:20:00,,,,,2.0,1033.0,1033.1278538651522,-11.0,9.0,360.0,10000.0,99999,,0.0,0,11160036091002021110303304033151000600007000080000
3535,EFRO,66.5647964478,25.8304004669,2023-04-03 12:20:00,71.0,36.0,h,magenta,-1.0,1032.0,1032.1273788986875,-12.0,15.0,220.0,10000.0,99999,,0.0,0,11160022151101021120303204032151000600007710080000
3536,EFTP,61.414100647,23.6044006348,2023-04-03 12:20:00,,,,,1.0,1032.0,1032.1271752999342,-12.0,8.0,10.0,10000.0,99999,,0.0,0,11160001081001021120303204032151000600007000080000
3537,EFTU,60.5140991211,22.2628002167,2023-04-03 12:20:00,,,,,2.0,1032.0,1032.1273792630057,-11.0,8.0,360.0,10000.0,99999,,0.0,0,11160036081002021110303204032151000600007000080000
3538,EFVA,63.0507011414,21.7621994019,2023-04-03 12:20:00,,,,,1.0,1034.0,1034.1285394899555,-11.0,3.0,220.0,10000.0,99999,,0.0,0,11160022031001021110303404034151000600007000080000
3540,ENBR,60.2933998108,5.2181401253,2023-04-03 12:20:00,16.0,36.0,1,,7.0,1034.0,1034.125217701501,2.0,10.0,210.0,10000.0,99999,3.0,0.0,0,1116032110100702020303404034151000600007160083000
3541,ENCN,58.2042007446,8.0853700638,2023-04-03 12:20:00,,,,,7.0,1035.0,1035.125665873431,1.0,10.0,210.0,10000.0,99999,1.0,0.0,0,1116012110100702010303504035151000600007000081000
3543,ENHD,59.3452987671,5.2083601952,2023-04-03 12:20:00,,,,,7.0,1035.0,1035.125581771976,0.0,8.0,200.0,10000.0,99999,2.0,0.0,0,1116022008100702000303504035151000600007000082000
3546,ENVA,63.4578018188,10.9239997864,2023-04-03 12:20:00,,,,,9.0,1033.0,1033.124483313617,-6.0,4.0,280.0,10000.0,99999,3.0,0.0,0,1116032804100902160303304033151000600007000083000
3547,ENZV,58.876701355,5.6377801895,2023-04-03 12:20:00,,,,,7.0,1035.0,1035.12574718179,1.0,8.0,250.0,10000.0,99999,1.0,0.0,0,1116012508100702010303504035151000600007000081000
3548,EVRA,56.9235992432,23.9710998535,2023-04-03 12:20:00,,,,,2.0,1026.0,1026.1270113981254,-7.0,15.0,340.0,10000.0,99999,1.0,0.0,0,1116013415100202170302604026151000600007000081000
3549,EYVI,54.6341018677,25.2858009338,2023-04-03 12:20:00,,,,,3.0,1022.0,1022.1242602049239,-8.0,13.0,20.0,10000.0,99999,6.0,0.0,0,1116060213100302180302204022151000600007000086000
3553,LGAV,37.9364013672,23.9444999695,2023-04-03 12:20:00,,,,,18.0,1001.0,1001.1160572614837,11.0,21.0,200.0,10000.0,99999,4.0,0.0,0,11160420211018020110300104001151000600007000084000
3555,LGIR,35.3396987915,25.1802997589,2023-04-03 12:20:00,,,,,24.0,1003.0,1003.1143636980885,18.0,23.0,150.0,10000.0,99999,2.0,0.0,0,11160215231024020180300304003151000600007000082000
3557,LGKR,39.6018981934,19.911699295,2023-04-03 12:20:00,,,,,12.0,997.0,997.1189372558398,11.0,5.0,200.0,3000.0,99999,4.0,0.0,0,11110420051012020110399704997151000600007000084000
3561,LGRP,36.4053993225,28.0862007141,2023-04-03 12:20:00,,,,,19.0,1010.0,1010.1174389986985,14.0,12.0,90.0,10000.0,99999,2.0,0.0,0,11160209121019020140301004010151000600007000082000
3592,ENAL,62.5625,6.119699955,2023-04-03 12:20:00,,,,,8.0,1032.0,1032.1247954323624,0.0,12.0,230.0,10000.0,99999,,0.0,0,1116002312100802000303204032151000600007000080000
3598,ENDU,69.0558013916,18.5403995514,2023-04-03 12:20:00,,,,,5.0,1023.0,1023.1245846539623,-6.0,9.0,180.0,10000.0,99999,2.0,0.0,0,1116021809100502160302304023151000600007000082000
3614,ENRO,62.5783996582,11.342300415,2023-04-03 12:20:00,,,,,3.0,1031.0,1031.1214016239096,-11.0,2.0,,10000.0,99999,,0.0,0,11160036021003021110303104031151000600007000080000
3616,ENRY,59.3788986206,10.7855997086,2023-04-03 12:20:00,,,,,6.0,1035.0,1035.125799725531,1.0,12.0,200.0,10000.0,99999,,0.0,0,1116002012100602010303504035151000600007000080000
3624,ENTO,59.1866989136,10.258600235,2023-04-03 12:20:00,,,,,6.0,1034.0,1034.1253536190438,-2.0,10.0,180.0,10000.0,99999,,0.0,0,1116001810100602120303404034151000600007000080000
3626,ESDF,56.2667007446,15.2650003433,2023-04-03 12:20:00,,,,,5.0,1034.0,1034.126102447831,-6.0,8.0,70.0,10000.0,99999,,0.0,0,1116000708100502160303404034151000600007000080000
3627,ESGG,57.6627998352,12.279800415,2023-04-03 12:20:00,,,,,6.0,1034.0,1034.1247209445737,-7.0,8.0,360.0,10000.0,99999,,0.0,0,1116003608100602170303404034151000600007000080000
3628,ESGJ,57.757598877,14.0686998367,2023-04-03 12:20:00,,,,,1.0,1034.0,1034.1263820411637,-8.0,11.0,10.0,10000.0,99999,,0.0,0,1116000111100102180303404034151000600007000080000
3629,ESGP,57.7747001648,11.8704004288,2023-04-03 12:20:00,,,,,5.0,1035.0,1035.1266120663784,-7.0,11.0,280.0,10000.0,99999,,0.0,0,1116002811100502170303504035151000600007000080000
3630,ESKN,58.7886009216,16.9122009277,2023-04-03 12:20:00,,,,,3.0,1034.0,1034.1272077227748,-9.0,7.0,330.0,10000.0,99999,,0.0,0,1116003307100302190303404034151000600007000080000
3631,ESMK,55.9216995239,14.0854997635,2023-04-03 12:20:00,,,,,5.0,1034.0,1034.1264397244681,-8.0,6.0,70.0,10000.0,99999,1.0,0.0,0,1116010706100502180303404034151000600007000081000
3632,ESMS,55.536305364,13.3761978149,2023-04-03 12:20:00,,,,,4.0,1034.0,1034.1264456988204,-9.0,2.0,,10000.0,99999,,0.0,0,1116003602100402190303404034151000600007000080000
3633,ESMX,56.9291000366,14.7279996872,2023-04-03 12:20:00,,,,,5.0,1033.0,1033.1247678803422,-9.0,5.0,,10000.0,99999,,0.0,0,1116003605100502190303304033151000600007000080000
3634,ESNN,62.5280990601,17.4438991547,2023-04-03 12:20:00,,,,,0.0,1034.0,1034.129037663543,-5.0,10.0,140.0,10000.0,99999,,0.0,0,1116001410100002150303404034151000600007000080000
3635,ESNO,63.4082984924,18.9899997711,2023-04-03 12:20:00,,,,,0.0,1033.0,1033.1278868849606,-9.0,7.0,190.0,10000.0,99999,,0.0,0,1116001907100002190303304033151000600007000080000
3636,ESNQ,67.8219985962,20.3367996216,2023-04-03 12:20:00,,,,,-3.0,1024.0,1024.1247883866129,-12.0,16.0,210.0,10000.0,99999,,0.0,0,11160021161103021120302404024151000600007000080000
3637,ESNS,64.6248016357,21.0769004822,2023-04-03 12:20:00,,,,,2.0,1033.0,1033.127514666574,-11.0,7.0,160.0,10000.0,99999,,0.0,0,11160016071002021110303304033151000600007000080000
3638,ESNU,63.7918014526,20.2828006744,2023-04-03 12:20:00,,,,,0.0,1034.0,1034.1290131660369,-9.0,7.0,170.0,10000.0,99999,,0.0,0,1116001707100002190303404034151000600007000080000
3639,ESOK,59.4446983337,13.3374004364,2023-04-03 12:20:00,,,,,4.0,1035.0,1035.1262274239907,-5.0,5.0,190.0,10000.0,99999,,0.0,0,1116001905100402150303504035151000600007000080000
3640,ESOW,59.5894012451,16.633600235,2023-04-03 12:20:00,,,,,5.0,1035.0,1035.1267241080259,-11.0,6.0,360.0,10000.0,99999,,0.0,0,11160036061005021110303504035151000600007000080000
3641,ESPA,65.543800354,22.1219997406,2023-04-03 12:20:00,,,,,-1.0,1033.0,1033.1292531279717,-9.0,13.0,180.0,10000.0,99999,,0.0,0,1116001813110102190303304033151000600007000080000
3643,ESSB,59.3544006348,17.9416999817,2023-04-03 12:20:00,,,,,4.0,1034.0,1034.1270039949386,-7.0,7.0,350.0,10000.0,99999,,0.0,0,1116003507100402170303404034151000600007000080000
3644,ESSD,60.422000885,15.5151996613,2023-04-03 12:20:00,,,,,5.0,1033.0,1033.1250753199201,-8.0,2.0,,10000.0,99999,,0.0,0,1116003602100502180303304033151000600007000080000
3645,ESSP,58.5862998962,16.2506008148,2023-04-03 12:20:00,,,,,4.0,1035.0,1035.1271713862986,-9.0,3.0,,10000.0,99999,,0.0,0,1116003603100402190303504035151000600007000080000
3646,ESSV,57.6627998352,18.346200943,2023-04-03 12:20:00,,,,,2.0,1033.0,1033.1274937134624,-3.0,16.0,360.0,10000.0,99999,1.0,0.0,0,1116013616100202130303304033151000600007000081000
3647,LSGC,47.0839004517,6.792840004,2023-04-03 12:20:00,,,,,3.0,1019.0,1019.1165585056641,-0.0,13.0,40.0,10000.0,99999,6.0,0.0,0,1116060413100302100301904019151000600007000086000
3648,LSGG,46.2380981445,6.1089501381,2023-04-03 12:20:00,,,,,10.0,1019.0,1019.1186653217236,3.0,19.0,40.0,10000.0,99999,1.0,0.0,0,1116010419101002030301904019151000600007000081000
3649,LSGS,46.2196006775,7.3267598152,2023-04-03 12:20:00,,,,,14.0,1015.0,1015.1160663164771,4.0,15.0,250.0,10000.0,99999,3.0,0.0,0,1116032515101402040301504015151000600007000083000
3650,LSZA,46.0042991638,8.9105796814,2023-04-03 12:20:00,,,,,19.0,1011.0,1011.1152661422782,-7.0,13.0,20.0,10000.0,99999,1.0,0.0,0,1116010213101902170301104011151000600007000081000
3651,LSZB,46.914100647,7.4971499443,2023-04-03 12:20:00,,,,,5.0,1020.0,1020.1202582974036,-0.0,7.0,50.0,10000.0,99999,4.0,0.0,0,1116040507100502100302004020151000600007000084000
3652,LSZG,47.1815986633,7.4171900749,2023-04-03 12:20:00,,,,,7.0,1021.0,1021.1202074214732,-1.0,18.0,80.0,10000.0,99999,3.0,0.0,0,1116030818100702110302104021151000600007000083000
3653,LSZH,47.4646987915,8.5491695404,2023-04-03 12:20:00,,,,,5.0,1023.0,1023.1213138524398,-1.0,8.0,50.0,10000.0,99999,3.0,0.0,0,1116030508100502110302304023151000600007000083000
3654,LSZL,46.1608009338,8.8786096573,2023-04-03 12:20:00,,,,,19.0,1010.0,1010.1158176687868,-6.0,15.0,100.0,10000.0,99999,,0.0,0,1116001015101902160301004010151000600007000080000
3655,LSZR,47.4850006104,9.5607700348,2023-04-03 12:20:00,,,,,6.0,1022.0,1022.1210518232342,0.0,6.0,40.0,10000.0,99999,3.0,0.0,0,1116030406100602000302204022151000600007000083000
3656,LSZS,46.5340995789,9.8841104507,2023-04-03 12:20:00,,,,,4.0,1013.0,1013.1101369980082,-14.0,7.0,310.0,10000.0,99999,1.0,0.0,0,11160131071004021140301304013151000600007000081000
3659,EGAA,54.6575012207,-6.2158298492,2023-04-03 12:20:00,,,,,9.0,1027.0,1027.1231618284014,5.0,14.0,150.0,10000.0,99999,3.0,0.0,0,1116031514100902050302704027151000600007000083000
3660,EGBB,52.4538993835,-1.7480299473,2023-04-03 12:20:00,,,,,10.0,1030.0,1030.1228969811073,2.0,9.0,140.0,10000.0,99999,3.0,0.0,0,1116031409101002020303004030151000600007000083000
3661,EGCC,53.3536987305,-2.2749500275,2023-04-03 12:20:00,,,,,10.0,1030.0,1030.1230925211012,0.0,5.0,,10000.0,99999,,0.0,0,1116003605101002000303004030151000600007000080000
3662,EGFF,51.3967018127,-3.3433299065,2023-04-03 12:20:00,,,,,10.0,1029.0,1029.1230765216471,4.0,7.0,90.0,10000.0,99999,6.0,0.0,0,1116060907101002040302904029151000600007000086000
3663,EGGD,51.3827018738,-2.7190899849,2023-04-03 12:20:00,,,,,9.0,1029.0,1029.1224132611992,3.0,8.0,80.0,10000.0,99999,6.0,0.0,0,1116060808100902030302904029151000600007000086000
3666,EGHH,50.7799987793,-1.8424999714,2023-04-03 12:20:00,,,,,11.0,1029.0,1029.1231241931382,0.0,12.0,100.0,10000.0,99999,1.0,0.0,0,1116011012101102000302904029151000600007000081000
3667,EGHI,50.9502983093,-1.3567999601,2023-04-03 12:20:00,,,,,11.0,1029.0,1029.1231073832325,1.0,5.0,110.0,10000.0,99999,1.0,0.0,0,1116011105101102010302904029151000600007000081000
3668,EGJB,49.4350013733,-2.6019699574,2023-04-03 12:20:00,,,,,10.0,1026.0,1026.1223947129442,4.0,11.0,70.0,10000.0,99999,1.0,0.0,0,1116010711101002040302604026151000600007000081000
3672,EGKK,51.1481018066,-0.1902779937,2023-04-03 12:20:00,,,,,11.0,1029.0,1029.1226663683758,2.0,9.0,90.0,10000.0,99999,1.0,0.0,0,1116010909101102020302904029151000600007000081000
3673,EGLF,51.2757987976,-0.7763329744,2023-04-03 12:20:00,,,,,10.0,1029.0,1029.1230261447217,2.0,11.0,70.0,10000.0,99999,6.0,0.0,0,1116060711101002020302904029151000600007000086000
3674,EGLL,51.4706001282,-0.4619410038,2023-04-03 12:20:00,,,,,11.0,1030.0,1030.1231177624381,2.0,12.0,110.0,10000.0,99999,6.0,0.0,0,1116061112101102020303004030151000600007000086000
3675,EGMC,51.5713996887,0.695555985,2023-04-03 12:20:00,,,,,9.0,1030.0,1030.1241417110384,1.0,12.0,80.0,10000.0,99999,3.0,0.0,0,1116030812100902010303004030151000600007000083000
3676,EGMD,50.9561004639,0.9391670227,2023-04-03 12:20:00,,,,,10.0,1030.0,1030.1237790094506,3.0,17.0,70.0,10000.0,99999,,0.0,0,1116000717101002030303004030151000600007000080000
3677,EGNH,53.7717018127,-3.0286099911,2023-04-03 12:20:00,,,,,11.0,1030.0,1030.1232550674065,2.0,11.0,160.0,10000.0,99999,,0.0,0,1116001611101102020303004030151000600007000080000
3678,EGNJ,53.5744018555,-0.3508329988,2023-04-03 12:20:00,,,,,10.0,1032.0,1032.1237139674943,4.0,10.0,130.0,10000.0,99999,3.0,0.0,0,1116031310101002040303204032151000600007000083000
3682,EGNM,53.8658981323,-1.6605700254,2023-04-03 12:20:00,,,,,9.0,1030.0,1030.1223688674502,1.0,9.0,140.0,10000.0,99999,1.0,0.0,0,1116011409100902010303004030151000600007000081000
3683,EGNS,54.0833015442,-4.6238899231,2023-04-03 12:20:00,,,,,9.0,1029.0,1029.124012656664,3.0,13.0,120.0,10000.0,99999,1.0,0.0,0,1116011213100902030302904029151000600007000081000
3685,EGNV,54.5092010498,-1.4294099808,2023-04-03 12:20:00,,,,,9.0,1031.0,1031.1240603196175,2.0,6.0,160.0,10000.0,99999,1.0,0.0,0,1116011606100902020303104031151000600007000081000
3686,EGNX,52.8311004639,-1.3280600309,2023-04-03 12:20:00,,,,,9.0,1030.0,1030.123414631078,1.0,9.0,110.0,10000.0,99999,3.0,0.0,0,1116031109100902010303004030151000600007000083000
3687,EGPA,58.9578018188,-2.9049999714,2023-04-03 12:20:00,,,,,8.0,1028.0,1028.1243660762427,3.0,18.0,170.0,10000.0,99999,,0.0,0,1116001718100802030302804028151000600007000080000
3688,EGPB,59.8788986206,-1.2955600023,2023-04-03 12:20:00,,,,,7.0,1030.0,1030.125165738298,3.0,15.0,180.0,10000.0,99999,6.0,0.0,0,1116061815100702030303004030151000600007000086000
3694,EGSH,52.6758003235,1.2827800512,2023-04-03 12:20:00,,,,,10.0,1032.0,1032.1237252513952,2.0,9.0,110.0,10000.0,99999,3.0,0.0,0,1116031109101002020303204032151000600007000083000
3695,EGTE,50.7344017029,-3.4138898849,2023-04-03 12:20:00,,,,,10.0,1029.0,1029.1234077948743,3.0,12.0,90.0,10000.0,99999,3.0,0.0,0,1116030912101002030302904029151000600007000083000
3696,EGAC,54.6180992126,-5.8724999428,2023-04-03 12:20:00,,,,,9.0,1028.0,1028.1239973028744,4.0,11.0,150.0,10000.0,99999,7.0,0.0,0,1116071511100902040302804028151000600007000087000
3701,EGGP,53.3335990906,-2.8497200012,2023-04-03 12:20:00,,,,,10.0,1030.0,1030.1235897450572,2.0,9.0,150.0,10000.0,99999,,0.0,0,1116001509101002020303004030151000600007000080000
3703,EGHE,49.9132995605,-6.2916698456,2023-04-03 12:20:00,,,,,10.0,1026.0,1026.1230087234326,6.0,19.0,140.0,10000.0,99999,3.0,0.0,0,1116031419101002060302604026151000600007000083000
3704,EGJA,49.7061004639,-2.2147200108,2023-04-03 12:20:00,,,,,9.0,1027.0,1027.1231000568487,3.0,19.0,80.0,10000.0,99999,1.0,0.0,0,1116010819100902030302704027151000600007000081000
3706,EGNT,55.0374984741,-1.6916699409,2023-04-03 12:20:00,,,,,10.0,1031.0,1031.1231868282532,0.0,8.0,200.0,10000.0,99999,1.0,0.0,0,1116012008101002000303104031151000600007000081000
3709,EGPC,58.4589004517,-3.0930600166,2023-04-03 12:20:00,,,,,8.0,1027.0,1027.1240282049525,3.0,15.0,150.0,10000.0,99999,,0.0,0,1116001515100802030302704027151000600007000080000
3710,EGPE,57.5424995422,-4.0475001335,2023-04-03 12:20:00,,,,,12.0,1027.0,1027.122446653787,4.0,1.0,,10000.0,99999,,0.0,0,1116003601101202040302704027151000600007000080000
3711,EGPF,55.8718986511,-4.4330601692,2023-04-03 12:20:00,,,,,11.0,1029.0,1029.123157826725,1.0,11.0,160.0,10000.0,99999,,0.0,0,1116001611101102010302904029151000600007000080000
3712,EGPL,57.481098175,-7.3627800941,2023-04-03 12:20:00,,,,,9.0,1024.0,1024.123503489696,5.0,30.0,170.0,10000.0,99999,2.0,0.0,0,1116021730100902050302404024151000600007000082000
3713,EGPN,56.4524993896,-3.0258300304,2023-04-03 12:20:00,,,,,9.0,1030.0,1030.124232842598,2.0,0.0,0.0,10000.0,99999,1.0,0.0,0,1116010000100902020303004030151000600007000081000
3718,EGSS,51.8849983215,0.2349999994,2023-04-03 12:20:00,,,,,9.0,1030.0,1030.1232966175544,2.0,9.0,80.0,10000.0,99999,6.0,0.0,0,1116060809100902020303004030151000600007000086000
3726,EDGS,50.707698822,8.0829696655,2023-04-03 12:20:00,,,,,2.0,1027.0,1027.1216090684286,-6.0,12.0,70.0,10000.0,99999,1.0,0.0,0,1116010712100202160302704027151000600007000081000
3727,EDLV,51.6024017334,6.1421699524,2023-04-03 12:20:00,,,,,8.0,1031.0,1031.1245685004567,-6.0,11.0,90.0,10000.0,99999,,0.0,0,1116000911100802160303104031151000600007000080000
3731,EGNR,53.1781005859,-2.9777801037,2023-04-03 12:20:00,,,,,10.0,1030.0,1030.123688542255,1.0,10.0,130.0,10000.0,99999,1.0,0.0,0,1116011310101002010303004030151000600007000081000
3732,EGPI,55.6819000244,-6.2566699982,2023-04-03 12:20:00,,,,,9.0,1026.0,1026.1236397674454,5.0,25.0,160.0,10000.0,99999,1.0,0.0,0,1116011625100902050302604026151000600007000081000
3739,ESNG,67.1324005127,20.8145999908,2023-04-03 12:20:00,,,,,1.0,1027.0,1027.1246973888105,-10.0,10.0,200.0,10000.0,99999,,0.0,0,11160020101001021100302704027151000600007000080000
3740,ESNK,63.0485992432,17.7688999176,2023-04-03 12:20:00,,,,,2.0,1034.0,1034.1280077682766,-7.0,8.0,170.0,10000.0,99999,,0.0,0,1116001708100202170303404034151000600007000080000
3741,ESNL,64.5483016968,18.7161998749,2023-04-03 12:20:00,,,,,4.0,1031.0,1031.1247183660064,-11.0,6.0,190.0,10000.0,99999,4.0,0.0,0,11160419061004021110303104031151000600007000084000
3742,ESNX,65.5903015137,19.2819004059,2023-04-03 12:20:00,,,,,1.0,1029.0,1029.124314382105,-9.0,7.0,170.0,10000.0,99999,1.0,0.0,0,1116011707100102190302904029151000600007000081000
3743,ESOE,59.2237014771,15.0380001068,2023-04-03 12:20:00,,,,,5.0,1035.0,1035.1262331879254,-7.0,2.0,,10000.0,99999,,0.0,0,1116003602100502170303504035151000600007000080000
3744,ESSL,58.4062004089,15.6805000305,2023-04-03 12:20:00,,,,,4.0,1035.0,1035.1267566712286,-7.0,2.0,,10000.0,99999,,0.0,0,1116003602100402170303504035151000600007000080000
3745,ESUT,65.806098938,15.0827999115,2023-04-03 12:20:00,,,,,-5.0,1028.0,1028.1262193994362,-8.0,3.0,340.0,10000.0,99999,8.0,0.0,0,1116083403110502180302804028151000600007000088000
3746,LOXZ,47.2028007507,14.7441997528,2023-04-03 12:20:00,,,,,6.0,1018.0,1018.118145357998,-5.0,6.0,50.0,10000.0,99999,2.0,0.0,0,1116020506100602150301804018151000600007000082000
3750,ENEV,68.4913024902,16.6781005859,2023-04-03 12:20:00,85.0,36.0,v,magenta,0.0,1025.0,1025.1277083888579,-1.0,4.0,230.0,5000.0,99999,6.0,0.0,0,1113062304100002110302504025151000600007850086000
3751,ENHF,70.6797027588,23.6686000824,2023-04-03 12:20:00,,,,,-2.0,1020.0,1020.1275007655909,-9.0,10.0,210.0,10000.0,99999,3.0,0.0,0,1116032110110202190302004020151000600007000083000
3752,ENHV,71.0096969604,25.9836006165,2023-04-03 12:20:00,,,,,-2.0,1021.0,1021.1283029463442,-9.0,21.0,200.0,10000.0,99999,6.0,0.0,0,1116062021110202190302104021151000600007000086000
3753,ENKB,63.1118011475,7.8245201111,2023-04-03 12:20:00,,,,,7.0,1032.0,1032.1248777072078,-5.0,4.0,160.0,10000.0,99999,,0.0,0,1116001604100702150303204032151000600007000080000
3754,ENML,62.7447013855,7.2624998093,2023-04-03 12:20:00,,,,,7.0,1033.0,1033.1255593188134,-5.0,4.0,70.0,10000.0,99999,,0.0,0,1116000704100702150303304033151000600007000080000
3755,ENMS,65.783996582,13.2149000168,2023-04-03 12:20:00,,,,,1.0,1030.0,1030.1273856475427,-1.0,0.0,0.0,6000.0,99999,2.0,0.0,0,1113020000100102110303004030151000600007000082000
3756,ENSK,68.5788269043,15.033416748,2023-04-03 12:20:00,,,,,3.0,1023.0,1023.1262354851224,1.0,10.0,250.0,10000.0,99999,4.0,0.0,0,1116042510100302010302304023151000600007000084000
3758,LGEL,38.0638008118,23.5559997559,2023-04-03 12:20:00,61.0,36.0,^,green,14.0,1001.0,1001.1181715276778,12.0,4.0,210.0,7000.0,99999,4.0,0.0,0,11140421041014020120300104001151000600007610084000
3759,LGKV,40.9132995605,24.6191997528,2023-04-03 12:20:00,,,,,15.0,1005.0,1005.1185442565052,12.0,13.0,70.0,10000.0,99999,3.0,0.0,0,11160307131015020120300504005151000600007000083000
3760,LGMT,39.0567016602,26.5983009338,2023-04-03 12:20:00,,,,,21.0,1006.0,1006.1160435277789,15.0,15.0,170.0,10000.0,99999,2.0,0.0,0,11160217151021020150300604006151000600007000082000
3764,LOWI,47.2602005005,11.3439998627,2023-04-03 12:20:00,,,,,6.0,1020.0,1020.119203680017,-1.0,9.0,90.0,10000.0,99999,3.0,0.0,0,1116030909100602110302004020151000600007000083000
3765,LOWK,46.6425018311,14.3376998901,2023-04-03 12:20:00,,,,,10.0,1017.0,1017.1182778527703,-7.0,15.0,40.0,10000.0,99999,1.0,0.0,0,1116010415101002170301704017151000600007000081000
3766,LOWW,48.1102981567,16.5697002411,2023-04-03 12:20:00,,,,,5.0,1022.0,1022.1234676409007,-5.0,16.0,340.0,10000.0,99999,1.0,0.0,0,1116013416100502150302204022151000600007000081000
3770,ENAT,69.9760971069,23.3717002869,2023-04-03 12:20:00,,,,,-1.0,1022.0,1022.1280474116944,-12.0,11.0,160.0,10000.0,99999,,0.0,0,11160016111101021120302204022151000600007000080000
3771,ENBL,61.3911018372,5.756939888,2023-04-03 12:20:00,,,,,5.0,1033.0,1033.1235306076087,-3.0,5.0,200.0,10000.0,99999,3.0,0.0,0,1116032005100502130303304033151000600007000083000
3772,ENFL,61.5835990906,5.024720192,2023-04-03 12:20:00,,,,,9.0,1034.0,1034.1246581060884,2.0,10.0,190.0,10000.0,99999,3.0,0.0,0,1116031910100902020303404034151000600007000083000
3773,ENKR,69.7257995605,29.8913002014,2023-04-03 12:20:00,,,,,-1.0,1026.0,1026.127714677254,-10.0,21.0,210.0,10000.0,99999,,0.0,0,11160021211101021100302604026151000600007000080000
3774,ENNA,70.0688018799,24.9734992981,2023-04-03 12:20:00,,,,,-1.0,1022.0,1022.1279986086358,-9.0,20.0,160.0,10000.0,99999,,0.0,0,1116001620110102190302204022151000600007000080000
3776,LGAL,40.8558998108,25.9563007355,2023-04-03 12:20:00,,,,,16.0,1006.0,1006.1182171107484,10.0,17.0,50.0,10000.0,99999,2.0,0.0,0,11160205171016020100300604006151000600007000082000
3777,LGPZ,38.9254989624,20.7653007507,2023-04-03 12:20:00,61.0,36.0,^,green,12.0,998.0,998.1190430458535,11.0,4.0,170.0,10000.0,99999,4.0,0.0,0,11160417041012020110399804998151000600007610084000
3778,LGRX,38.1511001587,21.4256000519,2023-04-03 12:20:00,,,,,18.0,999.0,999.1164984509348,11.0,15.0,210.0,10000.0,99999,3.0,0.0,0,11160321151018020110399904999151000600007000083000
3779,LGSR,36.3992004395,25.4792995453,2023-04-03 12:20:00,,,,,19.0,1003.0,1003.116342041717,14.0,15.0,140.0,10000.0,99999,1.0,0.0,0,11160114151019020140300304003151000600007000081000
3780,LIEA,40.6320991516,8.290769577,2023-04-03 12:20:00,,,,,17.0,1009.0,1009.1179781676958,10.0,6.0,330.0,10000.0,99999,1.0,0.0,0,11160133061017020100300904009151000600007000081000
3781,LIEE,39.251499176,9.0542802811,2023-04-03 12:20:00,,,,,19.0,1007.0,1007.1171005288435,8.0,14.0,350.0,10000.0,99999,3.0,0.0,0,1116033514101902080300704007151000600007000083000
3782,LIEO,40.8987007141,9.5176296234,2023-04-03 12:20:00,,,,,18.0,1008.0,1008.1175714558735,5.0,19.0,20.0,10000.0,99999,1.0,0.0,0,1116010219101802050300804008151000600007000081000
3783,LIMC,45.6305999756,8.7281103134,2023-04-03 12:20:00,,,,,18.0,1011.0,1011.1160395995271,5.0,10.0,140.0,10000.0,99999,,0.0,0,1116001410101802050301104011151000600007000080000
3784,LIME,45.6739006042,9.7041702271,2023-04-03 12:20:00,,,,,16.0,1012.0,1012.116941019375,4.0,7.0,150.0,10000.0,99999,1.0,0.0,0,1116011507101602040301204012151000600007000081000
3785,LIMF,45.2008018494,7.6496300697,2023-04-03 12:20:00,,,,,20.0,1010.0,1010.1145708722529,-4.0,4.0,140.0,10000.0,99999,,0.0,0,1116001404102002140301004010151000600007000080000
3786,LIMJ,44.4132995605,8.8374996185,2023-04-03 12:20:00,16.0,36.0,1,,22.0,1009.0,1009.1161037863303,0.0,12.0,360.0,10000.0,99999,6.0,0.0,0,1116063612102202000300904009151000600007160086000
3787,LIML,45.445098877,9.2767400742,2023-04-03 12:20:00,,,,,18.0,1011.0,1011.1171004733002,7.0,7.0,140.0,10000.0,99999,1.0,0.0,0,1116011407101802070301104011151000600007000081000
3788,LIRA,41.7994003296,12.5949001312,2023-04-03 12:20:00,,,,,19.0,1003.0,1003.1155770958887,5.0,13.0,30.0,10000.0,99999,3.0,0.0,0,1116030313101902050300304003151000600007000083000
3789,LIRF,41.8045005798,12.2508001328,2023-04-03 12:20:00,,,,,19.0,1003.0,1003.1166302236694,5.0,16.0,20.0,10000.0,99999,,0.0,0,1116000216101902050300304003151000600007000080000
3791,LIRP,43.6838989258,10.3927001953,2023-04-03 12:15:00,,,,,17.0,1009.0,1009.1181910708358,3.0,14.0,70.0,10000.0,99999,3.0,0.0,0,1116030714101702030300904009151000600007000083000
3792,LIRQ,43.8100013733,11.2051000595,2023-04-03 12:20:00,,,,,17.0,1010.0,1010.1179508235257,1.0,13.0,20.0,10000.0,99999,1.0,0.0,0,1116010213101702010301004010151000600007000081000
3797,ENBN,65.4610977173,12.217499733,2023-04-03 12:20:00,16.0,36.0,1,,4.0,1030.0,1030.1265777382575,2.0,13.0,200.0,10000.0,99999,4.0,0.0,0,1116042013100402020303004030151000600007160084000
3798,ENBS,70.6005020142,29.691400528,2023-04-03 12:20:00,,,,,-4.0,1019.0,1019.12766147625,-7.0,37.0,230.0,10000.0,99999,1.0,0.0,0,1116012337110402170301904019151000600007000081000
3799,ENBV,70.8713989258,29.0342006683,2023-04-03 12:20:00,71.0,36.0,h,magenta,-2.0,1021.0,1021.1283090797283,-7.0,30.0,220.0,6000.0,99999,3.0,0.0,0,1113032230110202170302104021151000600007710083000
3800,ENHK,70.4867019653,22.1396999359,2023-04-03 12:20:00,71.0,36.0,h,magenta,1.0,1020.0,1020.1267931142633,-7.0,10.0,110.0,10000.0,99999,3.0,0.0,0,1116031110100102170302004020151000600007710083000
3801,ENLK,68.1524963379,13.6093997955,2023-04-03 12:20:00,,,,,6.0,1024.0,1024.1247395558592,1.0,5.0,210.0,10000.0,99999,3.0,0.0,0,1116032105100602010302404024151000600007000083000
3802,ENMH,71.0297012329,27.8267002106,2023-04-03 12:20:00,,,,,-3.0,1020.0,1020.1286823729972,-7.0,24.0,210.0,10000.0,99999,6.0,0.0,0,1116062124110302170302004020151000600007000086000
3803,ENNO,59.565700531,9.212220192,2023-04-03 12:20:00,,,,,7.0,1034.0,1034.1255270644072,-7.0,4.0,140.0,10000.0,99999,,0.0,0,1116001404100702170303404034151000600007000080000
3804,ENRA,66.363899231,14.3014001846,2023-04-03 12:20:00,71.0,36.0,h,magenta,-1.0,1030.0,1030.128376715464,-5.0,1.0,140.0,10000.0,99999,3.0,0.0,0,1116031401110102150303004030151000600007710083000
3805,ENRM,64.8383026123,11.1461000443,2023-04-03 12:20:00,16.0,36.0,1,,5.0,1031.0,1031.1262549340533,4.0,12.0,230.0,10000.0,99999,3.0,0.0,0,1116032312100502040303104031151000600007160083000
3806,ENRS,67.5278015137,12.1033000946,2023-04-03 12:20:00,53.0,36.0,V,green,5.0,1025.0,1025.1255406497037,3.0,14.0,230.0,10000.0,99999,3.0,0.0,0,1116032314100502030302504025151000600007530083000
3808,ENSO,59.7919006348,5.3408498764,2023-04-03 12:20:00,,,,,7.0,1035.0,1035.1253676775025,1.0,8.0,240.0,10000.0,99999,3.0,0.0,0,1116032408100702010303504035151000600007000083000
3809,ENST,65.9568023682,12.4688997269,2023-04-03 12:20:00,16.0,36.0,1,,5.0,1029.0,1029.1258868703385,2.0,10.0,190.0,10000.0,99999,3.0,0.0,0,1116031910100502020302904029151000600007160083000
3810,ENVD,70.0652999878,29.8446998596,2023-04-03 12:20:00,,,,,0.0,1025.0,1025.1275783889546,-8.0,20.0,220.0,10000.0,99999,,0.0,0,1116002220100002180302504025151000600007000080000
3811,LGMK,37.4351005554,25.3481006622,2023-04-03 12:20:00,,,,,18.0,1003.0,1003.116040931947,14.0,99999.0,,10000.0,99999,3.0,0.0,0,11160336999991018020140300304003151000600007000083000
3815,LOWG,46.9911003113,15.4395999908,2023-04-03 12:20:00,,,,,8.0,1019.0,1019.1203285782238,-5.0,14.0,10.0,10000.0,99999,6.0,0.0,0,1116060114100802150301904019151000600007000086000
3816,LOWL,48.2332000732,14.1875,2023-04-03 12:20:00,,,,,4.0,1024.0,1024.1230983932144,-4.0,9.0,30.0,10000.0,99999,3.0,0.0,0,1116030309100402140302404024151000600007000083000
3817,LOWS,47.7933006287,13.0043001175,2023-04-03 12:20:00,,,,,4.0,1024.0,1024.1218916463836,-1.0,6.0,30.0,10000.0,99999,3.0,0.0,0,1116030306100402110302404024151000600007000083000
3842,EDDE,50.979801178,10.9581003189,2023-04-03 12:20:00,,,,,2.0,1029.0,1029.1244525510126,-4.0,12.0,30.0,10000.0,99999,6.0,0.0,0,1116060312100202140302904029151000600007000086000
3843,EDDF,50.0264015198,8.543129921,2023-04-03 12:20:00,,,,,8.0,1028.0,1028.1234739716324,-3.0,14.0,40.0,10000.0,99999,,0.0,0,1116000414100802130302804028151000600007000080000
3844,EDDG,52.134601593,7.6848301888,2023-04-03 12:20:00,,,,,7.0,1032.0,1032.1250042929298,-4.0,10.0,70.0,10000.0,99999,6.0,0.0,0,1116060710100702140303204032151000600007000086000
3845,EDDH,53.6304016113,9.9882297516,2023-04-03 12:20:00,,,,,8.0,1033.0,1033.124962343576,-2.0,9.0,60.0,10000.0,99999,6.0,0.0,0,1116060609100802120303304033151000600007000086000
3846,EDDK,50.8658981323,7.1427397728,2023-04-03 12:20:00,,,,,9.0,1029.0,1029.1233060512911,-5.0,9.0,100.0,10000.0,99999,,0.0,0,1116001009100902150302904029151000600007000080000
3847,EDDL,51.2895011902,6.7667798996,2023-04-03 12:20:00,,,,,9.0,1030.0,1030.1238634504803,-3.0,12.0,70.0,10000.0,99999,,0.0,0,1116000712100902130303004030151000600007000080000
3848,EDDM,48.3538017273,11.7861003876,2023-04-03 12:20:00,,,,,5.0,1024.0,1024.121238289961,-4.0,11.0,30.0,10000.0,99999,1.0,0.0,0,1116010311100502140302404024151000600007000081000
3849,EDDN,49.4986991882,11.0669002533,2023-04-03 12:20:00,,,,,6.0,1026.0,1026.1222416101245,-5.0,8.0,30.0,10000.0,99999,,0.0,0,1116000308100602150302604026151000600007000080000
3851,EDDR,49.2145996094,7.1095099449,2023-04-03 12:20:00,,,,,7.0,1025.0,1025.1216398809975,-2.0,12.0,60.0,10000.0,99999,6.0,0.0,0,1116060612100702120302504025151000600007000086000
3852,EDDS,48.6898994446,9.2219600677,2023-04-03 12:20:00,,,,,5.0,1024.0,1024.1218170951818,-4.0,12.0,30.0,10000.0,99999,8.0,0.0,0,1116080312100502140302404024151000600007000088000
3853,EDDV,52.461101532,9.6850795746,2023-04-03 12:20:00,,,,,7.0,1032.0,1032.1249380911247,-4.0,9.0,50.0,10000.0,99999,,0.0,0,1116000509100702140303204032151000600007000080000
3872,EDDB,52.362167,13.500667,2023-04-03 12:20:00,,,,,5.0,1031.0,1031.1258387415005,-5.0,13.0,20.0,10000.0,99999,6.0,0.0,0,1116060213100502150303104031151000600007000086000
3873,EDDC,51.1328010559,13.76720047,2023-04-03 12:20:00,,,,,3.0,1029.0,1029.1247967354843,-6.0,10.0,10.0,10000.0,99999,7.0,0.0,0,1116070110100302160302904029151000600007000087000
3874,EDDP,51.4323997498,12.2416000366,2023-04-03 12:20:00,,,,,5.0,1030.0,1030.124821311757,-6.0,12.0,20.0,10000.0,99999,6.0,0.0,0,1116060212100502160303004030151000600007000086000
3875,EDDW,53.0475006104,8.7866697311,2023-04-03 12:20:00,,,,,8.0,1033.0,1033.125074574977,-3.0,11.0,80.0,10000.0,99999,,0.0,0,1116000811100802130303304033151000600007000080000
3895,EBCI,50.4592018127,4.4538202286,2023-04-03 12:20:00,,,,,8.0,1028.0,1028.1227727967332,-5.0,17.0,70.0,10000.0,99999,1.0,0.0,0,1116010717100802150302804028151000600007000081000
3896,EBLG,50.6374015808,5.4432201385,2023-04-03 12:20:00,,,,,7.0,1028.0,1028.1231045670622,-2.0,12.0,60.0,10000.0,99999,1.0,0.0,0,1116010612100702120302804028151000600007000081000
3897,EBOS,51.1988983154,2.8622200489,2023-04-03 12:20:00,,,,,9.0,1030.0,1030.1242442434516,-1.0,12.0,80.0,10000.0,99999,1.0,0.0,0,1116010812100902110303004030151000600007000081000
3914,ELLX,49.6265983582,6.211520195,2023-04-03 12:20:00,,,,,7.0,1026.0,1026.12127677896,-3.0,13.0,50.0,10000.0,99999,1.0,0.0,0,1116010513100702130302604026151000600007000081000
3915,ESKM,60.957901001,14.5114002228,2023-04-03 12:20:00,,,,,4.0,1033.0,1033.125164765398,-7.0,5.0,90.0,10000.0,99999,,0.0,0,1116000905100402170303304033151000600007000080000
3917,EDMA,48.42527771,10.9316673279,2023-04-03 12:20:00,,,,,5.0,1024.0,1024.121159168185,-2.0,10.0,60.0,10000.0,99999,,0.0,0,1116000610100502120302404024151000600007000080000
3922,ENOV,62.1800003052,6.0741000175,2023-04-03 12:20:00,,,,,8.0,1033.0,1033.1244184435184,-3.0,5.0,240.0,10000.0,99999,2.0,0.0,0,1116022405100802130303304033151000600007000082000
3923,ENSD,61.8300018311,6.1058301926,2023-04-03 12:20:00,,,,,8.0,1033.0,1033.1245525459985,-4.0,2.0,,10000.0,99999,2.0,0.0,0,1116023602100802140303304033151000600007000082000
3924,ENSG,61.1561012268,7.1377801895,2023-04-03 12:20:00,,,,,2.0,1032.0,1032.1278625333161,-8.0,2.0,,10000.0,99999,6.0,0.0,0,1116063602100202180303204032151000600007000086000
3925,ENSS,70.3554000854,31.0449008942,2023-04-03 12:20:00,,,,,-3.0,1024.0,1024.1291777108959,-5.0,31.0,220.0,10000.0,99999,,0.0,0,1116002231110302150302404024151000600007000080000
3926,LGAD,37.9207000732,21.2926006317,2023-04-03 12:20:00,,,,,16.0,999.0,999.1173132447369,12.0,12.0,190.0,10000.0,99999,2.0,0.0,0,11160219121016020120399904999151000600007000082000
3927,LGBL,39.2196006775,22.7943000793,2023-04-03 12:20:00,,,,,13.0,999.0,999.118528808965,12.0,17.0,110.0,6000.0,99999,4.0,0.0,0,11130411171013020120399904999151000600007000084000
3928,LGLM,39.917098999,25.2362995148,2023-04-03 12:20:00,,,,,17.0,1004.0,1004.1175844293455,14.0,12.0,60.0,10000.0,99999,2.0,0.0,0,11160206121017020140300404004151000600007000082000
3929,LGSA,35.5317001343,24.1497001648,2023-04-03 12:20:00,,,,,20.0,1002.0,1002.114900400516,11.0,12.0,330.0,10000.0,99999,3.0,0.0,0,11160333121020020110300204002151000600007000083000
3930,LIBD,41.1389007568,16.7605991364,2023-04-03 12:20:00,,,,,16.0,1001.0,1001.1172286750254,11.0,9.0,30.0,10000.0,99999,1.0,0.0,0,11160103091016020110300104001151000600007000081000
3931,LIBR,40.6576004028,17.9470005035,2023-04-03 12:20:00,61.0,36.0,^,green,13.0,999.0,999.1186251784886,9.0,22.0,70.0,10000.0,99999,3.0,0.0,0,1116030722101302090399904999151000600007610083000
3932,LICC,37.4668006897,15.0663995743,2023-04-03 12:20:00,,,,,15.0,997.0,997.1175452421941,10.0,6.0,180.0,10000.0,99999,3.0,0.0,0,11160318061015020100399704997151000600007000083000
3933,LICJ,38.1759986877,13.0909996033,2023-04-03 12:20:00,,,,,16.0,1002.0,1002.1176392621851,11.0,23.0,340.0,10000.0,99999,3.0,0.0,0,11160334231016020110300204002151000600007000083000
3934,LIPE,44.5354003906,11.2887001038,2023-04-03 12:20:00,,,,,15.0,1012.0,1012.1190894082299,4.0,10.0,90.0,10000.0,99999,3.0,0.0,0,1116030910101502040301204012151000600007000083000
3935,LIPH,45.648399353,12.1943998337,2023-04-03 12:20:00,,,,,15.0,1013.0,1013.1193780866928,4.0,8.0,100.0,10000.0,99999,1.0,0.0,0,1116011008101502040301304013151000600007000081000
3936,LIPQ,45.8274993896,13.4722003937,2023-04-03 12:20:00,,,,,15.0,1013.0,1013.1194316252183,-3.0,17.0,90.0,10000.0,99999,,0.0,0,1116000917101502130301304013151000600007000080000
3937,LIPR,44.0203018188,12.611700058,2023-04-03 12:20:00,,,,,12.0,1013.0,1013.1207528242368,2.0,15.0,70.0,10000.0,99999,1.0,0.0,0,1116010715101202020301304013151000600007000081000
3938,LIPX,45.3956985474,10.8885002136,2023-04-03 12:20:00,,,,,15.0,1013.0,1013.1188983912945,4.0,10.0,120.0,10000.0,99999,6.0,0.0,0,1116061210101502040301304013151000600007000086000
3939,LIPZ,45.5052986145,12.3519001007,2023-04-03 12:20:00,,,,,15.0,1013.0,1013.1195173868163,1.0,14.0,90.0,10000.0,99999,,0.0,0,1116000914101502010301304013151000600007000080000
3944,EDHL,53.8054008484,10.7192001343,2023-04-03 12:20:00,,,,,6.0,1034.0,1034.1260307155317,-5.0,12.0,70.0,10000.0,99999,3.0,0.0,0,1116030712100602150303404034151000600007000083000
3945,EDLN,51.2302780151,6.5044441223,2023-04-03 12:20:00,,,,,9.0,1030.0,1030.1239258084966,-4.0,9.0,50.0,10000.0,99999,,0.0,0,1116000509100902140303004030151000600007000080000
3946,EDLP,51.6141014099,8.6163196564,2023-04-03 12:20:00,,,,,6.0,1031.0,1031.1238108876582,-6.0,13.0,60.0,10000.0,99999,3.0,0.0,0,1116030613100602160303104031151000600007000083000
3949,EDNY,47.6712989807,9.5114898682,2023-04-03 12:20:00,,,,,6.0,1023.0,1023.1210039847157,-2.0,11.0,50.0,10000.0,99999,5.0,0.0,0,1116050511100602120302304023151000600007000085000
3950,EDQM,50.2886123657,11.8563890457,2023-04-03 12:20:00,,,,,1.0,1026.0,1026.1219512023895,-7.0,12.0,20.0,10000.0,99999,3.0,0.0,0,1116030212100102170302604026151000600007000083000
3951,EDSB,48.7793998718,8.0804996491,2023-04-03 12:20:00,,,,,8.0,1025.0,1025.1229900139092,-2.0,14.0,60.0,10000.0,99999,8.0,0.0,0,1116080614100802120302504025151000600007000088000
3960,ENSR,69.7867965698,20.959400177,2023-04-03 12:20:00,,,,,2.0,1021.0,1021.1264519802344,-7.0,12.0,120.0,10000.0,99999,4.0,0.0,0,1116041212100202170302104021151000600007000084000
3962,LGKO,36.7933006287,27.0916996002,2023-04-03 12:20:00,,,,,18.0,1007.0,1007.116485764844,13.0,22.0,140.0,10000.0,99999,1.0,0.0,0,11160114221018020130300704007151000600007000081000
3963,LGTS,40.5196990967,22.9708995819,2023-04-03 12:20:00,,,,,14.0,1001.0,1001.118493456909,12.0,12.0,160.0,5000.0,99999,3.0,0.0,0,11130316121014020120300104001151000600007000083000
3988,EDFM,49.4730567932,8.514166832,2023-04-03 12:20:00,,,,,8.0,1027.0,1027.1235118694378,-3.0,11.0,70.0,10000.0,99999,,0.0,0,1116000711100802130302704027151000600007000080000
4012,EDAH,53.8787002563,14.152299881,2023-04-03 12:20:00,,,,,3.0,1033.0,1033.1272246127553,-1.0,10.0,30.0,10000.0,99999,3.0,0.0,0,1116030310100302110303304033151000600007000083000
4013,EDFH,49.9486999512,7.2638897896,2023-04-03 12:20:00,,,,,5.0,1026.0,1026.121033551139,-3.0,8.0,90.0,10000.0,99999,1.0,0.0,0,1116010908100502130302604026151000600007000081000
4014,EDHI,53.5352783203,9.8355560303,2023-04-03 12:20:00,,,,,8.0,1033.0,1033.1250486575334,-4.0,8.0,80.0,10000.0,99999,,0.0,0,1116000808100802140303304033151000600007000080000
4015,EDHK,54.3794441223,10.145277977,2023-04-03 12:20:00,,,,,6.0,1034.0,1034.1258877151508,-1.0,11.0,70.0,10000.0,99999,,0.0,0,1116000711100602110303404034151000600007000080000
4016,EDLW,51.5182991028,7.6122398377,2023-04-03 12:20:00,,,,,6.0,1031.0,1031.1245906063295,-5.0,15.0,50.0,10000.0,99999,,0.0,0,1116000515100602150303104031151000600007000080000
4017,EDMO,48.081401825,11.2831001282,2023-04-03 12:20:00,61.0,36.0,^,green,3.0,1023.0,1023.1207489708838,-2.0,11.0,40.0,10000.0,99999,6.0,0.0,0,1116060411100302120302304023151000600007610086000
4018,EDTL,48.3693008423,7.8277201653,2023-04-03 12:20:00,,,,,8.0,1025.0,1025.1227015873224,-2.0,12.0,40.0,10000.0,99999,,0.0,0,1116000412100802120302504025151000600007000080000
4019,EDVE,52.3191986084,10.5560998917,2023-04-03 12:20:00,,,,,5.0,1032.0,1032.1255556532249,-6.0,7.0,50.0,10000.0,99999,6.0,0.0,0,1116060507100502160303204032151000600007000086000
4020,EDVK,51.4083328247,9.3774995804,2023-04-03 12:20:00,,,,,5.0,1030.0,1030.1235568571574,-5.0,11.0,40.0,10000.0,99999,6.0,0.0,0,1116060411100502150303004030151000600007000086000
4021,EDXW,54.9132003784,8.340470314,2023-04-03 12:20:00,,,,,8.0,1034.0,1034.1250890700223,-4.0,8.0,40.0,10000.0,99999,,0.0,0,1116000408100802140303404034151000600007000080000
4035,EBAW,51.1893997192,4.4602799416,2023-04-03 12:20:00,,,,,9.0,1030.0,1030.1241701752851,-5.0,11.0,80.0,10000.0,99999,,0.0,0,1116000811100902150303004030151000600007000080000
4036,EBBR,50.9014015198,4.4844398499,2023-04-03 12:20:00,,,,,9.0,1029.0,1029.1236385629452,-3.0,10.0,90.0,10000.0,99999,,0.0,0,1116000910100902130302904029151000600007000080000
4037,EGPD,57.2019004822,-2.1977798939,2023-04-03 12:20:00,,,,,8.0,1030.0,1030.1241367362534,2.0,18.0,170.0,10000.0,99999,1.0,0.0,0,1116011718100802020303004030151000600007000081000
4038,EGPH,55.9500007629,-3.3724999428,2023-04-03 12:20:00,,,,,9.0,1029.0,1029.1237771673696,3.0,8.0,50.0,10000.0,99999,1.0,0.0,0,1116010508100902030302904029151000600007000081000
4039,EGPK,55.5093994141,-4.5866699219,2023-04-03 12:20:00,,,,,10.0,1029.0,1029.1235120362473,2.0,11.0,140.0,10000.0,99999,1.0,0.0,0,1116011411101002020302904029151000600007000081000
4040,EGPO,58.2155990601,-6.3311100006,2023-04-03 12:20:00,,,,,11.0,1025.0,1025.1226790790993,5.0,23.0,200.0,10000.0,99999,1.0,0.0,0,1116012023101102050302504025151000600007000081000
4041,EGPU,56.4991989136,-6.8691701889,2023-04-03 12:20:00,,,,,9.0,1025.0,1025.1235702407655,6.0,26.0,150.0,10000.0,99999,1.0,0.0,0,1116011526100902060302504025151000600007000081000
4042,EKAH,56.2999992371,10.6190004349,2023-04-03 12:20:00,,,,,7.0,1036.0,1036.1257147117303,-6.0,5.0,50.0,10000.0,99999,,0.0,0,1116000505100702160303604036151000600007000080000
4043,EKKA,56.2975006104,9.1246299744,2023-04-03 12:20:00,,,,,8.0,1035.0,1035.1248681457168,-6.0,7.0,110.0,10000.0,99999,,0.0,0,1116001107100802160303504035151000600007000080000
4045,ENAN,69.2925033569,16.1441993713,2023-04-03 12:20:00,16.0,36.0,1,,3.0,1021.0,1021.1258941400644,0.0,17.0,200.0,10000.0,99999,3.0,0.0,0,1116032017100302000302104021151000600007160083000
4046,ENBO,67.269203186,14.3653001785,2023-04-03 12:20:00,,,,,3.0,1027.0,1027.1266369384093,-2.0,11.0,110.0,10000.0,99999,3.0,0.0,0,1116031111100302120302704027151000600007000083000
4047,ENGM,60.193901062,11.100399971,2023-04-03 12:20:00,,,,,4.0,1033.0,1033.1250293420735,-4.0,7.0,170.0,10000.0,99999,,0.0,0,1116001707100402140303304033151000600007000080000
4048,ENOL,63.6988983154,9.6040000916,2023-04-03 12:20:00,,,,,6.0,1032.0,1032.1258598856368,-1.0,12.0,250.0,10000.0,99999,3.0,0.0,0,1116032512100602110303204032151000600007000083000
4049,ENSH,68.2433013916,14.6691999435,2023-04-03 12:20:00,,,,,3.0,1024.0,1024.1263114505794,2.0,19.0,220.0,10000.0,99999,5.0,0.0,0,1116052219100302020302404024151000600007000085000
4050,ENTC,69.6832962036,18.9188995361,2023-04-03 12:20:00,,,,,3.0,1022.0,1022.1260529192676,-5.0,18.0,220.0,10000.0,99999,6.0,0.0,0,1116062218100302150302204022151000600007000086000
4054,EGBJ,51.8941993713,-2.1672201157,2023-04-03 12:20:00,,,,,10.0,1030.0,1030.1235305424605,3.0,5.0,80.0,10000.0,99999,3.0,0.0,0,1116030805101002030303004030151000600007000083000
4055,EGSC,52.2050018311,0.174999997,2023-04-03 12:20:00,,,,,11.0,1030.0,1030.1232186097193,2.0,7.0,130.0,10000.0,99999,3.0,0.0,0,1116031307101102020303004030151000600007000083000
4069,EKYT,57.0927589138,9.8492431641,2023-04-03 12:20:00,,,,,8.0,1035.0,1035.1253282775358,-4.0,3.0,260.0,10000.0,99999,,0.0,0,1116002603100802140303504035151000600007000080000
4070,LIBP,42.4317016602,14.1810998917,2023-04-03 12:20:00,,,,,14.0,1010.0,1010.1194888866179,4.0,14.0,20.0,10000.0,99999,4.0,0.0,0,1116040214101402040301004010151000600007000084000
4071,LICA,38.9053993225,16.2423000336,2023-04-03 12:20:00,,,,,14.0,994.0,994.1176198127763,11.0,13.0,290.0,10000.0,99999,6.0,0.0,0,11160629131014020110399404994151000600007000086000
4072,LICR,38.0712013245,15.651599884,2023-04-03 12:20:00,61.0,36.0,^,green,12.0,996.0,996.1185758224977,10.0,18.0,340.0,10000.0,99999,8.0,0.0,0,11160834181012020100399604996151000600007610088000
4073,LIPY,43.6162986755,13.3622999191,2023-04-03 12:20:00,,,,,13.0,1011.0,1011.120044683224,5.0,9.0,50.0,10000.0,99999,8.0,0.0,0,1116080509101302050301104011151000600007000088000
4075,LICD,35.4978981018,12.6181001663,2023-04-03 12:20:00,,,,,15.0,1004.0,1004.1182883076038,11.0,20.0,320.0,10000.0,99999,1.0,0.0,0,11160132201015020110300404004151000600007000081000
4076,LIRZ,43.0959014893,12.5131998062,2023-04-03 12:20:00,,,,,13.0,1009.0,1009.1180792125115,3.0,19.0,30.0,10000.0,99999,,0.0,0,1116000319101302030300904009151000600007000080000
4079,EHDL,52.0606002808,5.8730602264,2023-04-03 12:25:00,,,,,9.0,1031.0,1031.1239525205287,-6.0,15.0,,10000.0,99999,,0.0,0,1116003615100902160303104031151000600007000080000
4082,EHGR,51.567401886,4.9318299294,2023-04-03 12:25:00,,,,,9.0,1030.0,1030.1241417110384,-6.0,15.0,70.0,10000.0,99999,,0.0,0,1116000715100902160303004030151000600007000080000
4084,EHLE,52.4603004456,5.5272197723,2023-04-03 12:25:00,,,,,9.0,1032.0,1032.1245597949862,-4.0,14.0,100.0,10000.0,99999,,0.0,0,1116001014100902140303204032151000600007000080000
4085,EHLW,53.2285995483,5.7605600357,2023-04-03 12:25:00,,,,,8.0,1033.0,1033.125106266445,-5.0,10.0,,10000.0,99999,,0.0,0,1116003610100802150303304033151000600007000080000
4087,EHVK,51.6563987732,5.7086100578,2023-04-03 12:25:00,,,,,9.0,1031.0,1031.1241967551898,-3.0,17.0,80.0,10000.0,99999,,0.0,0,1116000817100902130303104031151000600007000080000
4088,EHWO,51.4491004944,4.3420300484,2023-04-03 12:25:00,,,,,10.0,1030.0,1030.1236377125474,-4.0,15.0,70.0,10000.0,99999,,0.0,0,1116000715101002140303004030151000600007000080000
4090,EGNO,53.745098114,-2.8830599785,2023-04-03 12:20:00,,,,,10.0,1030.0,1030.1236602983697,2.0,9.0,170.0,10000.0,99999,1.0,0.0,0,1116011709101002020303004030151000600007000081000
4106,ETSB,50.1738014221,7.0633301735,2023-04-03 12:20:00,,,,,4.0,1027.0,1027.1218157596695,-4.0,15.0,80.0,10000.0,99999,1.0,0.0,0,1116010815100402140302704027151000600007000081000
4114,ETHA,47.8354988098,10.8711996078,2023-04-03 12:20:00,71.0,36.0,h,magenta,2.0,1022.0,1022.1197788106938,-2.0,11.0,60.0,10000.0,99999,3.0,0.0,0,1116030611100202120302204022151000600007710083000
4115,ETHB,52.2784996033,9.0821695328,2023-04-03 12:20:00,,,,,6.0,1032.0,1032.125272912697,-5.0,9.0,80.0,10000.0,99999,6.0,0.0,0,1116060809100602150303204032151000600007000086000
4118,ETHL,48.2202987671,9.9100198746,2023-04-03 12:20:00,,,,,4.0,1023.0,1023.1208017053054,-3.0,12.0,60.0,10000.0,99999,4.0,0.0,0,1116040612100402130302304023151000600007000084000
4120,ETHS,52.9193992615,10.1975002289,2023-04-03 12:20:00,,,,,7.0,1032.0,1032.1247599828632,-7.0,13.0,60.0,10000.0,99999,3.0,0.0,0,1116030613100702170303204032151000600007000083000
4122,ETND,52.5855560303,8.3422222137,2023-04-03 12:20:00,,,,,7.0,1032.0,1032.125096516584,-5.0,7.0,50.0,10000.0,99999,3.0,0.0,0,1116030507100702150303204032151000600007000083000
4123,ETNH,54.3121986389,9.5381698608,2023-04-03 12:20:00,,,,,7.0,1033.0,1033.1254751974282,-4.0,11.0,50.0,10000.0,99999,3.0,0.0,0,1116030511100702140303304033151000600007000083000
4129,ETSH,51.7677993774,13.1676998138,2023-04-03 12:20:00,,,,,5.0,1031.0,1031.125521126557,-6.0,9.0,30.0,10000.0,99999,6.0,0.0,0,1116060309100502160303104031151000600007000086000
4135,EGDR,50.086101532,-5.255710125,2023-04-03 12:20:00,,,,,10.0,1026.0,1026.1225866281507,4.0,16.0,90.0,10000.0,99999,2.0,0.0,0,1116020916101002040302604026151000600007000082000
4136,EGDY,51.0093994141,-2.6388199329,2023-04-03 12:20:00,,,,,11.0,1028.0,1028.1229010515724,4.0,10.0,110.0,10000.0,99999,3.0,0.0,0,1116031110101102040302804028151000600007000083000
4137,EGOS,52.7981987,-2.6680400372,2023-04-03 12:20:00,,,,,9.0,1030.0,1030.1235751541053,0.0,8.0,130.0,10000.0,99999,1.0,0.0,0,1116011308100902000303004030151000600007000081000
4138,EGOV,53.2481002808,-4.5353398323,2023-04-03 12:20:00,,,,,11.0,1028.0,1028.1230073382917,3.0,11.0,190.0,10000.0,99999,3.0,0.0,0,1116031911101102030302804028151000600007000083000
4139,EGOW,53.5816001892,-3.0555200577,2023-04-03 12:20:00,,,,,10.0,1030.0,1030.1237111466542,1.0,10.0,150.0,10000.0,99999,,0.0,0,1116001510101002010303004030151000600007000080000
4140,EGQS,57.7052001953,-3.3391699791,2023-04-03 12:20:00,,,,,15.0,1027.0,1027.1210740654942,2.0,7.0,200.0,10000.0,99999,,0.0,0,1116002007101502020302704027151000600007000080000
4141,EGUB,51.6164016724,-1.0958299637,2023-04-03 12:20:00,,,,,11.0,1029.0,1029.1225996550606,3.0,9.0,110.0,10000.0,99999,3.0,0.0,0,1116031109101102030302904029151000600007000083000
4142,EGUW,52.1273002625,0.956264019,2023-04-03 12:20:00,,,,,9.0,1030.0,1030.1234765378915,1.0,9.0,100.0,10000.0,99999,1.0,0.0,0,1116011009100902010303004030151000600007000081000
4143,EGVN,51.75,-1.5836199522,2023-04-03 12:20:00,,,,,10.0,1029.0,1029.1228864249542,2.0,8.0,100.0,10000.0,99999,3.0,0.0,0,1116031008101002020302904029151000600007000083000
4144,EGVO,51.2341003418,-0.9428250194,2023-04-03 12:20:00,,,,,10.0,1029.0,1029.1225607175795,2.0,8.0,50.0,10000.0,99999,3.0,0.0,0,1116030508101002020302904029151000600007000083000
4145,EGVP,51.1394004822,-1.5686099529,2023-04-03 12:20:00,,,,,10.0,1029.0,1029.1228613090925,2.0,10.0,110.0,10000.0,99999,1.0,0.0,0,1116011110101002020302904029151000600007000081000
4146,EGXC,53.0929985046,-0.1660140008,2023-04-03 12:20:00,,,,,9.0,1031.0,1031.1243306394456,2.0,8.0,130.0,10000.0,99999,1.0,0.0,0,1116011308100902020303104031151000600007000081000
4147,EGXE,54.2924003601,-1.535400033,2023-04-03 12:20:00,,,,,10.0,1031.0,1031.1235630995589,2.0,9.0,160.0,10000.0,99999,1.0,0.0,0,1116011609101002020303104031151000600007000081000
4148,EGXT,52.6125984192,-0.4764530063,2023-04-03 12:20:00,,,,,10.0,1030.0,1030.1230477714062,1.0,8.0,130.0,10000.0,99999,6.0,0.0,0,1116061308101002010303004030151000600007000086000
4149,EGXW,53.1661987305,-0.5238109827,2023-04-03 12:20:00,,,,,10.0,1031.0,1031.1232848867865,2.0,10.0,130.0,10000.0,99999,1.0,0.0,0,1116011310101002020303104031151000600007000081000
4150,EGYD,53.0303001404,-0.4832420051,2023-04-03 12:20:00,,,,,10.0,1031.0,1031.1233213483,2.0,9.0,120.0,10000.0,99999,1.0,0.0,0,1116011209101002020303104031151000600007000081000
4176,ETMN,53.7677001953,8.6584997177,2023-04-03 12:20:00,,,,,7.0,1033.0,1033.1253738216094,-6.0,8.0,50.0,10000.0,99999,1.0,0.0,0,1116010508100702160303304033151000600007000081000
4178,ETSI,48.7156982422,11.5340003967,2023-04-03 12:20:00,,,,,7.0,1024.0,1024.121127513472,-6.0,7.0,50.0,10000.0,99999,3.0,0.0,0,1116030507100702160302404024151000600007000083000
4204,EGAE,55.0428009033,-7.1611099243,2023-04-03 12:20:00,,,,,12.0,1025.0,1025.1222331452796,7.0,12.0,160.0,10000.0,99999,3.0,0.0,0,1116031612101202070302504025151000600007000083000
4205,EGDM,51.1521987915,-1.747410059,2023-04-03 12:20:00,,,,,10.0,1029.0,1029.1225551649409,2.0,8.0,110.0,10000.0,99999,1.0,0.0,0,1116011108101002020302904029151000600007000081000
4206,EGEC,55.4371986389,-5.6863899231,2023-04-03 12:20:00,,,,,9.0,1027.0,1027.1237999988116,3.0,17.0,130.0,10000.0,99999,1.0,0.0,0,1116011317100902030302704027151000600007000081000
4207,EGGW,51.8746986389,-0.3683330119,2023-04-03 12:20:00,,,,,10.0,1030.0,1030.1223444670907,3.0,8.0,120.0,10000.0,99999,6.0,0.0,0,1116061208101002030303004030151000600007000086000
4208,EGJJ,49.207901001,-2.1955099106,2023-04-03 12:20:00,,,,,10.0,1027.0,1027.122678230069,4.0,12.0,80.0,10000.0,99999,1.0,0.0,0,1116010812101002040302704027151000600007000081000
4209,EGKB,51.3307991028,0.0324999988,2023-04-03 12:20:00,,,,,10.0,1029.0,1029.1220271962802,3.0,10.0,70.0,10000.0,99999,3.0,0.0,0,1116030710101002030302904029151000600007000083000
4210,EGLC,51.5052986145,0.0552779995,2023-04-03 12:20:00,,,,,10.0,1030.0,1030.1237620367724,1.0,13.0,90.0,10000.0,99999,,0.0,0,1116000913101002010303004030151000600007000080000
4211,EGTC,52.0722007751,-0.6166669726,2023-04-03 12:20:00,,,,,9.0,1030.0,1030.123268552355,3.0,7.0,110.0,10000.0,99999,3.0,0.0,0,1116031107100902030303004030151000600007000083000
4214,LIRN,40.8860015869,14.2908000946,2023-04-03 12:20:00,,,,,17.0,1002.0,1002.1166228203975,4.0,18.0,30.0,10000.0,99999,6.0,0.0,0,1116060318101702040300204002151000600007000086000
4216,ESSA,59.6519012451,17.9186000824,2023-04-03 12:20:00,,,,,3.0,1033.0,1033.127093619438,-9.0,9.0,340.0,10000.0,99999,,0.0,0,1116003409100302190303304033151000600007000080000
4253,ETHC,52.5912017822,10.0221004486,2023-04-03 12:20:00,,,,,6.0,1032.0,1032.1255657132006,-6.0,11.0,20.0,10000.0,99999,6.0,0.0,0,1116060211100602160303204032151000600007000086000
4254,ETHF,51.1146,9.286,2023-04-03 12:20:00,,,,,6.0,1030.0,1030.1218922977982,-6.0,11.0,70.0,10000.0,99999,2.0,0.0,0,1116020711100602160303004030151000600007000082000
4258,ETNS,54.4593009949,9.5163297653,2023-04-03 12:20:00,,,,,8.0,1034.0,1034.12503440823,-20.0,9.0,90.0,10000.0,99999,3.0,0.0,0,11160309091008021200303404034151000600007000083000
4260,ETNW,52.4572982788,9.4271697998,2023-04-03 12:20:00,,,,,7.0,1032.0,1032.1249265849244,-5.0,10.0,70.0,10000.0,99999,3.0,0.0,0,1116030710100702150303204032151000600007000083000
4262,ETSN,48.7109985352,11.2115001678,2023-04-03 12:20:00,,,,,6.0,1024.0,1024.1214446617535,-5.0,9.0,40.0,10000.0,99999,2.0,0.0,0,1116020409100602150302404024151000600007000082000
4263,ETWM,52.7232017517,7.3263301849,2023-04-03 12:20:00,,,,,8.0,1033.0,1033.1251149123605,-6.0,9.0,80.0,10000.0,99999,1.0,0.0,0,1116010809100802160303304033151000600007000081000
4290,LTCS,37.4456634521,38.8955917358,2023-04-03 12:20:00,,,,,17.0,1017.0,1017.1123640924221,10.0,6.0,210.0,10000.0,99999,6.0,0.0,0,11160621061017020100301704017151000600007000086000
4294,LTFM,41.275333,28.752,2023-04-03 12:20:00,,,,,13.0,1010.0,1010.1191830669792,10.0,10.0,20.0,10000.0,99999,4.0,0.0,0,11160402101013020100301004010151000600007000084000
4315,EHBK,50.9117012024,5.7701401711,2023-04-03 12:25:00,,,,,8.0,1029.0,1029.1235630322253,-4.0,13.0,70.0,10000.0,99999,,0.0,0,1116000713100802140302904029151000600007000080000
4320,ETHN,49.3919448853,9.9588890076,2023-04-03 12:20:00,,,,,4.0,1025.0,1025.1222098928508,-5.0,13.0,60.0,10000.0,99999,3.0,0.0,0,1116030613100402150302504025151000600007000083000
4321,ETNL,53.9182014465,12.2783002853,2023-04-03 12:20:00,,,,,4.0,1033.0,1033.1266120043017,-6.0,9.0,50.0,10000.0,99999,1.0,0.0,0,1116010509100402160303304033151000600007000081000
4322,ETNN,50.831199646,6.6581702232,2023-04-03 12:20:00,,,,,8.0,1029.0,1029.123531997548,-6.0,10.0,80.0,10000.0,99999,1.0,0.0,0,1116010810100802160302904029151000600007000081000
4323,ETNT,53.5477981567,7.6673297882,2023-04-03 12:20:00,,,,,8.0,1034.0,1034.125161066291,-6.0,10.0,60.0,10000.0,99999,1.0,0.0,0,1116010610100802160303404034151000600007000081000
4324,ETSL,48.1855010986,10.8612003326,2023-04-03 12:20:00,,,,,4.0,1023.0,1023.1206499602524,-2.0,12.0,40.0,10000.0,99999,4.0,0.0,0,1116040412100402120302304023151000600007000084000
4331,LTAJ,36.9472007751,37.4786987305,2023-04-03 12:20:00,,,,,19.0,1016.0,1016.1124232007875,9.0,6.0,180.0,10000.0,99999,1.0,0.0,0,1116011806101902090301604016151000600007000081000
4332,LTAP,40.8293991089,35.5219993591,2023-04-03 12:20:00,,,,,21.0,1012.0,1012.1125430574579,6.0,1.0,,10000.0,99999,4.0,0.0,0,1116043601102102060301204012151000600007000084000
4333,LTAT,38.4352989197,38.0909996033,2023-04-03 12:20:00,,,,,20.0,1015.0,1015.1107440855096,8.0,5.0,130.0,10000.0,99999,6.0,0.0,0,1116061305102002080301504015151000600007000086000
4336,LTCE,39.9565010071,41.1702003479,2023-04-03 12:20:00,,,,,10.0,1017.0,1017.108020151454,0.0,10.0,260.0,10000.0,99999,6.0,0.0,0,1116062610101002000301704017151000600007000086000
4338,LTCJ,37.9290008545,41.1166000366,2023-04-03 12:20:00,,,,,19.0,1016.0,1016.1136018826096,10.0,4.0,340.0,10000.0,99999,3.0,0.0,0,11160334041019020100301604016151000600007000083000
4339,LTFE,37.2505989075,27.6643009186,2023-04-03 12:20:00,,,,,21.0,1008.0,1008.1163738043257,9.0,25.0,120.0,10000.0,99999,3.0,0.0,0,1116031225102102090300804008151000600007000083000
4344,LTBJ,38.2924003601,27.156999588,2023-04-03 12:20:00,,,,,22.0,1006.0,1006.1147564905601,7.0,17.0,180.0,10000.0,99999,,0.0,0,1116001817102202070300604006151000600007000080000
4346,LTAC,40.1281013489,32.995098114,2023-04-03 12:20:00,,,,,19.0,1013.0,1013.1102124457815,1.0,8.0,250.0,10000.0,99999,2.0,0.0,0,1116022508101902010301304013151000600007000082000
4350,LTAZ,38.771900177,34.5345001221,2023-04-03 12:20:00,,,,,21.0,1014.0,1014.1096529489911,-1.0,8.0,250.0,10000.0,99999,3.0,0.0,0,1116032508102102110301404014151000600007000083000
4351,LTBR,40.2551994324,29.5625991821,2023-04-03 12:20:00,,,,,21.0,1007.0,1007.1143920549005,10.0,8.0,50.0,10000.0,99999,3.0,0.0,0,11160305081021020100300704007151000600007000083000
4353,LTFC,37.8554000854,30.3684005737,2023-04-03 12:20:00,,,,,18.0,1013.0,1013.1112492593537,5.0,13.0,140.0,10000.0,99999,3.0,0.0,0,1116031413101802050301304013151000600007000083000
4354,LTFJ,40.898601532,29.3092002869,2023-04-03 12:20:00,,,,,20.0,1008.0,1008.1160389108629,13.0,14.0,40.0,10000.0,99999,3.0,0.0,0,11160304141020020130300804008151000600007000083000
4411,LFCK,43.5563011169,2.2891800404,2023-04-03 12:30:00,,,,,11.0,1020.0,1020.119999119843,5.0,13.0,290.0,10000.0,99999,7.0,0.0,0,1116072913101102050302004020151000600007000087000
4412,LFLP,45.9291992188,6.098760128,2023-04-03 12:30:00,,,,,10.0,1017.0,1017.1181445717443,5.0,11.0,30.0,10000.0,99999,7.0,0.0,0,1116070311101002050301704017151000600007000087000
4413,LFLU,44.9216003418,4.9699001312,2023-04-03 12:30:00,,,,,10.0,1017.0,1017.1208030427692,6.0,20.0,360.0,10000.0,99999,7.0,0.0,0,1116073620101002060301704017151000600007000087000
4418,LFQA,49.2086982727,4.1565799713,2023-04-03 12:30:00,,,,,11.0,1026.0,1026.1220016962918,1.0,13.0,80.0,10000.0,99999,1.0,0.0,0,1116010813101102010302604026151000600007000081000
4432,LFAC,50.9621009827,1.9547599554,2023-04-03 12:30:00,,,,,10.0,1029.0,1029.1236616621404,2.0,16.0,40.0,10000.0,99999,,0.0,0,1116000416101002020302904029151000600007000080000
4434,LFGA,48.1099014282,7.3590102196,2023-04-03 12:30:00,,,,,8.0,1024.0,1024.1222562030375,-3.0,8.0,40.0,10000.0,99999,8.0,0.0,0,1116080408100802130302404024151000600007000088000
4435,LFJR,47.5602989197,-0.3122220039,2023-04-03 12:30:00,,,,,9.0,1025.0,1025.1231298078912,4.0,6.0,30.0,10000.0,99999,8.0,0.0,0,1116080306100902040302504025151000600007000088000
4437,LFRU,48.6031990051,-3.8157799244,2023-04-03 12:30:00,,,,,10.0,1025.0,1025.122453234458,4.0,10.0,80.0,10000.0,99999,,0.0,0,1116000810101002040302504025151000600007000080000
4438,EPBY,53.0968017578,17.9776992798,2023-04-03 12:30:00,,,,,4.0,1029.0,1029.1258371860802,-7.0,13.0,20.0,10000.0,99999,6.0,0.0,0,1116060213100402170302904029151000600007000086000
4442,EPRA,51.3891983032,21.213300705,2023-04-03 12:30:00,,,,,4.0,1023.0,1023.124096094631,-6.0,12.0,10.0,10000.0,99999,,0.0,0,1116000112100402160302304023151000600007000080000
4444,EPSY,53.481944,20.937778,2023-04-03 12:30:00,,,,,4.0,1025.0,1025.1246839109194,-9.0,14.0,360.0,10000.0,99999,,0.0,0,1116003614100402190302504025151000600007000080000
4446,EPZG,52.1385002136,15.7986001968,2023-04-03 12:30:00,,,,,4.0,1030.0,1030.126079710083,-7.0,10.0,340.0,10000.0,99999,1.0,0.0,0,1116013410100402170303004030151000600007000081000
4447,LFLH,46.8260993958,4.8176298141,2023-04-03 12:30:00,,,,,8.0,1022.0,1022.1220312766293,4.0,11.0,10.0,10000.0,99999,8.0,0.0,0,1116080111100802040302204022151000600007000088000
4449,LFPT,49.0965995789,2.0408298969,2023-04-03 12:30:00,,,,,11.0,1026.0,1026.1219685946396,1.0,11.0,70.0,10000.0,99999,,0.0,0,1116000711101102010302604026151000600007000080000
4459,LHKE,46.9174995422,19.7492008209,2023-04-03 12:15:00,,,,,10.0,1016.0,1016.1210918834031,1.0,8.0,340.0,10000.0,99999,6.0,0.0,0,1116063408101002010301604016151000600007000086000
4460,LHPA,47.3636016846,17.5007991791,2023-04-03 12:15:00,,,,,7.0,1020.0,1020.1226858602712,-4.0,21.0,340.0,10000.0,99999,,0.0,0,1116003421100702140302004020151000600007000080000
4462,LHPR,47.6244010925,17.8136005402,2023-04-03 12:15:00,,,,,7.0,1019.0,1019.1226834576847,-4.0,21.0,340.0,10000.0,99999,8.0,0.0,0,1116083421100702140301904019151000600007000088000
4463,LHSM,46.6864013672,17.1590995789,2023-04-03 12:15:00,,,,,8.0,1019.0,1019.1222700723645,-3.0,17.0,360.0,10000.0,99999,,0.0,0,1116003617100802130301904019151000600007000080000
4464,LHSN,47.1228981018,20.2355003357,2023-04-03 12:15:00,,,,,11.0,1015.0,1015.1206691241658,0.0,14.0,30.0,10000.0,99999,3.0,0.0,0,1116030314101102000301504015151000600007000083000
4466,EDAC,50.9819450378,12.5063886642,2023-04-03 12:20:00,,,,,4.0,1030.0,1030.1247840124017,-6.0,9.0,30.0,10000.0,99999,6.0,0.0,0,1116060309100402160303004030151000600007000086000
4471,EGYM,52.648399353,0.5506920218,2023-04-03 12:20:00,,,,,10.0,1031.0,1031.1237238530157,1.0,8.0,90.0,10000.0,99999,3.0,0.0,0,1116030908101002010303104031151000600007000083000
4473,EHEH,51.4500999451,5.3745298386,2023-04-03 12:25:00,,,,,9.0,1030.0,1030.1240706074827,-7.0,10.0,90.0,10000.0,99999,,0.0,0,1116000910100902170303004030151000600007000080000
4474,EHGG,53.1197013855,6.5794401169,2023-04-03 12:25:00,,,,,8.0,1033.0,1033.1250659346354,-5.0,11.0,80.0,10000.0,99999,,0.0,0,1116000811100802150303304033151000600007000080000
4475,EHKD,52.9234008789,4.7806200981,2023-04-03 12:25:00,,,,,8.0,1033.0,1033.125106266445,-4.0,12.0,110.0,10000.0,99999,,0.0,0,1116001112100802140303304033151000600007000080000
4476,EHRD,51.9569015503,4.4372200966,2023-04-03 12:25:00,,,,,9.0,1031.0,1031.1244448110717,-5.0,14.0,80.0,10000.0,99999,,0.0,0,1116000814100902150303104031151000600007000080000
4478,LBGO,43.1514015198,25.7129001617,2023-04-03 12:30:00,61.0,36.0,^,green,16.0,1009.0,1009.1178819893013,7.0,3.0,110.0,10000.0,99999,7.0,0.0,0,1116071103101602070300904009151000600007610087000
4487,EHAM,52.3086013794,4.7638897896,2023-04-03 12:25:00,,,,,9.0,1031.0,1031.124433384474,-4.0,14.0,90.0,10000.0,99999,,0.0,0,1116000914100902140303104031151000600007000080000
4489,LYBT,44.935299,20.2575,2023-04-03 12:30:00,,,,,11.0,1014.0,1014.1207058116257,6.0,13.0,360.0,10000.0,99999,6.0,0.0,0,1116063613101102060301404014151000600007000086000
4490,LYKV,43.818298,20.5872,2023-04-03 12:30:00,,,,,6.0,1013.0,1013.1216854322064,6.0,8.0,310.0,10000.0,99999,4.0,0.0,0,1116043108100602060301304013151000600007000084000
4494,LYVR,45.1469,21.3099,2023-04-03 12:30:00,,,,,10.0,1013.0,1013.1210086373385,6.0,16.0,360.0,10000.0,99999,6.0,0.0,0,1116063616101002060301304013151000600007000086000
4533,LFRL,48.2817001343,-4.4450201988,2023-04-03 12:30:00,,,,,13.0,1024.0,1024.1209382531122,4.0,5.0,70.0,10000.0,99999,,0.0,0,1116000705101302040302404024151000600007000080000
4537,LFYR,47.3208007813,1.6888899803,2023-04-03 12:30:00,,,,,8.0,1024.0,1024.123204620497,3.0,6.0,30.0,10000.0,99999,8.0,0.0,0,1116080306100802030302404024151000600007000088000
4570,LFBY,43.689201355,-1.0688899755,2023-04-03 12:30:00,,,,,15.0,1020.0,1020.1200765144106,5.0,4.0,80.0,10000.0,99999,,0.0,0,1116000804101502050302004020151000600007000080000
4573,LFLN,46.4124984741,4.0132598877,2023-04-03 12:30:00,,,,,8.0,1021.0,1021.1214347701613,5.0,10.0,360.0,10000.0,99999,8.0,0.0,0,1116083610100802050302104021151000600007000088000
4600,LFMY,43.6063995361,5.1092500687,2023-04-03 12:30:00,,,,,18.0,1012.0,1012.1176257194196,6.0,16.0,340.0,10000.0,99999,,0.0,0,1116003416101802060301204012151000600007000080000
4614,EGXV,53.8758010864,-0.4350000024,2023-04-03 12:20:00,,,,,9.0,1031.0,1031.124299278966,2.0,8.0,120.0,10000.0,99999,3.0,0.0,0,1116031208100902020303104031151000600007000083000
4634,LTAF,36.9822006226,35.2803993225,2023-04-03 12:20:00,,,,,23.0,1014.0,1014.1161431693644,12.0,4.0,120.0,10000.0,99999,3.0,0.0,0,11160312041023020120301404014151000600007000083000
4635,LTAG,37.0021018982,35.4258995056,2023-04-03 12:20:00,,,,,23.0,1013.0,1013.1155929822859,12.0,0.0,0.0,10000.0,99999,3.0,0.0,0,11160300001023020120301304013151000600007000083000
4636,LTAI,36.8987007141,30.8005008698,2023-04-03 12:20:00,,,,,19.0,1015.0,1015.1176042433509,12.0,9.0,160.0,10000.0,99999,3.0,0.0,0,11160316091019020120301504015151000600007000083000
4637,LTAU,38.770401001,35.4953994751,2023-04-03 12:20:00,,,,,19.0,1014.0,1014.109554991248,0.0,7.0,280.0,10000.0,99999,3.0,0.0,0,1116032807101902000301404014151000600007000083000
4638,LTBA,40.9768981934,28.8145999908,2023-04-03 12:20:00,,,,,20.0,1008.0,1008.1164187100784,12.0,10.0,30.0,10000.0,99999,,0.0,0,11160003101020020120300804008151000600007000080000
4639,LTBS,36.7131004333,28.7924995422,2023-04-03 12:20:00,,,,,23.0,1010.0,1010.1157985311143,3.0,18.0,150.0,10000.0,99999,2.0,0.0,0,1116021518102302030301004010151000600007000082000
4640,LTBU,41.1381988525,27.9190998077,2023-04-03 12:20:00,,,,,19.0,1008.0,1008.1157802394205,11.0,13.0,60.0,10000.0,99999,3.0,0.0,0,11160306131019020110300804008151000600007000083000
4641,LTCC,37.893901825,40.2010002136,2023-04-03 12:20:00,,,,,19.0,1016.0,1016.1125748308851,11.0,5.0,140.0,10000.0,99999,3.0,0.0,0,11160314051019020110301604016151000600007000083000
4642,LTCG,40.995098114,39.7896995544,2023-04-03 12:20:00,80.0,36.0,q,green,13.0,1016.0,1016.1204887170524,11.0,2.0,,10000.0,99999,4.0,0.0,0,11160436021013020110301604016151000600007800084000
4644,LXGB,36.1511993408,-5.3496599197,2023-04-03 12:20:00,,,,,18.0,1016.0,1016.1185624272757,13.0,8.0,100.0,10000.0,99999,1.0,0.0,0,11160110081018020130301604016151000600007000081000
4645,LGKL,37.0682983398,22.0254993439,2023-04-03 12:20:00,,,,,18.0,1000.0,1000.1166668188082,11.0,6.0,210.0,10000.0,99999,3.0,0.0,0,11160321061018020110300004000151000600007000083000
4649,EPLL,51.7219009399,19.3980998993,2023-04-03 12:30:00,,,,,4.0,1025.0,1025.1242813584656,-7.0,14.0,10.0,10000.0,99999,6.0,0.0,0,1116060114100402170302504025151000600007000086000
4650,EPWR,51.1026992798,16.885799408,2023-04-03 12:30:00,,,,,5.0,1027.0,1027.1246329876844,-7.0,10.0,20.0,10000.0,99999,3.0,0.0,0,1116030210100502170302704027151000600007000083000
4652,LFBG,45.6582984924,-0.3174999952,2023-04-03 12:30:00,,,,,11.0,1023.0,1023.1222282426213,6.0,7.0,60.0,10000.0,99999,8.0,0.0,0,1116080607101102060302304023151000600007000088000
4653,LFCR,44.4079017639,2.4826700687,2023-04-03 12:30:00,,,,,11.0,1018.0,1018.1168307086299,4.0,9.0,320.0,10000.0,99999,5.0,0.0,0,1116053209101102040301804018151000600007000085000
4654,LFJL,48.9821014404,6.2513198853,2023-04-03 12:30:00,,,,,10.0,1025.0,1025.1208116684086,-1.0,14.0,60.0,10000.0,99999,6.0,0.0,0,1116060614101002110302504025151000600007000086000
4655,LFMK,43.2159996033,2.306319952,2023-04-03 12:30:00,,,,,13.0,1019.0,1019.1199543342263,5.0,14.0,290.0,10000.0,99999,6.0,0.0,0,1116062914101302050301904019151000600007000086000
4656,LFMO,44.140499115,4.8667201996,2023-04-03 12:30:00,,,,,15.0,1014.0,1014.1191274577792,6.0,26.0,360.0,10000.0,99999,,0.0,0,1116003626101502060301404014151000600007000080000
4657,LFMU,43.3235015869,3.3538999557,2023-04-03 12:30:00,,,,,17.0,1015.0,1015.1187615974791,3.0,16.0,310.0,10000.0,99999,,0.0,0,1116003116101702030301504015151000600007000080000
