,station,lat,lon,time,weather,weatherfont,weathersymbol,weathercolour,temperature,pressure,sl_pressure,dewpoint,windspeed,winddir,visibility,visual_range,cloudcover,pressure3h_change,rain,wwletter
558,EEEI,59.2602996826,24.2084999084,2024-01-29 23:50:00,,,,,1.0,1026.0,(4026.229222027818+0j),1.0,0.0,0.0,10000.0,99999,,(3001.229222027818+0j),0.0,1116000000100102010302604000051000600007000080000
621,EKCH,55.6179008484,12.6560001373,2024-01-29 23:50:00,,,,,2.0,1027.0,(1343.0221854941078+0j),1.0,3.0,230.0,10000.0,99999,6.0,(316.0221854941078+0j),0.0,1116062303100202010302704000051000600007000086000
668,LGLM,39.917098999,25.2362995148,2024-01-29 23:50:00,,,,,5.0,1033.0,(1133.834302889005+0j),-4.0,21.0,40.0,10000.0,99999,2.0,(99.93430288900481+0j),0.0,1116020421100502140303304000051000600007000082000
671,LGSM,37.6899986267,26.911699295,2024-01-29 23:50:00,,,,,7.0,1024.0,(1120.838004234128+0j),4.0,14.0,360.0,10000.0,99999,1.0,(94.53800423412804+0j),0.0,1116013614100702040302404000051000600007000081000
777,EGJB,49.4350013733,-2.6019699574,2024-01-29 23:50:00,51.0,36.0,T,green,9.0,1024.0,(2615.5240345563334+0j),8.0,20.0,240.0,8000.0,99999,6.0,(1592.7240345563334+0j),0.0,1114062420100902080302404000051000600007510086000
784,EGNS,54.0833015442,-4.6238899231,2024-01-29 23:50:00,,,,,5.0,1020.0,(1408.5517579261252+0j),3.0,8.0,360.0,10000.0,99999,8.0,(388.5517579261252+0j),0.4,1116083608100502030302004000051000600407000088000
845,ETNG,50.9608001709,6.0424199104,2024-01-29 23:50:00,,,,,11.0,1027.0,(2130.184838020594+0j),5.0,3.0,170.0,10000.0,99999,,(1102.584838020594+0j),0.0,1116001703101102050302704000051000600007000080000
858,LGBL,39.2196006775,22.7943000793,2024-01-29 23:50:00,61.0,36.0,^,green,3.0,1035.0,(2181.904404751538+0j),2.0,5.0,230.0,8000.0,99999,4.0,(1147.904404751538+0j),0.0,1114042305100302020303504000051000600007610084000
863,LGTG,38.3398017883,23.5650005341,2024-01-29 23:50:00,61.0,36.0,^,green,3.0,1032.0,(9.082046462664373+0j),2.0,7.0,280.0,8000.0,99999,4.0,(-1023.9179535373356+0j),0.2,1114042807100302020303204000051000600207610084000
886,LGEL,38.0638008118,23.5559997559,2024-01-29 23:50:00,61.0,36.0,^,green,4.0,1031.0,(2556.4939894983345+0j),2.0,6.0,310.0,10000.0,99999,2.0,(1524.1939894983345+0j),0.0,1116023106100402020303104000051000600007610082000
988,LGRX,38.1511001587,21.4256000519,2024-01-29 23:50:00,,,,,6.0,1031.0,(1315.6460257801702+0j),-2.0,3.0,,10000.0,99999,1.0,(283.64602578017025+0j),0.0,1116013603100602120303104000051000600007000081000
1128,LTAY,37.7855987549,29.7012996674,2024-01-29 23:50:00,,,,,1.0,1021.0,(33.9784847747582+0j),-6.0,11.0,50.0,10000.0,99999,4.0,(-987.0215152252418+0j),0.0,1116040511100102160302104000051000600007000084000
1129,LTBD,37.8149986267,27.8952999115,2024-01-29 23:50:00,,,,,4.0,1023.0,(2057.759010097732+0j),-4.0,2.0,,10000.0,99999,,(1032.7590100977318+0j),0.0,1116003602100402140302304000051000600007000080000
1133,LTBY,39.8098983765,30.5193996429,2024-01-29 23:50:00,,,,,-2.0,1026.0,(55.30110008903053+0j),-6.0,5.0,340.0,10000.0,99999,3.0,0j,0.0,1116033405110202160302604000051000600007000083000
1135,LTCB,40.966667,38.08,2024-01-29 23:50:00,,,,,1.0,1031.0,(1740.5578846239387+0j),-1.0,2.0,,10000.0,99999,3.0,(710.5578846239387+0j),0.0,1116033602100102110303104000051000600007000083000
1139,LTCN,37.5388259888,36.9535217285,2024-01-29 23:50:00,,,,,5.0,1022.0,(16.19125265920434+0j),-3.0,2.0,,10000.0,99999,4.0,(-1005.8087473407957+0j),0.0,1116043602100502130302204000051000600007000084000
1140,LTCT,39.9766273499,43.8766479492,2024-01-29 23:50:00,,,,,-4.0,1027.0,(72.5350508581421+0j),-5.0,6.0,260.0,10000.0,99999,4.0,0j,0.0,1116042606110402150302704000051000600007000084000
1141,LTDA,36.36277771,36.2822227478,2024-01-29 23:50:00,63.0,36.0,',green,7.0,1022.0,(2663.4745005914165+0j),5.0,16.0,30.0,7000.0,99999,6.0,(1641.4745005914165+0j),0.6,1114060316100702050302204000051000600607630086000
1142,LTFD,39.554599762,27.0137996674,2024-01-29 23:50:00,,,,,4.0,1030.0,(1507.507668497556+0j),-1.0,12.0,60.0,10000.0,99999,3.0,(476.5076684975561+0j),0.1,1116030612100402110303004000051000600107000083000
1143,LTFG,36.2992172241,32.3005981445,2024-01-29 23:50:00,,,,,12.0,1016.0,(1277.3730296542954+0j),-4.0,14.0,40.0,10000.0,99999,4.0,(260.37302965429535+0j),0.2,1116040414101202140301604000051000600207000084000
1193,EGQL,56.3728981018,-2.8684399128,2024-01-29 23:50:00,61.0,36.0,^,green,4.0,1023.0,(1377.0195361886856+0j),3.0,5.0,360.0,10000.0,99999,8.0,(353.5195361886856+0j),0.0,1116083605100402030302304000051000600007610088000
1205,ETIC,49.6986999512,11.940199852,2024-01-29 23:55:00,,,,,-3.9,30.46,(225.22446572416183+0j),-4.9,0.0,0.0,10000.0,99999,,(-806.7755342758381+0j),0.0,111600000011031214133044000051000600007000080000
1211,LBPG,42.2904014587,24.7140007019,2024-01-30 00:00:00,,,,,-1.0,1040.0,(15956.777901192389+0j),-6.0,6.0,270.0,10000.0,99999,1.0,(14917.777901192389+0j),0.0,1116012706110102160304004000051000600007000081000
1212,LBPL,43.4514007568,24.5027999878,2024-01-30 00:00:00,,,,,1.0,1041.0,(16.02040503464302+0j),-2.0,2.0,320.0,10000.0,99999,8.0,(-1024.979594965357+0j),0.0,1116083202100102120304104000051000600007000088000
1249,ETEK,49.6502990723,7.300069809,2024-01-29 23:55:00,,,,,7.4,30.41,(1030.41+0j),4.7,9.0,220.0,10000.0,99999,,(0.41000000000008185+0j),0.0,111600220910074204433044000051000600007000080000
1420,EGQS,57.7052001953,-3.3391699791,2024-01-29 23:50:00,,,,,-2.0,1024.0,(414.43131063567205+0j),-3.0,4.0,220.0,10000.0,99999,,(-609.4686893643279+0j),0.0,1116002204110202130302404000051000600007000080000
1429,LGAL,40.8558998108,25.9563007355,2024-01-29 23:50:00,,,,,4.0,1034.0,(1255.018135287831+0j),-4.0,18.0,10.0,10000.0,99999,3.0,(219.31813528783096+0j),0.0,1116030118100402140303404000051000600007000083000
1430,LGLR,39.6562825886,22.3400008678,2024-01-29 23:50:00,61.0,36.0,^,green,4.0,1035.0,(3811.27753030124+0j),3.0,7.0,340.0,9000.0,99999,5.0,(2776.77753030124+0j),0.0,1115053407100402030303504000051000600007610085000
1434,LTAB,39.9350013733,32.7407989502,2024-01-29 23:50:00,,,,,-1.0,1025.0,(45.87196297979703+0j),-5.0,9.0,60.0,10000.0,99999,,(-980.128037020203+0j),0.0,1116000609110102150302504000051000600007000080000
1436,LTAR,39.8138008118,36.9034996033,2024-01-29 23:50:00,,,,,-10.0,1022.0,(105.55482444134795+0j),-12.0,8.0,80.0,10000.0,99999,,(-924.3451755586522+0j),0.0,11160008081110021120302204000051000600007000080000
1439,LTBF,39.6193008423,27.9260005951,2024-01-29 23:50:00,,,,,3.0,1030.0,(6609.066436885296+0j),1.0,4.0,340.0,10000.0,99999,3.0,(5578.066436885296+0j),0.0,1116033404100302010303004000051000600007000083000
1440,LTBI,39.7840995789,30.5820999146,2024-01-29 23:50:00,,,,,-2.0,1026.0,(55.357702253036436+0j),-6.0,3.0,360.0,10000.0,99999,3.0,(-970.6422977469635+0j),0.0,1116033603110202160302604000051000600007000083000
1442,LTBQ,40.7350006104,30.0832996368,2024-01-29 23:50:00,,,,,-0.0,1032.0,(39.46436465468339+0j),-1.0,2.0,,7000.0,99999,3.0,(-992.5356353453166+0j),0.0,1114033602110002110303204000051000600007000083000
1447,LTCI,38.4682006836,43.3322982788,2024-01-29 23:50:00,,,,,-5.0,1021.0,(58.98450856716858+0j),-8.0,4.0,70.0,10000.0,99999,3.0,(-962.0154914328314+0j),0.0,1116030704110502180302104000051000600007000083000
1769,LTAD,39.949798584,32.6885986328,2024-01-29 23:50:00,,,,,-2.0,1026.0,(54.793750102300585+0j),-7.0,6.0,20.0,10000.0,99999,,(-972.2062498976994+0j),0.0,1116000206110202170302604000051000600007000080000
1770,LTAN,37.9790000916,32.5619010925,2024-01-29 23:50:00,,,,,-3.0,1021.0,(58.242709776741364+0j),-5.0,12.0,360.0,10000.0,99999,4.0,(-962.7572902232587+0j),0.0,1116043612110302150302104000051000600007000084000
1771,LTBG,40.3180007935,27.9776992798,2024-01-29 23:50:00,,,,,5.0,1031.0,(2472.1645201929205+0j),3.0,16.0,20.0,10000.0,99999,6.0,(1440.1645201929205+0j),1.7,1116060216100502030303104000051000601707000086000
1772,LTBL,38.5130004883,27.010099411,2024-01-29 23:50:00,,,,,5.0,1027.0,(1141.888514624203+0j),-1.0,17.0,10.0,10000.0,99999,3.0,(113.18851462420298+0j),0.0,1116030117100502110302704000051000600007000083000
1773,LTCA,38.6068992615,39.2914009094,2024-01-29 23:50:00,,,,,-6.0,1024.0,(116.42571846580925+0j),-6.0,5.0,330.0,10000.0,99999,3.0,(-910.5742815341907+0j),0.0,1116033305110602160302404000051000600007000083000
1790,ULPB,61.8852005005,34.1547012329,2024-01-30 00:00:00,,,,,0.0,1016.0,(38.852514039882095+0j),-2.0,4.0,250.0,10000.0,99999,,(-975.1474859601179+0j),0.0,1116002504100002120301604000051000600007000080000
1829,LTAE,40.0788993835,32.5656013489,2024-01-29 23:50:00,,,,,-4.0,1026.0,(79.21991622369883+0j),-8.0,8.0,40.0,10000.0,99999,,(-946.7800837763011+0j),0.0,1116000408110402180302604000051000600007000080000
2071,LPMR,39.831199646,-8.887260437,2024-01-30 00:00:00,,,,,11.0,1028.0,(1692.652252493454+0j),10.0,2.0,130.0,6000.0,99999,,(665.652252493454+0j),0.0,11130013021011020100302804000051000600007000080000
2072,LPMT,38.7038993835,-9.0359201431,2024-01-30 00:00:00,,,,,11.0,1027.0,(1178.152481722214+0j),11.0,5.0,60.0,10000.0,99999,,(151.1524817222139+0j),0.0,11160006051011020110302704000051000600007000080000
2077,UMGG,52.5270004272,31.0167007446,2024-01-30 00:00:00,,,,,-1.0,1037.0,(123.79393970189379+0j),-3.0,4.0,240.0,9000.0,99999,8.0,(-915.8060602981061+0j),0.0,1115082404110102130303704000051000600007000088000
2088,URMN,43.5129013062,43.6366004944,2024-01-30 00:00:00,10.0,36.0,+,yellow,-7.0,1032.0,(3952.351400855731+0j),-7.0,1.0,60.0,1500.0,99999,8.0,(2920.351400855731+0j),0.0,1110080601110702170303204000051000600007100088000
2101,UWLW,54.4010009766,48.8027000427,2024-01-30 00:00:00,,,,,-2.0,1023.0,(-531975.385588037-556027.5821350701j),-5.0,5.0,230.0,10000.0,99999,6.0,(-533001.385588037-556027.5821350701j),0.0,1116062305110202150302304000051000600007000086000
2229,LGHI,38.3432006836,26.1406002045,2024-01-29 23:50:00,,,,,8.0,1027.0,(1093.6957420375793+0j),0.0,17.0,10.0,10000.0,99999,6.0,(65.39574203757934+0j),1.1,1116060117100802000302704000051000601107000086000
2230,LGPA,37.0102996826,25.1280994415,2024-01-29 23:50:00,,,,,8.0,1026.0,(1662.8232361525286+0j),0.0,22.0,10.0,10000.0,99999,,0j,0.0,1116000122100802000302604000051000600007000080000
2233,LKKB,50.1213989258,14.5436000824,2024-01-30 00:00:00,49.0,36.0,R,red,-3.0,1034.0,(314.2257735457965+0j),-4.0,2.0,,300.0,99999,,0j,0.0,1110003602110302140303404000051000600007490080000
2234,LKKV,50.202999115,12.9149999619,2024-01-30 00:00:00,,,,,-2.0,1032.0,(62.53243766776391+0j),-3.0,4.0,120.0,10000.0,99999,,(-969.4675623322361+0j),0.0,1116001204110202130303204000051000600007000080000
2235,LKLN,49.675201416,13.274600029,2024-01-30 00:00:00,,,,,-3.0,1034.0,(168.60093621938506+0j),-3.0,2.0,,150.0,99999,,(-864.3990637806149+0j),0.0,1110003602110302130303404000051000600007000080000
2237,LKNA,49.1657981873,16.1249008179,2024-01-30 00:00:00,,,,,-1.0,1035.0,(52.490952083333795+0j),-2.0,10.0,110.0,10000.0,99999,,(-985.3090479166661+0j),0.0,1116001110110102120303504000051000600007000080000
2240,LOXZ,47.2028007507,14.7441997528,2024-01-29 23:50:00,,,,,-6.0,1036.0,(196.31946421768168+0j),-7.0,1.0,220.0,10000.0,99999,,(-845.3805357823184+0j),0.0,1116002201110602170303604000051000600007000080000
2250,LTCD,39.7102012634,39.5270004272,2024-01-29 23:50:00,,,,,-10.0,1026.0,(184.7071350027856+0j),-11.0,2.0,,10000.0,99999,1.0,(-841.2928649972143+0j),0.0,11160136021110021110302604000051000600007000081000
2251,LTCF,40.5621986389,43.1150016785,2024-01-29 23:50:00,,,,,-16.0,1024.0,(196.47939605667244+0j),-18.0,2.0,280.0,10000.0,99999,3.0,(-826.5206039433276+0j),0.0,11160328021116021180302404000051000600007000083000
2254,LTFH,41.2545013428,36.5671005249,2024-01-29 23:50:00,80.0,36.0,q,green,4.0,1031.0,(1194.6390840777121+0j),3.0,5.0,150.0,10000.0,99999,4.0,0j,0.0,1116041505100402030303104000051000600007800084000
2259,ULOO,57.7839012146,28.3955993652,2024-01-30 00:00:00,,,,,1.0,1027.0,(8663.008982654455+0j),-1.0,4.0,220.0,10000.0,99999,2.0,(7636.008982654455+0j),0.0,1116022204100102110302704000051000600007000082000
2301,EIME,53.301700592,-6.4513301849,2024-01-30 00:00:00,,,,,1.0,1024.0,(15.397860372360695+0j),-1.0,7.0,290.0,10000.0,99999,1.0,(-1006.6021396276393+0j),0.0,1116012907100102110302404000051000600007000081000
2340,LPBJ,38.0788993835,-7.9324002266,2024-01-30 00:00:00,,,,,10.0,1028.0,(3960.619550110604+0j),10.0,4.0,100.0,10000.0,99999,,(2932.619550110604+0j),0.0,11160010041010020100302804000051000600007000080000
2374,EGXC,53.0929985046,-0.1660140008,2024-01-29 23:50:00,,,,,10.0,1018.0,(1106.5374939703254+0j),9.0,9.0,180.0,10000.0,99999,6.0,(87.63749397032541+0j),0.0,1116061809101002090301804000051000600007000086000
2382,ETIH,49.2181015015,11.8360996246,2024-01-29 23:55:00,,,,,-3.2,30.48,(130.43652943381397+0j),-4.6,0.0,0.0,10000.0,99999,,(-901.563470566186+0j),0.0,111600000011037214733044000051000600007000080000
2383,ETIK,49.4738998413,10.3880996704,2024-01-29 23:55:00,,,,,-1.8,30.45,(91.01893693901238+0j),-2.9,0.0,0.0,10000.0,99999,,(-939.9810630609876+0j),0.0,111600000011011212133044000051000600007000080000
2384,ETOU,50.0498008728,8.3254003525,2024-01-29 23:55:00,10.0,36.0,+,yellow,1.5,30.43,(15.098361729368508+0j),0.0,0.0,0.0,8000.0,99999,,(-1015.7016382706314+0j),0.0,111400000010015200533044000051000600007100080000
2386,LIBN,40.239200592,18.1333007813,2024-01-29 23:55:00,,,,,7.0,1033.0,(1932.462059646974+0j),2.0,4.0,10.0,10000.0,99999,,(899.462059646974+0j),0.0,1116000104100702020303304000051000600007000080000
2387,LIBV,40.7677993774,16.9333000183,2024-01-29 23:55:00,,,,,3.0,1033.0,(17.878203651441698+0j),2.0,3.0,320.0,10000.0,99999,6.0,(-1017.2217963485582+0j),0.0,1116063203100302020303304000051000600007000086000
2388,LIED,39.3541984558,8.9724798203,2024-01-29 23:55:00,,,,,5.0,1033.0,(1831.1190703157008+0j),5.0,5.0,50.0,10000.0,99999,,(798.1190703157008+0j),0.0,1116000505100502050303304000051000600007000080000
2389,LIPI,45.9786987305,13.0493001938,2024-01-29 23:55:00,,,,,-0.0,1036.0,(39.617327308383715+0j),-2.0,5.0,330.0,10000.0,99999,,(-996.3826726916163+0j),0.0,1116003305110002120303604000051000600007000080000
2390,LIPS,45.6848983765,12.0829000473,2024-01-29 23:55:00,10.0,36.0,+,yellow,-1.0,1036.0,(-21904179.603492294-22894533.005731665j),-1.0,0.0,0.0,1200.0,99999,,(-21905215.603492294-22894533.005731665j),0.0,1110000000110102110303604000051000600007100080000
2391,LIRE,41.654499054,12.4451999664,2024-01-29 23:55:00,,,,,7.0,1035.0,(1250.76156248754+0j),5.0,5.0,30.0,10000.0,99999,,(215.8615624875399+0j),0.0,1116000305100702050303504000051000600007000080000
2392,LIRS,42.7597007751,11.0719003677,2024-01-29 23:55:00,,,,,3.0,1034.0,(1242.2812440949563+0j),1.0,3.0,50.0,10000.0,99999,,(207.38124409495617+0j),0.0,1116000503100302010303404000051000600007000080000
2393,ETAD,49.9726982117,6.6925001144,2024-01-29 23:55:00,,,,,5.3,30.38,(11.98547377559447+0j),4.6,0.0,0.0,10000.0,99999,,(-1016.0145262244056+0j),0.0,111600000010052204233034000051000600007000080000
2414,LIBA,41.5414009094,15.7180995941,2024-01-29 23:55:00,10.0,36.0,+,yellow,5.0,1035.0,(2607.790301922279+0j),4.0,6.0,280.0,2000.0,99999,1.0,(1572.790301922279+0j),0.0,1111012806100502040303504000051000600007100081000
2420,LICT,37.9113998413,12.4879999161,2024-01-29 23:55:00,,,,,6.0,1033.0,(1184.4691037059365+0j),5.0,4.0,110.0,10000.0,99999,,(151.26910370593646+0j),0.0,1116001104100602050303304000051000600007000080000
2422,LIPL,45.4322013855,10.2677001953,2024-01-29 23:55:00,45.0,36.0,N,yellow,-0.0,1036.0,(39.617327308383715+0j),-1.0,2.0,320.0,0.0,99999,,(-996.9826726916162+0j),0.0,1110003202110002110303604000051000600007450080000
2423,EGUN,52.3619003296,0.4864059985,2024-01-29 23:55:00,,,,,12.0,30.12,(1128.8431618897553+0j),9.0,12.0,170.0,10000.0,99999,4.0,(108.84316188975527+0j),0.0,111604171210120209033014000051000600007000084000
2424,LICZ,37.4016990662,14.9224004745,2024-01-29 23:55:00,,,,,8.0,1033.0,(1405.4474482188555+0j),8.0,8.0,270.0,10000.0,99999,4.0,(373.44744821885547+0j),0.0,1116042708100802080303304000051000600007000084000
2425,LIRM,41.060798645,14.0818996429,2024-01-29 23:55:00,,,,,2.0,1034.0,(1596.4554649694558+0j),1.0,4.0,330.0,10000.0,99999,,(562.4554649694558+0j),0.0,1116003304100202010303404000051000600007000080000
2430,LMML,35.857498,14.4775,2024-01-30 00:15:00,,,,,12.0,1032.0,(2053.0512750110174+0j),5.0,3.0,70.0,10000.0,99999,1.0,(1019.6512750110173+0j),0.0,1116010703101202050303204000051000600007000081000
2434,LATI,41.4146995544,19.7206001282,2024-01-30 00:20:00,,,,,-2.0,1035.0,(2.0664994164553594+0j),-5.0,2.0,,10000.0,99999,,(-1032.9335005835446+0j),0.0,1116003602110202150303504000051000600007000080000
2441,EVGA,56.778301239,24.8539009094,2024-01-30 00:20:00,,,,,-0.0,1028.0,(39.311402000983065+0j),-1.0,7.0,200.0,10000.0,99999,1.0,(-989.6885979990169+0j),0.0,1116012007110002110302804000051000600007000081000
2477,EVVA,57.35779953,21.5442008972,2024-01-30 00:20:00,,,,,3.0,1026.0,(1257.9979484440464+0j),2.0,6.0,210.0,8000.0,99999,,0j,0.0,1114002106100302020302604000051000600007000080000
2487,LSZC,46.9744444444,8.3969444444,2024-01-30 00:20:00,,,,,1.0,1033.0,(30.63205087297382+0j),-1.0,4.0,240.0,10000.0,99999,,(-1001.3679491270261+0j),0.0,1116002404100102110303304000051000600007000080000
2497,EKRS,55.4258003235,11.8066997528,2024-01-30 00:20:00,10.0,36.0,+,yellow,4.0,1026.0,(2189.855675379203+0j),4.0,4.0,230.0,1000.0,99999,4.0,(1163.3556753792031+0j),0.0,1110042304100402040302604000051000600007100084000
2523,LSMA,46.943901062,8.2841701508,2024-01-30 00:20:00,,,,,-0.0,1033.0,(39.50260531810847+0j),-1.0,2.0,,10000.0,99999,,(-992.4973946818915+0j),0.0,1116003602110002110303304000051000600007000080000
2524,LSMD,47.398601532,8.648229599,2024-01-30 00:20:00,10.0,36.0,+,yellow,-2.0,1033.0,(75.93284555228695+0j),-2.0,0.0,0.0,4400.0,99999,,(-956.067154447713+0j),0.0,1112000000110202120303304000051000600007100080000
2525,LSME,47.0923995972,8.3051204681,2024-01-30 00:20:00,10.0,36.0,+,yellow,-1.0,1033.0,(54.122678429754295+0j),-1.0,0.0,0.0,1300.0,99999,1.0,(-977.8773215702457+0j),0.0,1110010000110102110303304000051000600007100081000
2526,LSMP,46.8432006836,6.9150600433,2024-01-30 00:20:00,,,,,-0.0,1033.0,(39.50260531810847+0j),-1.0,0.0,0.0,4100.0,99999,,(-995.5973946818914+0j),0.0,1112000000110002110303304000051000600007000080000
2579,EGCK,53.1041984558,-4.340280056,2024-01-30 00:20:00,,,,,6.0,1020.0,(1025.816119824578+0j),5.0,99999.0,,10000.0,99999,8.0,(8.916119824578004+0j),0.6,1116083699999100602050302004000051000600607000088000
2585,EGHQ,50.4406013489,-4.9954099655,2024-01-30 00:20:00,,,,,7.0,1024.0,(3536.3058478611974+0j),5.0,16.0,300.0,10000.0,99999,8.0,(2515.0058478611973+0j),0.0,1116083016100702050302404000051000600007000088000
2629,ESOH,60.0200996399,13.5789003372,2024-01-30 00:20:00,49.0,36.0,R,red,-1.0,1025.0,(121.58103364410452+0j),-1.0,0.0,0.0,150.0,99999,,(-903.4189663558955+0j),0.0,1110000000110102110302504000051000600007490080000
2637,ESNZ,63.1944007874,14.5003004074,2024-01-30 00:20:00,,,,,0.0,1020.0,(39.00547669358242+0j),-8.0,10.0,200.0,10000.0,99999,,(-978.9945233064176+0j),0.0,1116002010100002180302004000051000600007000080000
2681,EFKT,67.7009963989,24.8467998505,2024-01-30 00:20:00,,,,,0.0,997.0,(38.12594143480556+0j),-5.0,15.0,260.0,10000.0,99999,1.0,(-954.8740585651944+0j),0.0,1116012615100002150399704000051000600007000081000
2683,EFMI,61.6865997314,27.2017993927,2024-01-30 00:20:00,,,,,1.0,1021.0,(15.680304330179224+0j),-2.0,6.0,260.0,10000.0,99999,,(-1003.3196956698208+0j),0.0,1116002606100102120302104000051000600007000080000
2726,EFET,68.3626022339,23.4242992401,2024-01-30 00:20:00,85.0,36.0,v,magenta,-2.0,995.0,(108.522957858275+0j),-4.0,23.0,260.0,6000.0,99999,6.0,0j,0.0,1113062623110202140399504000051000600007850086000
2727,EFHA,61.8559989929,24.7866001129,2024-01-30 00:20:00,,,,,0.0,1022.0,(39.08195802043258+0j),-3.0,5.0,250.0,10000.0,99999,,(-980.9180419795674+0j),0.0,1116002505100002130302204000051000600007000080000
2728,EFJO,62.6628990173,29.6075000763,2024-01-30 00:20:00,,,,,1.0,1017.0,(17.665065863152055+0j),-4.0,5.0,260.0,10000.0,99999,,(-997.3349341368479+0j),0.0,1116002605100102140301704000051000600007000080000
2733,EFKS,65.9876022339,29.2394008636,2024-01-30 00:20:00,85.0,36.0,v,magenta,0.0,1002.0,(38.31714475193097+0j),-3.0,18.0,250.0,10000.0,99999,1.0,(-961.682855248069+0j),0.0,1116012518100002130300204000051000600007850081000
2735,EFLP,61.0446014404,28.1443996429,2024-01-30 00:20:00,,,,,0.0,1022.0,(39.08195802043258+0j),-3.0,8.0,270.0,10000.0,99999,,(-980.9180419795674+0j),0.0,1116002708100002130302204000051000600007000080000
2737,EFSA,61.9430999756,28.9451007843,2024-01-30 00:20:00,,,,,1.0,1020.0,(15.070019245376567+0j),-3.0,8.0,260.0,10000.0,99999,,(-1002.9299807546234+0j),0.0,1116002608100102130302004000051000600007000080000
2738,EFSI,62.6921005249,22.8323001862,2024-01-30 00:20:00,,,,,2.0,1021.0,(8465.008563279767+0j),-5.0,6.0,250.0,10000.0,99999,,0j,0.0,1116002506100202150302104000051000600007000080000
2739,EFUT,60.8964004517,26.9384002686,2024-01-30 00:20:00,,,,,0.0,1023.0,(39.120198683857666+0j),-2.0,6.0,280.0,10000.0,99999,,(-981.8798013161423+0j),0.0,1116002806100002120302304000051000600007000080000
2753,EVLA,56.5175018311,21.0969009399,2024-01-30 00:20:00,,,,,3.0,1027.0,(1221.2723909905355+0j),1.0,9.0,210.0,10000.0,99999,,(193.0723909905355+0j),0.0,1116002109100302010302704000051000600007000080000
2755,EYKA,54.9639015198,24.0848007202,2024-01-30 00:20:00,,,,,0.0,1031.0,(39.42612399125831+0j),-2.0,4.0,190.0,10000.0,99999,,0j,0.0,1116001904100002120303104000051000600007000080000
2756,EYPA,55.9732017517,21.0939006805,2024-01-30 00:20:00,,,,,2.0,1029.0,(1672.9962879335883+0j),1.0,7.0,180.0,6000.0,99999,6.0,(644.3962879335884+0j),0.0,1113061807100202010302904000051000600007000086000
2767,LIMZ,44.547000885,7.6232199669,2024-01-30 00:20:00,,,,,-0.0,1035.0,(39.57908664495863+0j),-1.0,4.0,230.0,10000.0,99999,,0j,0.0,1116002304110002110303504000051000600007000080000
2789,ESNV,64.5791015625,16.8335990906,2024-01-30 00:20:00,,,,,3.0,1015.0,(17.13001158371157+0j),-1.0,11.0,240.0,10000.0,99999,8.0,(-995.8699884162884+0j),0.0,1116082411100302110301504000051000600007000088000
2791,ESST,60.1576004028,12.9912996292,2024-01-30 00:20:00,49.0,36.0,R,red,-3.0,1025.0,(-2512444.474104772-2626039.595123158j),-4.0,0.0,0.0,250.0,99999,,0j,0.0,1110000000110302140302504000051000600007490080000
2792,ESUP,67.2455978394,23.0688991547,2024-01-30 00:20:00,,,,,1.0,1001.0,(20.677576270463387+0j),-4.0,16.0,250.0,6000.0,99999,,(-976.3224237295366+0j),0.0,1113002516100102140300104000051000600007000080000
2793,ESND,62.0477981567,14.4229001999,2024-01-30 00:20:00,,,,,-13.0,1023.0,(-8.690095186286667-9.083000352757765j),-14.0,2.0,90.0,10000.0,99999,,(-1030.6900951862867-9.083000352757765j),0.0,11160009021113021140302304000051000600007000080000
2799,LICB,36.9946010208,14.6071815491,2024-01-30 00:20:00,,,,,9.0,1033.0,(4277.150742633068+0j),6.0,3.0,50.0,10000.0,99999,6.0,(3244.150742633068+0j),0.0,1116060503100902060303304000051000600007000086000
2801,LIPO,45.4289016724,10.3305997849,2024-01-30 00:20:00,49.0,36.0,R,red,-1.0,1036.0,(217.37862498784082+0j),-1.0,2.0,,50.0,99999,,0j,0.0,1110003602110102110303604000051000600007490080000
2835,ESCF,58.4023017883,15.5256996155,2024-01-30 00:20:00,10.0,36.0,+,yellow,4.0,1025.0,(4654.913508639555+0j),3.0,3.0,270.0,2500.0,99999,8.0,(3630.0135086395553+0j),0.0,1111082703100402030302504000051000600007100088000
2837,ESIB,58.426399231,12.7144002914,2024-01-30 00:20:00,45.0,36.0,N,yellow,3.0,1025.0,(3778.7849634920185+0j),2.0,0.0,0.0,200.0,99999,,(2753.2849634920185+0j),0.0,1110000000100302020302504000051000600007450080000
2838,ESMV,57.2921981812,14.1372003555,2024-01-30 00:20:00,,,,,3.0,1025.0,(10.13958490409488+0j),1.0,0.0,0.0,10000.0,99999,8.0,(-1014.8604150959051+0j),0.0,1116080000100302010302504000051000600007000088000
2840,ESPE,65.8752975464,20.1499004364,2024-01-30 00:20:00,,,,,3.0,1008.0,(10.581528439009954+0j),-1.0,13.0,270.0,10000.0,99999,,(-994.41847156099+0j),0.9,1116002713100302110300804000051000600907000080000
2841,ESIA,58.5138015747,14.5071001053,2024-01-30 00:20:00,45.0,36.0,N,yellow,3.0,1025.0,(6016.1042989570615+0j),3.0,1.0,,200.0,99999,,(4990.1042989570615+0j),0.0,1110003601100302030302504000051000600007450080000
2848,EEKE,58.2299003601,22.5095005035,2024-01-30 00:20:00,,,,,1.0,1026.0,(1563.3418769101952+0j),1.0,3.0,180.0,9000.0,99999,4.0,(537.3418769101952+0j),0.0,1115041803100102010302604000051000600007000084000
2849,EETU,58.3074989319,26.6903991699,2024-01-30 00:20:00,,,,,2.0,1027.0,(6388.471397703026+0j),-1.0,7.0,250.0,10000.0,99999,7.0,(5363.471397703026+0j),0.0,1116072507100202110302704000051000600007000087000
2850,EEPU,58.4189987183,24.4727993011,2024-01-30 00:20:00,,,,,1.0,1027.0,(3101.9580259537315+0j),-0.0,7.0,210.0,10000.0,99999,8.0,0j,0.0,1116082107100102100302704000051000600007000088000
2857,EDBC,51.8563995361,11.42029953,2024-01-30 00:20:00,,,,,6.0,1029.0,(5844.957534323523+0j),2.0,9.0,220.0,10000.0,99999,6.0,(4815.957534323523+0j),0.0,1116062209100602020302904000051000600007000086000
2979,EDJA,47.9888000488,10.2395000458,2024-01-30 00:20:00,,,,,-1.0,1031.0,(48.45353230050467+0j),-3.0,3.0,180.0,10000.0,99999,,0j,0.0,1116001803110102130303104000051000600007000080000
2982,EDWE,53.3911094666,7.2274999619,2024-01-30 00:20:00,,,,,5.0,1026.0,(1047.1277812859385+0j),4.0,3.0,160.0,10000.0,99999,3.0,(20.727781285938363+0j),0.0,1116031603100502040302604000051000600007000083000
2990,EDTY,49.1183319092,9.7838888168,2024-01-30 00:20:00,,,,,-0.0,1031.0,(39.42612399125831+0j),-1.0,0.0,0.0,10000.0,99999,3.0,(-992.1738760087416+0j),0.0,1116030000110002110303104000051000600007000083000
2994,EKEB,55.5259017944,8.5534000397,2024-01-30 00:20:00,45.0,36.0,N,yellow,5.0,1025.0,(1790.8370712704987+0j),5.0,5.0,150.0,100.0,99999,,(765.8370712704987+0j),0.0,1110001505100502050302504000051000600007450080000
2996,EKRK,55.5856018066,12.1314001083,2024-01-30 00:20:00,45.0,36.0,N,yellow,3.0,1026.0,(3183.072741379952+0j),3.0,2.0,220.0,650.0,99999,8.0,(2157.072741379952+0j),0.0,1110082202100302030302604000051000600007450088000
2997,EKRN,55.0633010864,14.7595996857,2024-01-30 00:20:00,,,,,3.0,1027.0,(1705.231338581953+0j),2.0,2.0,270.0,10000.0,99999,1.0,(678.231338581953+0j),0.0,1116012702100302020302704000051000600007000081000
2999,EKSP,55.2256011963,9.2639303207,2024-01-30 00:20:00,45.0,36.0,N,yellow,5.0,1026.0,(2187.5440828379274+0j),5.0,3.0,200.0,200.0,99999,,(1161.5440828379274+0j),0.0,1110002003100502050302604000051000600007450080000
3001,EKVJ,55.9901008606,8.3539104462,2024-01-30 00:20:00,,,,,99999.0,1025.0,(99999+0j),99999.0,99999.0,,250.0,99999,,(98974.2+0j),0.0,11100036999991099999020999990302504000051000600007000080000
3009,EETN,59.4132995605,24.8327999115,2024-01-30 00:20:00,,,,,1.0,1026.0,(7498.867908296793+0j),0.0,3.0,250.0,10000.0,99999,1.0,(6473.867908296793+0j),0.0,1116012503100102000302604000051000600007000081000
3010,EFHK,60.317199707,24.963300705,2024-01-30 00:20:00,,,,,-1.0,1025.0,(61833.791089130355+0j),-1.0,4.0,220.0,10000.0,99999,,(60810.791089130355+0j),0.0,1116002204110102110302504000051000600007000080000
3011,EFIV,68.6072998047,27.4053001404,2024-01-30 00:20:00,,,,,1.0,992.0,(19.237474241580834+0j),-6.0,22.0,260.0,10000.0,99999,6.0,(-968.7625257584192+0j),0.0,1116062622100102160399204000051000600007000086000
3012,EFJY,62.3995018005,25.6783008575,2024-01-30 00:20:00,,,,,1.0,1020.0,(19.271187884793164+0j),-4.0,7.0,280.0,10000.0,99999,,(-998.7288121152069+0j),0.0,1116002807100102140302004000051000600007000080000
3013,EFKE,65.7787017822,24.5820999146,2024-01-30 00:20:00,,,,,3.0,1007.0,(1799.329761033256+0j),-1.0,15.0,250.0,10000.0,99999,,(794.3297610332561+0j),0.0,1116002515100302110300704000051000600007000080000
3014,EFKK,63.7211990356,23.1431007385,2024-01-30 00:20:00,,,,,4.0,1017.0,(1846.1929171400297+0j),-4.0,15.0,230.0,10000.0,99999,,(831.1929171400297+0j),0.0,1116002315100402140301704000051000600007000080000
3016,EFMA,60.1222000122,19.8981990814,2024-01-30 00:20:00,,,,,-2.0,1025.0,(746.6933059770192+0j),-2.0,1.0,,9000.0,99999,,(-277.30669402298076+0j),0.0,1115003601110202120302504000051000600007000080000
3017,EFOU,64.9300994873,25.3546009064,2024-01-30 00:20:00,,,,,3.0,1010.0,(1607.4619106463551+0j),-2.0,15.0,260.0,10000.0,99999,,(599.4619106463551+0j),0.0,1116002615100302120301004000051000600007000080000
3018,EFPO,61.4617004395,21.7999992371,2024-01-30 00:20:00,,,,,-2.0,1024.0,(392.20077624313166+0j),-3.0,1.0,,10000.0,99999,,(-630.7992237568683+0j),0.0,1116003601110202130302404000051000600007000080000
3019,EFRO,66.5647964478,25.8304004669,2024-01-30 00:20:00,,,,,1.0,1002.0,(22.454964757021248+0j),-2.0,14.0,250.0,10000.0,99999,6.0,(-977.5450352429788+0j),0.0,1116062514100102120300204000051000600007000086000
3020,EFTP,61.414100647,23.6044006348,2024-01-30 00:20:00,,,,,-1.0,1023.0,(172.24903061370964+0j),-3.0,2.0,,10000.0,99999,,(-849.7509693862903+0j),0.0,1116003602110102130302304000051000600007000080000
3021,EFTU,60.5140991211,22.2628002167,2024-01-30 00:20:00,,,,,-3.0,1025.0,(18.157136980216553+0j),-3.0,1.0,,5000.0,99999,,(-1005.8428630197834+0j),0.0,1113003601110302130302504000051000600007000080000
3022,EFVA,63.0507011414,21.7621994019,2024-01-30 00:20:00,,,,,4.0,1020.0,(1191.1754071273863+0j),-4.0,15.0,240.0,10000.0,99999,,(172.17540712738628+0j),0.0,1116002415100402140302004000051000600007000080000
3024,ENBR,60.2933998108,5.2181401253,2024-01-30 00:20:00,,,,,2.0,1025.0,(5079.391660320697+0j),2.0,0.0,0.0,9000.0,99999,,0j,0.0,1115000000100202020302504000051000600007000080000
3025,ENCN,58.2042007446,8.0853700638,2024-01-30 00:20:00,61.0,36.0,^,green,3.0,1025.0,(1773.5064056187061+0j),-0.0,6.0,30.0,10000.0,99999,3.0,(747.8064056187061+0j),0.0,1116030306100302100302504000051000600007610083000
3027,ENHD,59.3452987671,5.2083601952,2024-01-30 00:20:00,,,,,2.0,1024.0,(2893.2385110384116+0j),1.0,5.0,70.0,10000.0,99999,8.0,(1867.6385110384117+0j),0.0,1116080705100202010302404000051000600007000088000
3030,ENVA,63.4578018188,10.9239997864,2024-01-30 00:20:00,,,,,1.0,1022.0,(3544.07451507356+0j),-6.0,4.0,80.0,10000.0,99999,6.0,(2523.3745150735604+0j),0.0,1116060804100102160302204000051000600007000086000
3031,ENZV,58.876701355,5.6377801895,2024-01-30 00:20:00,,,,,3.0,1024.0,(1384.9522963628376+0j),2.0,2.0,,10000.0,99999,8.0,0j,0.0,1116083602100302020302404000051000600007000088000
3032,EVRA,56.9235992432,23.9710998535,2024-01-30 00:20:00,,,,,-0.0,1028.0,(39.311402000983065+0j),-1.0,5.0,190.0,10000.0,99999,,0j,0.0,1116001905110002110302804000051000600007000080000
3033,EYVI,54.6341018677,25.2858009338,2024-01-30 00:20:00,,,,,-1.0,1032.0,(84.67726715001032+0j),-2.0,11.0,180.0,10000.0,99999,3.0,(-949.6227328499897+0j),0.0,1116031811110102120303204000051000600007000083000
3035,LGAV,37.9364013672,23.9444999695,2024-01-30 00:20:00,,,,,6.0,1030.0,(3331.4935105501163+0j),1.0,18.0,10.0,10000.0,99999,2.0,0j,0.0,1116020118100602010303004000051000600007000082000
3036,LGIR,35.3396987915,25.1802997589,2024-01-30 00:20:00,,,,,10.0,1025.0,(1459.6116011804008+0j),1.0,20.0,360.0,10000.0,99999,3.0,(434.11160118040084+0j),0.0,1116033620101002010302504000051000600007000083000
3039,LGKR,39.6018981934,19.911699295,2024-01-30 00:20:00,,,,,9.0,1032.0,(1055.6240122887486+0j),-1.0,3.0,,10000.0,99999,1.0,(24.024012288748736+0j),0.0,1116013603100902110303204000051000600007000081000
3040,LGRP,36.4053993225,28.0862007141,2024-01-30 00:20:00,,,,,10.0,1019.0,(1078.9252577555555+0j),-2.0,8.0,10.0,10000.0,99999,1.0,(59.02525775555557+0j),0.0,1116010108101002120301904000051000600007000081000
3066,ENAL,62.5625,6.119699955,2024-01-30 00:20:00,,,,,6.0,1023.0,(1456.7635785439513+0j),-1.0,11.0,210.0,10000.0,99999,1.0,(434.2635785439513+0j),0.0,1116012111100602110302304000051000600007000081000
3072,ENDU,69.0558013916,18.5403995514,2024-01-30 00:20:00,85.0,36.0,v,magenta,0.0,997.0,(38.12594143480556+0j),-2.0,17.0,260.0,1000.0,99999,,0j,0.0,1110002617100002120399704000051000600007850080000
3087,ENRO,62.5783996582,11.342300415,2024-01-30 00:20:00,,,,,-12.0,1021.0,(287809.6558411236+0j),-14.0,0.0,0.0,10000.0,99999,,(286788.6558411236+0j),0.0,11160000001112021140302104000051000600007000080000
3089,ENRY,59.3788986206,10.7855997086,2024-01-30 00:20:00,,,,,-1.0,1025.0,(152241.3976211601+0j),-1.0,3.0,50.0,8000.0,99999,8.0,0j,0.0,1114080503110102110302504000051000600007000088000
3095,ENTO,59.1866989136,10.258600235,2024-01-30 00:20:00,,,,,2.0,1025.0,(8099.618130075848+0j),-3.0,3.0,350.0,10000.0,99999,,0j,0.0,1116003503100202130302504000051000600007000080000
3098,ESGG,57.6627998352,12.279800415,2024-01-30 00:20:00,45.0,36.0,N,yellow,2.0,1025.0,(13.024676107154905+0j),2.0,2.0,120.0,200.0,99999,,(-1010.975323892845+0j),0.0,1110001202100202020302504000051000600007450080000
3100,ESGP,57.7747001648,11.8704004288,2024-01-30 00:20:00,45.0,36.0,N,yellow,4.0,1025.0,(1592.9673455913633+0j),3.0,2.0,130.0,250.0,99999,8.0,(567.9673455913633+0j),0.0,1110081302100402030302504000051000600007450088000
3102,ESMK,55.9216995239,14.0854997635,2024-01-30 00:20:00,,,,,-2.0,1026.0,(126.92561710904388+0j),-2.0,3.0,190.0,10000.0,99999,3.0,(-899.0743828909561+0j),0.0,1116031903110202120302604000051000600007000083000
3103,ESMS,55.536305364,13.3761978149,2024-01-30 00:20:00,,,,,2.0,1026.0,(6827.186283314607+0j),1.0,4.0,230.0,10000.0,99999,6.0,(5800.386283314607+0j),0.0,1116062304100202010302604000051000600007000086000
3105,ESNN,62.5280990601,17.4438991547,2024-01-30 00:20:00,,,,,-9.0,1023.0,(961.6730691795296+0j),-9.0,3.0,,10000.0,99999,,(-59.926930820470375+0j),0.0,1116003603110902190302304000051000600007000080000
3106,ESNO,63.4082984924,18.9899997711,2024-01-30 00:20:00,,,,,3.0,1018.0,(6773.952862002213+0j),-7.0,17.0,260.0,10000.0,99999,,(5755.8528620022125+0j),0.0,1116002617100302170301804000051000600007000080000
3108,ESNS,64.6248016357,21.0769004822,2024-01-30 00:20:00,,,,,5.0,1013.0,(2307.2637656334036+0j),-2.0,17.0,250.0,10000.0,99999,,(1296.2637656334036+0j),0.0,1116002517100502120301304000051000600007000080000
3109,ESNU,63.7918014526,20.2828006744,2024-01-30 00:20:00,,,,,4.0,1017.0,(1234.3843748430602+0j),-4.0,11.0,260.0,10000.0,99999,,(219.3843748430602+0j),0.0,1116002611100402140301704000051000600007000080000
3110,ESOK,59.4446983337,13.3374004364,2024-01-30 00:20:00,49.0,36.0,R,red,-1.0,1025.0,(219.8480880814802+0j),-1.0,4.0,40.0,100.0,99999,,(-804.1519119185198+0j),0.0,1110000404110102110302504000051000600007490080000
3111,ESOW,59.5894012451,16.633600235,2024-01-30 00:20:00,45.0,36.0,N,yellow,1.0,1025.0,(1860.715575288624+0j),0.0,0.0,0.0,150.0,99999,8.0,(835.715575288624+0j),0.0,1110080000100102000302504000051000600007450088000
3115,ESSD,60.422000885,15.5151996613,2024-01-30 00:20:00,41.0,36.0,J,yellow,-2.0,1024.0,(830.1608160728988+0j),-3.0,3.0,260.0,550.0,99999,,(-193.8391839271012+0j),0.0,1110002603110202130302404000051000600007410080000
3116,ESSP,58.5862998962,16.2506008148,2024-01-30 00:20:00,,,,,3.0,1025.0,(1426.1138909609244+0j),2.0,2.0,270.0,7000.0,99999,8.0,(400.11389096092444+0j),0.0,1114082702100302020302504000051000600007000088000
3117,ESSV,57.6627998352,18.346200943,2024-01-30 00:20:00,,,,,3.0,1026.0,(3489.2732874933727+0j),1.0,1.0,200.0,10000.0,99999,8.0,(2463.7732874933727+0j),0.0,1116082001100302010302604000051000600007000088000
3118,LSGC,47.0839004517,6.792840004,2024-01-30 00:20:00,,,,,-0.0,1031.0,(39.42612399125831+0j),-3.0,0.0,0.0,10000.0,99999,,(-991.5738760087416+0j),0.0,1116000000110002130303104000051000600007000080000
3119,LSGG,46.2380981445,6.1089501381,2024-01-30 00:20:00,,,,,1.0,1033.0,(30.307010041622025+0j),0.0,1.0,,7000.0,99999,,(-1004.7929899583779+0j),0.0,1114003601100102000303304000051000600007000080000
3120,LSGS,46.2196006775,7.3267598152,2024-01-30 00:20:00,,,,,1.0,1033.0,(31.140366791615996+0j),-1.0,3.0,90.0,10000.0,99999,,(-1003.4596332083839+0j),0.0,1116000903100102110303304000051000600007000080000
3121,LSZA,46.0042991638,8.9105796814,2024-01-30 00:20:00,,,,,0.0,1036.0,(39.617327308383715+0j),-1.0,2.0,10.0,10000.0,99999,,(-996.3826726916163+0j),0.0,1116000102100002110303604000051000600007000080000
3122,LSZB,46.914100647,7.4971499443,2024-01-30 00:20:00,,,,,-1.0,1033.0,(51.206796071308005+0j),-2.0,1.0,,10000.0,99999,,(-980.793203928692+0j),0.0,1116003601110102120303304000051000600007000080000
3123,LSZG,47.1815986633,7.4171900749,2024-01-30 00:20:00,49.0,36.0,R,red,-2.0,1033.0,(78.46147352769042+0j),-2.0,0.0,0.0,200.0,99999,,(-956.3385264723096+0j),0.0,1110000000110202120303304000051000600007490080000
3124,LSZH,47.4646987915,8.5491695404,2024-01-30 00:20:00,49.0,36.0,R,red,-2.0,1033.0,(78.23401883138864+0j),-2.0,1.0,,550.0,99999,,(-957.0659811686113+0j),0.0,1110003601110202120303304000051000600007490080000
3125,LSZL,46.1608009338,8.8786096573,2024-01-30 00:20:00,,,,,-1.0,1036.0,(84.51961515696033+0j),-2.0,0.0,0.0,10000.0,99999,,(-952.7803848430397+0j),0.0,1116000000110102120303604000051000600007000080000
3126,LSZR,47.4850006104,9.5607700348,2024-01-30 00:20:00,45.0,36.0,N,yellow,0.0,1033.0,(39.50260531810847+0j),0.0,3.0,210.0,100.0,99999,,(-992.4973946818915+0j),0.0,1110002103100002000303304000051000600007450080000
3127,LSZS,46.5340995789,9.8841104507,2024-01-30 00:20:00,,,,,-7.0,1034.0,(71.42407386606925+0j),-9.0,3.0,190.0,10000.0,99999,,(-959.6759261339307+0j),0.0,1116001903110702190303404000051000600007000080000
3129,EGBB,52.4538993835,-1.7480299473,2024-01-30 00:20:00,61.0,36.0,^,green,11.0,1018.0,(2240.8579073711385+0j),10.0,5.0,200.0,7000.0,99999,7.0,(1222.1579073711384+0j),0.0,11140720051011020100301804000051000600007610087000
3136,EGKK,51.1481018066,-0.1902779937,2024-01-30 00:20:00,,,,,12.0,1022.0,(1675.7101263429345+0j),10.0,13.0,210.0,10000.0,99999,6.0,(653.7101263429345+0j),0.0,11160621131012020100302204000051000600007000086000
3137,EGLF,51.2757987976,-0.7763329744,2024-01-30 00:20:00,,,,,11.0,1021.0,(1881.3796440959634+0j),9.0,15.0,210.0,10000.0,99999,7.0,(860.3796440959634+0j),0.0,1116072115101102090302104000051000600007000087000
3139,EGMD,50.9561004639,0.9391670227,2024-01-30 00:20:00,,,,,11.0,1023.0,(1064.668243871374+0j),9.0,14.0,200.0,10000.0,99999,6.0,0j,0.0,1116062014101102090302304000051000600007000086000
3140,EGNJ,53.5744018555,-0.3508329988,2024-01-30 00:20:00,,,,,11.0,1018.0,(1429.6474213840963+0j),9.0,12.0,190.0,10000.0,99999,5.0,(411.64742138409633+0j),0.1,1116051912101102090301804000051000600107000085000
3142,EGNX,52.8311004639,-1.3280600309,2024-01-30 00:20:00,58.0,36.0,[,green,11.0,1017.0,(2150.8809845669534+0j),10.0,10.0,190.0,8000.0,99999,4.0,(1132.8809845669534+0j),0.0,11140419101011020100301704000051000600007580084000
3155,EGAC,54.6180992126,-5.8724999428,2024-01-30 00:20:00,,,,,4.0,1023.0,(1157.6192875966483+0j),1.0,8.0,340.0,10000.0,99999,6.0,(135.6192875966483+0j),0.0,1116063408100402010302304000051000600007000086000
3157,EGGW,51.8746986389,-0.3683330119,2024-01-30 00:20:00,,,,,11.0,1020.0,(3121.822355707683+0j),10.0,9.0,190.0,10000.0,99999,8.0,(2101.822355707683+0j),0.0,11160819091011020100302004000051000600007000088000
3160,EGPC,58.4589004517,-3.0930600166,2024-01-30 00:20:00,,,,,1.0,1023.0,(7220.752629967234+0j),-2.0,2.0,190.0,10000.0,99999,,(6196.752629967234+0j),0.0,1116001902100102120302304000051000600007000080000
3161,EGPE,57.5424995422,-4.0475001335,2024-01-30 00:20:00,,,,,-3.0,1024.0,(691.3396696259182+0j),-4.0,4.0,230.0,10000.0,99999,,(-332.6603303740818+0j),0.0,1116002304110302140302404000051000600007000080000
3162,EGPF,55.8718986511,-4.4330601692,2024-01-30 00:20:00,,,,,5.0,1024.0,(1212.6946307118897+0j),2.0,4.0,360.0,10000.0,99999,7.0,(189.69463071188966+0j),0.0,1116073604100502020302404000051000600007000087000
3163,EGPL,57.481098175,-7.3627800941,2024-01-30 00:20:00,,,,,4.0,1023.0,(1194.6788642071726+0j),2.0,9.0,180.0,10000.0,99999,,(171.67886420717264+0j),0.0,1116001809100402020302304000051000600007000080000
3166,EGSS,51.8849983215,0.2349999994,2024-01-30 00:20:00,,,,,11.0,1020.0,(2334.2806888640853+0j),9.0,14.0,190.0,10000.0,99999,7.0,(1313.2806888640853+0j),0.0,1116071914101102090302004000051000600007000087000
3174,EDGS,50.707698822,8.0829696655,2024-01-30 00:20:00,,,,,6.0,1028.0,(15.744305635210273+0j),4.0,10.0,190.0,10000.0,99999,,(-1012.2556943647897+0j),0.0,1116001910100602040302804000051000600007000080000
3175,EDLV,51.6024017334,6.1421699524,2024-01-30 00:20:00,,,,,8.0,1026.0,(1532.3846354597501+0j),5.0,6.0,150.0,10000.0,99999,1.0,0j,0.0,1116011506100802050302604000051000600007000081000
3182,ESGT,58.3180999756,12.345000267,2024-01-30 00:20:00,45.0,36.0,N,yellow,3.0,1025.0,(3028.9953094027746+0j),2.0,3.0,160.0,50.0,99999,,(2003.9953094027746+0j),0.0,1110001603100302020302504000051000600007450080000
3185,ESMT,56.6911010742,12.8201999664,2024-01-30 00:20:00,,,,,4.0,1025.0,(2050.4442421288913+0j),2.0,3.0,180.0,10000.0,99999,8.0,(1024.3442421288914+0j),0.0,1116081803100402020302504000051000600007000088000
3188,ESNL,64.5483016968,18.7161998749,2024-01-30 00:20:00,,,,,3.0,1014.0,(12.170425612420727+0j),-2.0,8.0,260.0,10000.0,99999,,0j,0.0,1116002608100302120301404000051000600007000080000
3189,ESNX,65.5903015137,19.2819004059,2024-01-30 00:20:00,,,,,2.0,1009.0,(22.294187891483514+0j),-1.0,17.0,240.0,10000.0,99999,,0j,0.0,1116002417100202110300904000051000600007000080000
3190,ESOE,59.2237014771,15.0380001068,2024-01-30 00:20:00,41.0,36.0,J,yellow,0.0,1025.0,(39.19668001070782+0j),0.0,2.0,200.0,10000.0,99999,,(-985.8033199892922+0j),0.0,1116002002100002000302504000051000600007410080000
3191,ESSL,58.4062004089,15.6805000305,2024-01-30 00:20:00,,,,,3.0,1025.0,(3623.285690439681+0j),3.0,1.0,,9000.0,99999,8.0,(2598.285690439681+0j),0.0,1115083601100302030302504000051000600007000088000
3192,ESTA,56.2961006165,12.8471002579,2024-01-30 00:20:00,,,,,3.0,1026.0,(1936.3121681307407+0j),2.0,2.0,100.0,10000.0,99999,8.0,(910.3121681307407+0j),0.0,1116081002100302020302604000051000600007000088000
3193,ESTL,56.0828018188,13.2124996185,2024-01-30 00:20:00,,,,,2.0,1026.0,(4289.1696962182705+0j),2.0,3.0,110.0,10000.0,99999,8.0,(3263.1696962182705+0j),0.0,1116081103100202020302604000051000600007000088000
3194,ESUT,65.806098938,15.0827999115,2024-01-30 00:20:00,71.0,36.0,h,magenta,0.0,1010.0,(38.62307005933162+0j),0.0,7.0,300.0,1100.0,99999,,(-971.2769299406683+0j),0.3,1110003007100002000301004000051000600307710080000
3199,ENAT,69.9760971069,23.3717002869,2024-01-30 00:20:00,,,,,1.0,989.0,(1312.2385502016755+0j),-4.0,20.0,260.0,10000.0,99999,3.0,(329.13855020167546+0j),0.0,1116032620100102140398904000051000600007000083000
3200,ENBL,61.3911018372,5.756939888,2024-01-30 00:20:00,,,,,1.0,1024.0,(27.640840663211353+0j),-1.0,0.0,0.0,10000.0,99999,6.0,(-996.3591593367886+0j),0.0,1116060000100102110302404000051000600007000086000
3201,ENBN,65.4610977173,12.217499733,2024-01-30 00:20:00,80.0,36.0,q,green,6.0,1014.0,(1162.6831279359337+0j),3.0,18.0,240.0,10000.0,99999,3.0,0j,0.0,1116032418100602030301404000051000600007800083000
3202,ENNA,70.0688018799,24.9734992981,2024-01-30 00:20:00,,,,,1.0,988.0,(1965.5180811151968+0j),-5.0,16.0,250.0,10000.0,99999,2.0,(982.5180811151968+0j),0.2,1116022516100102150398804000051000600207000082000
3203,ENNM,64.4721984863,11.5785999298,2024-01-30 00:20:00,61.0,36.0,^,green,5.0,1019.0,(1068.2447557993587+0j),2.0,14.0,220.0,10000.0,99999,8.0,(51.2447557993587+0j),0.5,1116082214100502020301904000051000600507610088000
3204,ENRA,66.363899231,14.3014001846,2024-01-30 00:20:00,,,,,3.0,1011.0,(4556.505531202932+0j),1.0,4.0,290.0,10000.0,99999,4.0,0j,0.0,1116042904100302010301104000051000600007000084000
3205,ENRM,64.8383026123,11.1461000443,2024-01-30 00:20:00,,,,,6.0,1016.0,(1098.3762325983053+0j),4.0,22.0,230.0,10000.0,99999,,(83.37623259830525+0j),0.0,1116002322100602040301604000051000600007000080000
3206,ENSK,68.5788269043,15.033416748,2024-01-30 00:20:00,71.0,36.0,h,magenta,1.0,1002.0,(1407.1775208515369+0j),-1.0,28.0,300.0,10000.0,99999,3.0,(409.1775208515369+0j),0.4,1116033028100102110300204000051000600407710083000
3207,LGKL,37.0682983398,22.0254993439,2024-01-30 00:20:00,,,,,8.0,1029.0,(1145.9513091138251+0j),-3.0,10.0,10.0,10000.0,99999,1.0,(115.95130911382512+0j),0.0,1116010110100802130302904000051000600007000081000
3208,LIBR,40.6576004028,17.9470005035,2024-01-30 00:20:00,,,,,10.0,1034.0,(1205.6405543468993+0j),6.0,15.0,50.0,10000.0,99999,,(171.34055434689935+0j),0.0,1116000515101002060303404000051000600007000080000
3209,LIPE,44.5354003906,11.2887001038,2024-01-30 00:20:00,49.0,36.0,R,red,-2.0,1037.0,(3.2530058865532117+0j),-2.0,1.0,,50.0,99999,,(-1033.7469941134468+0j),0.0,1110003601110202120303704000051000600007490080000
3210,LIPH,45.648399353,12.1943998337,2024-01-30 00:20:00,10.0,36.0,+,yellow,-0.0,1036.0,(39.617327308383715+0j),-1.0,2.0,290.0,1100.0,99999,,(-997.3826726916163+0j),0.0,1110002902110002110303604000051000600007100080000
3211,LIPQ,45.8274993896,13.4722003937,2024-01-30 00:20:00,,,,,-1.0,1036.0,(116.98545405223177+0j),-1.0,4.0,10.0,9000.0,99999,,(-919.9145459477684+0j),0.0,1115000104110102110303604000051000600007000080000
3213,LOWK,46.6425018311,14.3376998901,2024-01-30 00:20:00,,,,,-5.0,1038.0,(395.91772789628055+0j),-7.0,2.0,,10000.0,99999,,(-644.9822721037195+0j),0.0,1116003602110502170303804000051000600007000080000
3214,LOWW,48.1102981567,16.5697002411,2024-01-30 00:20:00,,,,,2.0,1036.0,(14.92361600650276+0j),-1.0,12.0,150.0,10000.0,99999,,(-1022.4763839934973+0j),0.0,1116001512100202110303604000051000600007000080000
3217,EGAA,54.6575012207,-6.2158298492,2024-01-30 00:20:00,,,,,0.0,1023.0,(39.120198683857666+0j),-2.0,1.0,,10000.0,99999,,(-983.8798013161423+0j),0.0,1116003601100002120302304000051000600007000080000
3218,EGCC,53.3536987305,-2.2749500275,2024-01-30 00:20:00,61.0,36.0,^,green,11.0,1016.0,(1948.2601994253987+0j),10.0,4.0,170.0,10000.0,99999,6.0,(931.2601994253987+0j),0.1,11160617041011020100301604000051000600107610086000
3225,EGNT,55.0374984741,-1.6916699409,2024-01-30 00:20:00,51.0,36.0,T,green,5.0,1018.0,(3387.3618275695294+0j),5.0,14.0,40.0,4000.0,99999,6.0,(2368.3618275695294+0j),0.9,1112060414100502050301804000051000600907510086000
3230,EGTE,50.7344017029,-3.4138898849,2024-01-30 00:20:00,,,,,9.0,1022.0,(1448.6364391785992+0j),7.0,10.0,280.0,10000.0,99999,6.0,(430.6364391785992+0j),0.0,1116062810100902070302204000051000600007000086000
3231,ENKR,69.7257995605,29.8913002014,2024-01-30 00:20:00,,,,,0.0,985.0,(37.66705347370459+0j),-5.0,27.0,260.0,10000.0,99999,,0j,0.0,1116002627100002150398504000051000600007000080000
3232,ENMH,71.0297012329,27.8267002106,2024-01-30 00:20:00,66.0,36.0,c,red,2.0,978.0,(1712.8630198274477+0j),-2.0,43.0,270.0,7000.0,99999,4.0,(738.8630198274477+0j),0.0,1114042743100202120397804000051000600007660084000
3233,LGKO,36.7933006287,27.0916996002,2024-01-30 00:20:00,,,,,6.0,1021.0,(4198.340619990666+0j),-0.0,17.0,360.0,10000.0,99999,3.0,(3177.340619990666+0j),0.0,1116033617100602100302104000051000600007000083000
3236,LIPR,44.0203018188,12.611700058,2024-01-30 00:20:00,10.0,36.0,+,yellow,-3.0,1037.0,(613.9810825699192+0j),-3.0,1.0,,5000.0,99999,,(-423.0189174300808+0j),0.0,1113003601110302130303704000051000600007100080000
3237,LOWS,47.7933006287,13.0043001175,2024-01-30 00:20:00,,,,,-3.0,1032.0,(123.86256799875929+0j),-5.0,5.0,320.0,10000.0,99999,,(-911.2374320012407+0j),0.0,1116003205110302150303204000051000600007000080000
3254,ESDF,56.2667007446,15.2650003433,2024-01-30 00:20:00,,,,,-3.0,1026.0,(1.645260764079404+0j),-3.0,2.0,30.0,10000.0,99999,1.0,(-1024.8547392359205+0j),0.0,1116010302110302130302604000051000600007000081000
3255,ESGJ,57.757598877,14.0686998367,2024-01-30 00:20:00,10.0,36.0,+,yellow,2.0,1025.0,(17.02319483228799+0j),2.0,0.0,0.0,5000.0,99999,6.0,(-1008.2768051677119+0j),0.0,1113060000100202020302504000051000600007100086000
3256,ESKN,58.7886009216,16.9122009277,2024-01-30 00:20:00,10.0,36.0,+,yellow,2.0,1025.0,(4284.989218931508+0j),2.0,3.0,260.0,2400.0,99999,6.0,(3259.289218931508+0j),0.0,1111062603100202020302504000051000600007100086000
3257,ESMQ,56.6855010986,16.2875995636,2024-01-30 00:20:00,,,,,3.0,1026.0,(1232.6697837924808+0j),1.0,1.0,170.0,10000.0,99999,8.0,(206.66978379248076+0j),0.0,1116081701100302010302604000051000600007000088000
3258,ESMX,56.9291000366,14.7279996872,2024-01-30 00:20:00,,,,,2.0,1025.0,(14.93859762849255+0j),1.0,2.0,160.0,10000.0,99999,6.0,(-1010.0614023715075+0j),0.0,1116061602100202010302504000051000600007000086000
3259,ESNG,67.1324005127,20.8145999908,2024-01-30 00:20:00,,,,,-3.0,1002.0,(231.62065741114017+0j),-4.0,8.0,250.0,10000.0,99999,,(-766.3793425888598+0j),0.1,1116002508110302140300204000051000600107000080000
3260,ESNK,63.0485992432,17.7688999176,2024-01-30 00:20:00,,,,,-4.0,1021.0,(743.7793808805235+0j),-8.0,4.0,270.0,10000.0,99999,,(-276.2206191194765+0j),0.0,1116002704110402180302104000051000600007000080000
3261,ESNQ,67.8219985962,20.3367996216,2024-01-30 00:20:00,,,,,-2.0,998.0,(71.94413580181349+0j),-6.0,22.0,260.0,10000.0,99999,,(-925.3558641981865+0j),0.0,1116002622110202160399804000051000600007000080000
3262,ESSB,59.3544006348,17.9416999817,2024-01-30 00:20:00,10.0,36.0,+,yellow,1.0,1025.0,(3095.9172118817673+0j),0.0,0.0,0.0,1800.0,99999,4.0,(2071.1172118817676+0j),0.0,1111040000100102000302504000051000600007100084000
3265,EDDC,51.1328010559,13.76720047,2024-01-30 00:20:00,,,,,3.0,1031.0,(13.048205796915271+0j),-2.0,14.0,150.0,10000.0,99999,,(-1018.6517942030848+0j),0.0,1116001514100302120303104000051000600007000080000
3266,EDDE,50.979801178,10.9581003189,2024-01-30 00:20:00,,,,,4.0,1030.0,(13.323044981260114+0j),-0.0,9.0,190.0,10000.0,99999,,(-1017.7769550187398+0j),0.0,1116001909100402100303004000051000600007000080000
3267,EDDF,50.0264015198,8.543129921,2024-01-30 00:20:00,10.0,36.0,+,yellow,-0.0,1030.0,(39.38788332783323+0j),-1.0,0.0,0.0,10000.0,99999,,(-992.1121166721667+0j),0.0,1116000000110002110303004000051000600007100080000
3268,EDDG,52.134601593,7.6848301888,2024-01-30 00:20:00,,,,,5.0,1027.0,(2367.4812735100436+0j),4.0,3.0,140.0,10000.0,99999,,(1339.6812735100436+0j),0.0,1116001403100502040302704000051000600007000080000
3269,EDDH,53.6304016113,9.9882297516,2024-01-30 00:20:00,,,,,4.0,1027.0,(1533.8781877360268+0j),2.0,3.0,150.0,10000.0,99999,,(506.17818773602676+0j),0.0,1116001503100402020302704000051000600007000080000
3270,EDDK,50.8658981323,7.1427397728,2024-01-30 00:20:00,,,,,7.0,1028.0,(2911.6501023774226+0j),4.0,5.0,120.0,10000.0,99999,,(1882.2501023774225+0j),0.0,1116001205100702040302804000051000600007000080000
3271,EDDL,51.2895011902,6.7667798996,2024-01-30 00:20:00,,,,,9.0,1027.0,(1662.6783351191384+0j),5.0,12.0,150.0,10000.0,99999,,(634.5783351191385+0j),0.0,1116001512100902050302704000051000600007000080000
3272,EDDM,48.3538017273,11.7861003876,2024-01-30 00:20:00,10.0,36.0,+,yellow,-2.0,1032.0,(75.18977122807689+0j),-2.0,1.0,,10000.0,99999,,(-955.8102287719231+0j),0.0,1116003601110202120303204000051000600007100080000
3273,EDDN,49.4986991882,11.0669002533,2024-01-30 00:20:00,,,,,-2.0,1031.0,(106.64114857231708+0j),-4.0,6.0,130.0,10000.0,99999,,(-927.1588514276829+0j),0.0,1116001306110202140303104000051000600007000080000
3274,EDDP,51.4323997498,12.2416000366,2024-01-30 00:20:00,,,,,3.0,1030.0,(8737.691291788282+0j),-1.0,6.0,190.0,10000.0,99999,,(7707.291291788282+0j),0.0,1116001906100302110303004000051000600007000080000
3276,EDDS,48.6898994446,9.2219600677,2024-01-30 00:20:00,,,,,1.0,1030.0,(29.45157923589046+0j),-2.0,1.0,,10000.0,99999,,(-1003.0484207641096+0j),0.0,1116003601100102120303004000051000600007000080000
3277,EDDV,52.461101532,9.6850795746,2024-01-30 00:20:00,,,,,6.0,1028.0,(2299.068054380602+0j),2.0,4.0,160.0,10000.0,99999,,(1270.468054380602+0j),0.0,1116001604100602020302804000051000600007000080000
3278,EDDW,53.0475006104,8.7866697311,2024-01-30 00:20:00,,,,,3.0,1027.0,(1196.2315286831458+0j),1.0,2.0,140.0,10000.0,99999,,(168.43152868314587+0j),0.0,1116001402100302010302704000051000600007000080000
3294,EDAH,53.8787002563,14.152299881,2024-01-30 00:20:00,,,,,2.0,1028.0,(3079.774926170068+0j),-1.0,2.0,,10000.0,99999,6.0,(2051.774926170068+0j),0.0,1116063602100202110302804000051000600007000086000
3295,EDDB,52.362167,13.500667,2024-01-30 00:20:00,,,,,1.0,1030.0,(8786.973906707984+0j),-3.0,3.0,160.0,10000.0,99999,,(7757.073906707985+0j),0.0,1116001603100102130303004000051000600007000080000
3296,EDDR,49.2145996094,7.1095099449,2024-01-30 00:20:00,,,,,7.0,1030.0,(8546.725903550276+0j),3.0,3.0,210.0,10000.0,99999,,(7515.625903550275+0j),0.0,1116002103100702030303004000051000600007000080000
3298,EDHI,53.5352783203,9.8355560303,2024-01-30 00:20:00,,,,,3.0,1027.0,(1310.5416765045925+0j),2.0,2.0,60.0,10000.0,99999,6.0,(283.5416765045925+0j),0.0,1116060602100302020302704000051000600007000086000
3300,EDLN,51.2302780151,6.5044441223,2024-01-30 00:20:00,,,,,7.0,1027.0,(1727.6684171742666+0j),5.0,5.0,150.0,10000.0,99999,8.0,(700.6684171742666+0j),0.0,1116081505100702050302704000051000600007000088000
3303,EDMA,48.42527771,10.9316673279,2024-01-30 00:20:00,,,,,-2.0,1032.0,(74.10142672964356+0j),-3.0,2.0,120.0,10000.0,99999,,(-960.4985732703564+0j),0.0,1116001202110202130303204000051000600007000080000
3305,EDNY,47.6712989807,9.5114898682,2024-01-30 00:20:00,,,,,-1.0,1033.0,(54.57417225045466+0j),-1.0,2.0,,400.0,99999,,(-977.4258277495453+0j),0.0,1110003602110102110303304000051000600007000080000
3309,EDVE,52.3191986084,10.5560998917,2024-01-30 00:20:00,,,,,4.0,1028.0,(4496.034341555269+0j),2.0,2.0,,10000.0,99999,,(3466.934341555269+0j),0.0,1116003602100402020302804000051000600007000080000
3314,EKBI,55.7402992249,9.1517801285,2024-01-30 00:20:00,45.0,36.0,N,yellow,5.0,1025.0,(3217.0886700083483+0j),5.0,3.0,210.0,150.0,99999,,(2191.288670008348+0j),0.0,1110002103100502050302504000051000600007450080000
3315,EKSB,54.9644012451,9.7917299271,2024-01-30 00:20:00,45.0,36.0,N,yellow,6.0,1026.0,(1170.261228527973+0j),6.0,3.0,190.0,200.0,99999,,(143.96122852797293+0j),0.0,1110001903100602060302604000051000600007450080000
3316,EKVD,55.4362983704,9.3309202194,2024-01-30 00:20:00,,,,,5.0,1026.0,(2206.056565423534+0j),5.0,5.0,210.0,10000.0,99999,,(1180.0565654235338+0j),0.0,1116002105100502050302604000051000600007000080000
3323,ENBV,70.8713989258,29.0342006683,2024-01-30 00:20:00,,,,,2.0,976.0,(1771.7642941284848+0j),-3.0,46.0,270.0,10000.0,99999,,(797.7642941284848+0j),0.0,1116002746100202130397604000051000600007000080000
3324,ENEV,68.4913024902,16.6781005859,2024-01-30 00:20:00,61.0,36.0,^,green,3.0,1001.0,(2125.2271978340254+0j),-5.0,17.0,290.0,10000.0,99999,3.0,0j,0.0,1116032917100302150300104000051000600007610083000
3325,ENFL,61.5835990906,5.024720192,2024-01-30 00:20:00,,,,,4.0,1025.0,(1369.8445162146459+0j),2.0,9.0,140.0,10000.0,99999,1.0,(345.24451621464596+0j),0.0,1116011409100402020302504000051000600007000081000
3326,ENHK,70.4867019653,22.1396999359,2024-01-30 00:20:00,71.0,36.0,h,magenta,2.0,987.0,(1366.8259474409517+0j),-3.0,34.0,280.0,10000.0,99999,1.0,(385.8259474409517+0j),0.0,1116012834100202130398704000051000600007710081000
3327,ENHV,71.0096969604,25.9836006165,2024-01-30 00:20:00,,,,,99999.0,980.0,(99999+0j),99999.0,45.0,270.0,10000.0,99999,3.0,(99024+0j),0.0,11160327451099999020999990398004000051000600007000083000
3328,ENML,62.7447013855,7.2624998093,2024-01-30 00:20:00,,,,,4.0,1022.0,(1110.8853819623503+0j),-3.0,8.0,240.0,10000.0,99999,,(88.88538196235027+0j),0.0,1116002408100402130302204000051000600007000080000
3329,ENMS,65.783996582,13.2149000168,2024-01-30 00:20:00,61.0,36.0,^,green,5.0,1012.0,(3076.529536926303+0j),2.0,7.0,250.0,10000.0,99999,4.0,0j,0.0,1116042507100502020301204000051000600007610084000
3332,LGSA,35.5317001343,24.1497001648,2024-01-30 00:20:00,61.0,36.0,^,green,7.0,1026.0,(4289.1696962182705+0j),4.0,10.0,360.0,10000.0,99999,3.0,(3261.3696962182703+0j),1.0,1116033610100702040302604000051000601007610083000
3333,LGTS,40.5196990967,22.9708995819,2024-01-30 00:20:00,,,,,7.0,1036.0,(1149.7807545706105+0j),-4.0,6.0,360.0,10000.0,99999,1.0,(113.8807545706104+0j),0.0,1116013606100702140303604000051000600007000081000
3334,LIBD,41.1389007568,16.7605991364,2024-01-30 00:20:00,,,,,6.0,1034.0,(2265.4001327144056+0j),2.0,6.0,260.0,10000.0,99999,,(1230.5001327144055+0j),0.0,1116002606100602020303404000051000600007000080000
3337,LICC,37.4668006897,15.0663995743,2024-01-30 00:20:00,,,,,5.0,1033.0,(1323.4044781453974+0j),2.0,4.0,230.0,10000.0,99999,1.0,(289.90447814539743+0j),0.0,1116012304100502020303304000051000600007000081000
3338,LICJ,38.1759986877,13.0909996033,2024-01-30 00:20:00,,,,,9.0,1033.0,(1300.9020946099324+0j),3.0,2.0,,10000.0,99999,,(267.9020946099324+0j),0.0,1116003602100902030303304000051000600007000080000
3339,LIPX,45.3956985474,10.8885002136,2024-01-30 00:20:00,49.0,36.0,R,red,-3.0,1036.0,(-0.0008122061838146339-0.0008489284519854277j),-4.0,2.0,230.0,100.0,99999,,(-1036.0008122061838-0.0008489284519854277j),0.0,1110002302110302140303604000051000600007490080000
3341,LOWI,47.2602005005,11.3439998627,2024-01-30 00:20:00,,,,,-2.0,1033.0,(64.03888185896916+0j),-4.0,2.0,340.0,10000.0,99999,,(-973.2611181410308+0j),0.0,1116003402110202140303304000051000600007000080000
3363,ENOV,62.1800003052,6.0741000175,2024-01-30 00:20:00,,,,,1.0,1024.0,(12.615074316356543+0j),-2.0,0.0,0.0,10000.0,99999,1.0,0j,0.0,1116010000100102120302404000051000600007000081000
3364,ENSD,61.8300018311,6.1058301926,2024-01-30 00:20:00,,,,,3.0,1024.0,(4035.8244363496065+0j),-1.0,2.0,,10000.0,99999,,0j,0.0,1116003602100302110302404000051000600007000080000
3365,ENSR,69.7867965698,20.959400177,2024-01-30 00:20:00,71.0,36.0,h,magenta,2.0,991.0,(1277.103443848702+0j),-5.0,15.0,270.0,10000.0,99999,3.0,(290.103443848702+0j),0.3,1116032715100202150399104000051000600307710083000
3366,LIEA,40.6320991516,8.290769577,2024-01-30 00:20:00,42.0,36.0,K,yellow,4.0,1034.0,(1910.3990646430343+0j),4.0,3.0,30.0,10000.0,99999,,(876.3990646430343+0j),0.0,1116000303100402040303404000051000600007420080000
3367,LIEE,39.251499176,9.0542802811,2024-01-30 00:20:00,,,,,5.0,1034.0,(1127.5917105373499+0j),4.0,4.0,10.0,10000.0,99999,,(93.59171053734985+0j),0.0,1116000104100502040303404000051000600007000080000
3368,LIEO,40.8987007141,9.5176296234,2024-01-30 00:20:00,,,,,2.0,1035.0,(1769.0146729808118+0j),2.0,1.0,,6000.0,99999,,(734.1146729808117+0j),0.0,1113003601100202020303504000051000600007000080000
3369,LIMC,45.6305999756,8.7281103134,2024-01-30 00:20:00,10.0,36.0,+,yellow,-3.0,1036.0,(757.6542924653472+0j),-5.0,5.0,360.0,5000.0,99999,,(-278.3457075346528+0j),0.0,1113003605110302150303604000051000600007100080000
3370,LIMF,45.2008018494,7.6496300697,2024-01-30 00:20:00,,,,,1.0,1036.0,(27.466116186649316+0j),-2.0,3.0,310.0,10000.0,99999,,(-1007.8338838133507+0j),0.0,1116003103100102120303604000051000600007000080000
3371,LIML,45.445098877,9.2767400742,2024-01-30 00:20:00,49.0,36.0,R,red,-0.0,1037.0,(39.65556797180879+0j),-0.0,1.0,,50.0,99999,,(-996.9444320281912+0j),0.0,1110003601110002100303704000051000600007490080000
3372,LIRA,41.7994003296,12.5949001312,2024-01-30 00:20:00,,,,,5.0,1034.0,(5145.422395055413+0j),2.0,4.0,60.0,10000.0,99999,,(4111.422395055413+0j),0.0,1116000604100502020303404000051000600007000080000
3373,LIRF,41.8045005798,12.2508001328,2024-01-30 00:20:00,,,,,3.0,1035.0,(1218.1413075764228+0j),3.0,3.0,90.0,9000.0,99999,,(184.14130757642283+0j),0.0,1115000903100302030303504000051000600007000080000
3374,LIRP,43.6838989258,10.3927001953,2024-01-30 00:15:00,,,,,3.0,1035.0,(1106.7597804763138+0j),2.0,4.0,110.0,10000.0,99999,,(70.95978047631388+0j),0.0,1116001104100302020303504000051000600007000080000
3375,LIRQ,43.8100013733,11.2051000595,2024-01-30 00:20:00,,,,,1.0,1035.0,(8127.9340042880685+0j),-1.0,3.0,80.0,10000.0,99999,,(7092.9340042880685+0j),0.0,1116000803100102110303504000051000600007000080000
3386,ENBS,70.6005020142,29.691400528,2024-01-30 00:20:00,71.0,36.0,h,magenta,-1.0,99999.0,(99999+0j),-3.0,49.0,250.0,6000.0,99999,4.0,(99025+0j),0.0,1113042549110102130399904000051000600007710084000
3387,ENHF,70.6797027588,23.6686000824,2024-01-30 00:20:00,,,,,2.0,984.0,(7289.959420869357+0j),-6.0,28.0,250.0,10000.0,99999,1.0,0j,0.0,1116012528100202160398404000051000600007000081000
3388,ENKB,63.1118011475,7.8245201111,2024-01-30 00:20:00,,,,,7.0,1021.0,(2220.3787199334274+0j),-4.0,14.0,220.0,10000.0,99999,,0j,0.0,1116002214100702140302104000051000600007000080000
3389,ENRS,67.5278015137,12.1033000946,2024-01-30 00:20:00,,,,,5.0,1007.0,(1055.6648371834683+0j),-2.0,25.0,260.0,10000.0,99999,4.0,0j,0.0,1116042625100502120300704000051000600007000084000
3390,ENVD,70.0652999878,29.8446998596,2024-01-30 00:20:00,,,,,1.0,983.0,(6987.791107964504+0j),-4.0,37.0,270.0,10000.0,99999,,0j,0.0,1116002737100102140398304000051000600007000080000
3391,LGAD,37.9207000732,21.2926006317,2024-01-30 00:20:00,,,,,2.0,1031.0,(2165.7597276744877+0j),-3.0,0.0,0.0,10000.0,99999,1.0,(1134.2597276744877+0j),0.0,1116010000100202130303104000051000600007000081000
3392,LIPZ,45.5052986145,12.3519001007,2024-01-30 00:20:00,41.0,36.0,J,yellow,-0.0,1037.0,(39.65556797180879+0j),-1.0,2.0,270.0,1200.0,99999,,(-996.8444320281912+0j),0.0,1110002702110002110303704000051000600007410080000
3393,LOWG,46.9911003113,15.4395999908,2024-01-30 00:20:00,,,,,-5.0,1037.0,(2021.1883748824787+0j),-6.0,2.0,250.0,10000.0,99999,,(981.2883748824786+0j),0.0,1116002502110502160303704000051000600007000080000
3394,LOWL,48.2332000732,14.1875,2024-01-30 00:20:00,,,,,-2.0,1034.0,(117.16050852735259+0j),-2.0,2.0,,7000.0,99999,,(-918.8394914726474+0j),0.0,1114003602110202120303404000051000600007000080000
3401,EDFH,49.9486999512,7.2638897896,2024-01-30 00:20:00,,,,,3.0,1029.0,(21.40775487334397+0j),3.0,6.0,180.0,10000.0,99999,,(-1009.4922451266561+0j),0.0,1116001806100302030302904000051000600007000080000
3402,EDHK,54.3794441223,10.145277977,2024-01-30 00:20:00,,,,,7.0,1027.0,(1588.6246298812534+0j),5.0,4.0,200.0,6000.0,99999,8.0,(561.6246298812534+0j),0.0,1113082004100702050302704000051000600007000088000
3404,EDLP,51.6141014099,8.6163196564,2024-01-30 00:20:00,,,,,10.0,1028.0,(4292.246750035824+0j),5.0,10.0,180.0,10000.0,99999,,(3264.2467500358243+0j),0.0,1116001810101002050302804000051000600007000080000
3405,EDLW,51.5182991028,7.6122398377,2024-01-30 00:20:00,,,,,8.0,1027.0,(3413.4623998112243+0j),5.0,9.0,180.0,10000.0,99999,3.0,(2386.4623998112243+0j),0.0,1116031809100802050302704000051000600007000083000
3406,EDMO,48.081401825,11.2831001282,2024-01-30 00:20:00,,,,,-1.0,1031.0,(49.16799532241415+0j),-3.0,3.0,200.0,10000.0,99999,,(-981.8320046775858+0j),0.0,1116002003110102130303104000051000600007000080000
3407,EDQM,50.2886123657,11.8563890457,2024-01-30 00:20:00,,,,,-0.0,1031.0,(39.42612399125831+0j),-3.0,2.0,,10000.0,99999,6.0,(-994.1738760087416+0j),0.0,1116063602110002130303104000051000600007000086000
3409,EDTL,48.3693008423,7.8277201653,2024-01-30 00:20:00,,,,,2.0,1031.0,(13.199285751318778+0j),0.0,1.0,170.0,10000.0,99999,,(-1018.5007142486812+0j),0.0,1116001701100202000303104000051000600007000080000
3410,EDVK,51.4083328247,9.3774995804,2024-01-30 00:20:00,,,,,4.0,1028.0,(12.01661711188893+0j),1.0,6.0,160.0,10000.0,99999,,(-1016.9833828881111+0j),0.0,1116001606100402010302804000051000600007000080000
3411,EDXW,54.9132003784,8.340470314,2024-01-30 00:20:00,,,,,5.0,1025.0,(1407.4831578492858+0j),5.0,6.0,170.0,3500.0,99999,5.0,(382.4831578492858+0j),0.0,1112051706100502050302504000051000600007000085000
3418,ESKM,60.957901001,14.5114002228,2024-01-30 00:20:00,,,,,-4.0,1024.0,(135297980.38969305+0j),-4.0,0.0,0.0,9000.0,99999,3.0,(135296956.38969305+0j),0.0,1115030000110402140302404000051000600007000083000
3419,ESPA,65.543800354,22.1219997406,2024-01-30 00:20:00,,,,,5.0,1009.0,(1496.895336086109+0j),-1.0,13.0,270.0,10000.0,99999,,(491.29533608610893+0j),0.0,1116002713100502110300904000051000600007000080000
3422,EGPD,57.2019004822,-2.1977798939,2024-01-30 00:20:00,,,,,-1.0,1023.0,(2830.091609576139+0j),-2.0,1.0,330.0,10000.0,99999,1.0,(1805.591609576139+0j),0.0,1116013301110102120302304000051000600007000081000
3424,EGPK,55.5093994141,-4.5866699219,2024-01-30 00:20:00,,,,,5.0,1023.0,(1517.6649443172344+0j),3.0,6.0,360.0,10000.0,99999,3.0,(495.66494431723436+0j),0.0,1116033606100502030302304000051000600007000083000
3425,EGPO,58.2155990601,-6.3311100006,2024-01-30 00:20:00,,,,,5.0,1022.0,(1210.3260865112804+0j),3.0,9.0,200.0,10000.0,99999,,(187.42608651128046+0j),0.0,1116002009100502030302204000051000600007000080000
3426,EGPU,56.4991989136,-6.8691701889,2024-01-30 00:20:00,,,,,2.0,1024.0,(1771.776155466883+0j),-1.0,4.0,190.0,10000.0,99999,1.0,(747.476155466883+0j),0.0,1116011904100202110302404000051000600007000081000
3427,EKAH,56.2999992371,10.6190004349,2024-01-30 00:20:00,10.0,36.0,+,yellow,6.0,1025.0,(1548.0451556497928+0j),5.0,1.0,200.0,1900.0,99999,8.0,(523.0451556497928+0j),0.0,1111082001100602050302504000051000600007100088000
3430,ENAN,69.2925033569,16.1441993713,2024-01-30 00:20:00,71.0,36.0,h,magenta,2.0,998.0,(1833.1376014454497+0j),-3.0,32.0,270.0,10000.0,99999,6.0,0j,0.0,1116062732100202130399804000051000600007710086000
3431,ENBO,67.269203186,14.3653001785,2024-01-30 00:20:00,,,,,5.0,1007.0,(1313.0301535158965+0j),-1.0,27.0,260.0,10000.0,99999,6.0,(310.1301535158965+0j),0.0,1116062627100502110300704000051000600007000086000
3432,ENGM,60.193901062,11.100399971,2024-01-30 00:20:00,,,,,-4.0,1024.0,(364929.80514383374+0j),-5.0,3.0,10.0,10000.0,99999,,0j,0.0,1116000103110402150302404000051000600007000080000
3433,ENOL,63.6988983154,9.6040000916,2024-01-30 00:20:00,,,,,6.0,1020.0,(1188.0780518566785+0j),0.0,17.0,240.0,10000.0,99999,3.0,(169.1780518566785+0j),0.0,1116032417100602000302004000051000600007000083000
3434,ENSH,68.2433013916,14.6691999435,2024-01-30 00:20:00,71.0,36.0,h,magenta,3.0,1004.0,(1332.1410560186878+0j),-3.0,12.0,270.0,10000.0,99999,1.0,(331.8410560186878+0j),0.0,1116012712100302130300404000051000600007710081000
3435,ENTC,69.6832962036,18.9188995361,2024-01-30 00:20:00,85.0,36.0,v,magenta,1.0,995.0,(2248.0179346314294+0j),-3.0,32.0,270.0,5000.0,99999,,(1258.7179346314294+0j),0.0,1113002732100102130399504000051000600007850080000
3437,EBAW,51.1893997192,4.4602799416,2024-01-30 00:20:00,,,,,10.0,1026.0,(1166.5587530897228+0j),6.0,5.0,170.0,10000.0,99999,,(139.85875308972277+0j),0.0,1116001705101002060302604000051000600007000080000
3438,EBBR,50.9014015198,4.4844398499,2024-01-30 00:20:00,,,,,11.0,1026.0,(1677.761932418838+0j),6.0,10.0,200.0,10000.0,99999,,(651.7619324188379+0j),0.0,1116002010101102060302604000051000600007000080000
3439,EBCI,50.4592018127,4.4538202286,2024-01-30 00:20:00,,,,,10.0,1027.0,(3841.7645636402985+0j),5.0,10.0,210.0,10000.0,99999,,(2814.7645636402985+0j),0.0,1116002110101002050302704000051000600007000080000
3440,EBLG,50.6374015808,5.4432201385,2024-01-30 00:20:00,,,,,9.0,1027.0,(4463.711758503311+0j),4.0,8.0,170.0,10000.0,99999,,(3435.911758503311+0j),0.0,1116001708100902040302704000051000600007000080000
3441,EBOS,51.1988983154,2.8622200489,2024-01-30 00:20:00,,,,,9.0,1025.0,(1076.1234829364953+0j),7.0,9.0,180.0,10000.0,99999,,(50.523482936495384+0j),0.0,1116001809100902070302504000051000600007000080000
3448,ELLX,49.6265983582,6.211520195,2024-01-30 00:20:00,,,,,5.0,1029.0,(12.829388600977934+0j),5.0,3.0,150.0,10000.0,99999,,(-1017.3706113990221+0j),0.0,1116001503100502050302904000051000600007000080000
3464,LIBP,42.4317016602,14.1810998917,2024-01-30 00:20:00,,,,,-0.0,1037.0,(39.65556797180879+0j),-0.0,4.0,220.0,10000.0,99999,,(-997.2444320281913+0j),0.0,1116002204110002100303704000051000600007000080000
3465,LICA,38.9053993225,16.2423000336,2024-01-30 00:20:00,,,,,2.0,1034.0,(1810.9410659525367+0j),-0.0,8.0,80.0,10000.0,99999,,(776.9410659525367+0j),0.0,1116000808100202100303404000051000600007000080000
3466,LICR,38.0712013245,15.651599884,2024-01-30 00:20:00,,,,,9.0,1033.0,(1437.2445359635462+0j),3.0,4.0,50.0,10000.0,99999,6.0,(402.9445359635463+0j),0.0,1116060504100902030303304000051000600007000086000
3467,LIPY,43.6162986755,13.3622999191,2024-01-30 00:20:00,10.0,36.0,+,yellow,-1.0,1037.0,(37.81534837002694+0j),-1.0,4.0,210.0,5000.0,99999,,(-997.2846516299729+0j),0.0,1113002104110102110303704000051000600007100080000
3469,LICD,35.4978981018,12.6181001663,2024-01-30 00:20:00,,,,,15.0,1032.0,(1202.055440702051+0j),9.0,4.0,150.0,10000.0,99999,3.0,(168.9554407020512+0j),0.0,1116031504101502090303204000051000600007000083000
3470,LIRZ,43.0959014893,12.5131998062,2024-01-30 00:20:00,,,,,-2.0,1035.0,(227.92405988967093+0j),-4.0,4.0,10.0,10000.0,99999,,(-807.075940110329+0j),0.0,1116000104110202140303504000051000600007000080000
3476,EHLE,52.4603004456,5.5272197723,2024-01-30 00:25:00,,,,,6.0,1025.0,(950.3327872617582+0j),5.0,7.0,180.0,10000.0,99999,,(-74.6672127382418+0j),0.0,1116001807100602050302504000051000600007000080000
3493,EHDL,52.0606002808,5.8730602264,2024-01-30 00:25:00,,,,,8.0,1026.0,(1807.8094353684112+0j),6.0,6.0,160.0,10000.0,99999,7.0,(781.8094353684112+0j),0.0,1116071606100802060302604000051000600007000087000
3495,EHGR,51.567401886,4.9318299294,2024-01-30 00:25:00,,,,,7.0,1026.0,(1283.5307296763572+0j),6.0,5.0,180.0,10000.0,99999,8.0,(257.53072967635717+0j),0.0,1116081805100702060302604000051000600007000088000
3498,EHVK,51.6563987732,5.7086100578,2024-01-30 00:25:00,,,,,8.0,1026.0,(1361.331397883639+0j),6.0,5.0,180.0,10000.0,99999,8.0,(334.5313978836391+0j),0.0,1116081805100802060302604000051000600007000088000
3499,EHWO,51.4491004944,4.3420300484,2024-01-30 00:25:00,,,,,11.0,1025.0,(1233.7601537820892+0j),7.0,6.0,180.0,10000.0,99999,8.0,(208.76015378208922+0j),0.0,1116081806101102070302504000051000600007000088000
3500,LSMM,46.7433013916,8.1099996567,2024-01-30 00:20:00,,,,,-2.0,1033.0,(64.24399482819305+0j),-2.0,3.0,100.0,10000.0,99999,1.0,(-967.7560051718069+0j),0.0,1116011003110202120303304000051000600007000081000
3505,ENSG,61.1561012268,7.1377801895,2024-01-30 00:20:00,,,,,-3.0,1024.0,(1024+0j),-4.0,0.0,0.0,10000.0,99999,,(-0.40000000000009095+0j),0.0,1116000000110302140302404000051000600007000080000
3506,ENSS,70.3554000854,31.0449008942,2024-01-30 00:20:00,,,,,-1.0,980.0,(82.46601471260362+0j),-4.0,39.0,250.0,10000.0,99999,1.0,(-894.5339852873964+0j),0.0,1116012539110102140398004000051000600007000081000
3519,LIMJ,44.4132995605,8.8374996185,2024-01-30 00:20:00,,,,,10.0,1035.0,(1081.412039912104+0j),-3.0,3.0,10.0,10000.0,99999,,(46.512039912104+0j),0.0,1116000103101002130303504000051000600007000080000
3549,EFKI,64.2854995728,27.6923999786,2024-01-30 00:20:00,,,,,2.0,1011.0,(12.395305919246383+0j),-4.0,18.0,250.0,10000.0,99999,,(-997.6046940807536+0j),0.0,1116002518100202140301104000051000600007000080000
3550,EFKU,63.0070991516,27.7978000641,2024-01-30 00:20:00,,,,,1.0,1016.0,(15.408914326137868+0j),-4.0,15.0,260.0,10000.0,99999,,(-1000.8910856738621+0j),0.0,1116002615100102140301604000051000600007000080000
3614,EYSA,55.893901825,23.3950004578,2024-01-30 00:20:00,,,,,0.0,1029.0,(39.349642664408144+0j),-1.0,11.0,200.0,10000.0,99999,,0j,0.0,1116002011100002110302904000051000600007000080000
3628,EGFF,51.3967018127,-3.3433299065,2024-01-30 00:20:00,,,,,8.0,1019.0,(2140.552048981865+0j),8.0,16.0,280.0,10000.0,99999,8.0,(1123.552048981865+0j),0.0,1116082816100802080301904000051000600007000088000
3629,EGGD,51.3827018738,-2.7190899849,2024-01-30 00:20:00,,,,,9.0,1019.0,(4213.368753035133+0j),8.0,9.0,210.0,10000.0,99999,8.0,(3195.3687530351326+0j),0.0,1116082109100902080301904000051000600007000088000
3630,EGGP,53.3335990906,-2.8497200012,2024-01-30 00:20:00,,,,,7.0,1017.0,(1445.3593902526184+0j),7.0,12.0,290.0,10000.0,99999,8.0,0j,0.0,1116082912100702070301704000051000600007000088000
3631,EGJJ,49.207901001,-2.1955099106,2024-01-30 00:20:00,,,,,9.0,1025.0,(2305.372029118625+0j),9.0,18.0,260.0,10000.0,99999,4.0,(1281.7720291186251+0j),0.0,1116042618100902090302504000051000600007000084000
3632,EGLC,51.5052986145,0.0552779995,2024-01-30 00:20:00,,,,,12.0,1021.0,(1076.8758594134745+0j),9.0,10.0,200.0,10000.0,99999,8.0,(54.87585941347447+0j),0.0,1116082010101202090302104000051000600007000088000
3633,EGLL,51.4706001282,-0.4619410038,2024-01-30 00:20:00,,,,,12.0,1021.0,(1274.0886134761095+0j),10.0,14.0,200.0,10000.0,99999,7.0,(252.58861347610946+0j),0.0,11160720141012020100302104000051000600007000087000
3634,EGPA,58.9578018188,-2.9049999714,2024-01-30 00:20:00,,,,,2.0,1023.0,(2035.1467580777796+0j),0.0,7.0,200.0,10000.0,99999,,(1012.1467580777796+0j),0.0,1116002007100202000302304000051000600007000080000
3635,EGPB,59.8788986206,-1.2955600023,2024-01-30 00:20:00,,,,,6.0,1023.0,(1142.3192981129027+0j),2.0,8.0,220.0,10000.0,99999,,(119.31929811290274+0j),0.0,1116002208100602020302304000051000600007000080000
3636,EGPH,55.9500007629,-3.3724999428,2024-01-30 00:20:00,61.0,36.0,^,green,5.0,1022.0,(2123.967346848689+0j),3.0,6.0,30.0,10000.0,99999,7.0,(1101.0673468486889+0j),0.0,1116070306100502030302204000051000600007610087000
3637,EGSH,52.6758003235,1.2827800512,2024-01-30 00:20:00,,,,,10.0,1021.0,(1461.9666258225618+0j),8.0,7.0,180.0,10000.0,99999,4.0,(440.9666258225618+0j),0.0,1116041807101002080302104000051000600007000084000
3640,ESSA,59.6519012451,17.9186000824,2024-01-30 00:20:00,10.0,36.0,+,yellow,-2.0,1024.0,(0.20218796338435568+0j),-2.0,0.0,0.0,4000.0,99999,,(-1023.7978120366156+0j),0.0,1112000000110202120302404000051000600007100080000
3650,EDAC,50.9819450378,12.5063886642,2024-01-30 00:20:00,,,,,2.0,1030.0,(15.521496025904296+0j),-3.0,4.0,170.0,10000.0,99999,,(-1014.4785039740957+0j),0.0,1116001704100202130303004000051000600007000080000
3651,EDFM,49.4730567932,8.514166832,2024-01-30 00:20:00,,,,,1.0,1031.0,(15.129676453840121+0j),-0.0,2.0,,10000.0,99999,6.0,(-1015.8703235461599+0j),0.0,1116063602100102100303104000051000600007000086000
3652,EDHL,53.8054008484,10.7192001343,2024-01-30 00:20:00,,,,,1.0,1027.0,(3407.05294786135+0j),-0.0,2.0,,10000.0,99999,3.0,(2379.2529478613496+0j),0.0,1116033602100102100302704000051000600007000083000
3653,EDSB,48.7793998718,8.0804996491,2024-01-30 00:20:00,,,,,-0.0,1031.0,(39.42612399125831+0j),-0.0,1.0,250.0,800.0,99999,1.0,(-991.5738760087416+0j),0.0,1110012501110002100303104000051000600007000081000
3654,ETHB,52.2784996033,9.0821695328,2024-01-30 00:20:00,,,,,7.0,1027.0,(2408.1127622905237+0j),3.0,13.0,180.0,10000.0,99999,4.0,(1380.0127622905238+0j),0.0,1116041813100702030302704000051000600007000084000
3656,ETHF,51.1146,9.286,2024-01-30 00:20:00,,,,,-1.0,1029.0,(54.678318478796385+0j),-2.0,1.0,350.0,10000.0,99999,6.0,(-976.3216815212036+0j),0.0,1116063501110102120302904000051000600007000086000
3658,ETHS,52.9193992615,10.1975002289,2024-01-30 00:20:00,,,,,-0.0,1027.0,(39.27316133755799+0j),-1.0,0.0,0.0,10000.0,99999,6.0,(-989.1268386624421+0j),0.0,1116060000110002110302704000051000600007000086000
3659,ETMN,53.7677001953,8.6584997177,2024-01-30 00:20:00,,,,,7.0,1026.0,(1417.9788971316793+0j),4.0,6.0,200.0,10000.0,99999,4.0,(391.1788971316794+0j),0.0,1116042006100702040302604000051000600007000084000
3660,ETNL,53.9182014465,12.2783002853,2024-01-30 00:20:00,,,,,3.0,1027.0,(3051.6410589290263+0j),-0.0,5.0,200.0,10000.0,99999,6.0,(2023.7410589290262+0j),0.0,1116062005100302100302704000051000600007000086000
3661,ETNN,50.831199646,6.6581702232,2024-01-30 00:20:00,,,,,6.0,1027.0,(3960.2579641190796+0j),4.0,3.0,130.0,10000.0,99999,6.0,(2931.8579641190795+0j),0.0,1116061303100602040302704000051000600007000086000
3662,ETNW,52.4572982788,9.4271697998,2024-01-30 00:20:00,,,,,4.0,1027.0,(3089.3634488430876+0j),2.0,6.0,170.0,10000.0,99999,3.0,(2061.063448843088+0j),0.0,1116031706100402020302704000051000600007000083000
3663,ETSH,51.7677993774,13.1676998138,2024-01-30 00:20:00,,,,,2.0,1030.0,(7605.11765721125+0j),-2.0,5.0,160.0,10000.0,99999,4.0,(6574.81765721125+0j),0.0,1116041605100202120303004000051000600007000084000
3665,ETSN,48.7109985352,11.2115001678,2024-01-30 00:20:00,42.0,36.0,K,yellow,-3.0,1032.0,(152.39789086229777+0j),-3.0,2.0,40.0,7000.0,99999,1.0,(-882.3021091377022+0j),0.0,1114010402110302130303204000051000600007420081000
3667,LIRN,40.8860015869,14.2908000946,2024-01-30 00:20:00,,,,,7.0,1034.0,(2871.5402984843613+0j),-2.0,6.0,340.0,10000.0,99999,,(1837.5402984843613+0j),0.0,1116003406100702120303404000051000600007000080000
3690,LTCS,37.4456634521,38.8955917358,2024-01-30 00:20:00,,,,,1.0,1022.0,(33.86642804850194+0j),1.0,8.0,70.0,10000.0,99999,7.0,(-988.1335719514981+0j),0.0,1116070708100102010302204000051000600007000087000
3694,LTFM,41.275333,28.752,2024-01-30 00:20:00,80.0,36.0,q,green,4.0,1033.0,(4918.376461620195+0j),2.0,20.0,40.0,10000.0,99999,3.0,0j,0.0,1116030420100402020303304000051000600007800083000
3715,LTAZ,38.771900177,34.5345001221,2024-01-30 00:20:00,,,,,-2.0,1023.0,(51.86193410843729+0j),-7.0,5.0,70.0,10000.0,99999,,0j,0.0,1116000705110202170302304000051000600007000080000
3716,LTBR,40.2551994324,29.5625991821,2024-01-30 00:20:00,,,,,-1.0,1030.0,(73.52702422226596+0j),-1.0,2.0,110.0,6000.0,99999,6.0,(-958.1729757777341+0j),0.0,1113061102110102110303004000051000600007000086000
3718,LTFC,37.8554000854,30.3684005737,2024-01-30 00:20:00,,,,,1.0,1020.0,(34.00922152510262+0j),-6.0,9.0,40.0,10000.0,99999,4.0,(-986.9907784748974+0j),0.0,1116040409100102160302004000051000600007000084000
3719,LTFJ,40.898601532,29.3092002869,2024-01-30 00:20:00,80.0,36.0,q,green,2.0,1031.0,(8795.504949335857+0j),1.0,8.0,50.0,10000.0,99999,4.0,(7764.5049493358565+0j),0.0,1116040508100202010303104000051000600007800084000
3721,EHAM,52.3086013794,4.7638897896,2024-01-30 00:25:00,,,,,7.0,1025.0,(970.6005702826594+0j),7.0,8.0,160.0,10000.0,99999,,(-54.99942971734049+0j),0.0,1116001608100702070302504000051000600007000080000
3722,EHBK,50.9117012024,5.7701401711,2024-01-30 00:25:00,,,,,9.0,1027.0,(2835.6044056883757+0j),5.0,11.0,190.0,10000.0,99999,,(1807.9044056883756+0j),0.0,1116001911100902050302704000051000600007000080000
3724,EHGG,53.1197013855,6.5794401169,2024-01-30 00:25:00,,,,,5.0,1025.0,(1146.9997064486406+0j),4.0,4.0,170.0,10000.0,99999,,(120.79970644864056+0j),0.0,1116001704100502040302504000051000600007000080000
3726,EHRD,51.9569015503,4.4372200966,2024-01-30 00:25:00,,,,,9.0,1025.0,(967.3451327549548+0j),7.0,9.0,180.0,10000.0,99999,,(-58.15486724504524+0j),0.0,1116001809100902070302504000051000600007000080000
3727,ETHC,52.5912017822,10.0221004486,2024-01-30 00:20:00,,,,,3.0,1028.0,(2904.540223972155+0j),1.0,2.0,120.0,10000.0,99999,4.0,(1875.8402239721552+0j),0.0,1116041202100302010302804000051000600007000084000
3728,ETHL,48.2202987671,9.9100198746,2024-01-30 00:20:00,,,,,-1.0,1031.0,(50.3734812443589+0j),-2.0,2.0,230.0,10000.0,99999,6.0,(-984.0265187556412+0j),0.0,1116062302110102120303104000051000600007000086000
3730,ETSL,48.1855010986,10.8612003326,2024-01-30 00:20:00,,,,,-4.0,1031.0,(130.12651077204637+0j),-5.0,3.0,180.0,10000.0,99999,6.0,(-904.5734892279537+0j),0.0,1116061803110402150303104000051000600007000086000
3741,LFCK,43.5563011169,2.2891800404,2024-01-30 00:30:00,,,,,12.0,1031.0,(4080.984004271013+0j),7.0,21.0,120.0,10000.0,99999,,0j,0.0,1116001221101202070303104000051000600007000080000
3742,LFLP,45.9291992188,6.098760128,2024-01-30 00:30:00,,,,,1.0,1033.0,(30.851910170660325+0j),-0.0,3.0,,10000.0,99999,,(-1002.1480898293397+0j),0.0,1116003603100102100303304000051000600007000080000
3746,LFQA,49.2086982727,4.1565799713,2024-01-30 00:30:00,,,,,6.0,1028.0,(3367.6511850628294+0j),5.0,7.0,80.0,10000.0,99999,,(2338.7511850628293+0j),0.0,1116000807100602050302804000051000600007000080000
3749,EPBY,53.0968017578,17.9776992798,2024-01-30 00:30:00,,,,,0.0,1030.0,(39.38788332783323+0j),-2.0,4.0,180.0,10000.0,99999,,0j,0.0,1116001804100002120303004000051000600007000080000
3753,EPRA,51.388833,21.211667,2024-01-30 00:30:00,,,,,0.0,1034.0,(39.54084598153355+0j),-1.0,9.0,170.0,10000.0,99999,,(-995.4591540184665+0j),0.0,1116001709100002110303404000051000600007000080000
3755,EPSY,53.481944,20.937778,2024-01-30 00:30:00,,,,,-2.0,1031.0,(1446.3092831323652+0j),-3.0,5.0,190.0,7000.0,99999,,(414.3092831323652+0j),0.0,1114001905110202130303104000051000600007000080000
3773,LHPR,47.6244010925,17.8136005402,2024-01-30 00:15:00,,,,,-2.0,1039.0,(3336.032639087807+0j),-3.0,8.0,110.0,10000.0,99999,,(2297.032639087807+0j),0.0,1116001108110202130303904000051000600007000080000
3774,LHSM,46.6864013672,17.1590995789,2024-01-30 00:15:00,,,,,-2.0,1039.0,(5269.076984133034+0j),-2.0,2.0,,6000.0,99999,,0j,0.0,1113003602110202120303904000051000600007000080000
3781,LFJR,47.5602989197,-0.3122220039,2024-01-30 00:30:00,,,,,10.0,1028.0,(1796.0785456254366+0j),8.0,3.0,190.0,10000.0,99999,,(768.1785456254365+0j),0.0,1116001903101002080302804000051000600007000080000
3835,LTAG,37.0021018982,35.4258995056,2024-01-30 00:20:00,,,,,9.0,1019.0,(2092.4627523056565+0j),-4.0,10.0,350.0,10000.0,99999,4.0,(1071.8627523056566+0j),0.0,1116043510100902140301904000051000600007000084000
3846,LTCE,39.9565010071,41.1702003479,2024-01-30 00:20:00,49.0,36.0,R,red,-18.0,1024.0,(288.89416446140774+0j),-20.0,2.0,,400.0,99999,,(-735.1058355385923+0j),0.0,11100036021118021200302404000051000600007490080000
3850,LTAC,40.1281013489,32.995098114,2024-01-30 00:20:00,,,,,-4.0,1025.0,(71.993785054221+0j),-7.0,13.0,50.0,10000.0,99999,1.0,(-958.4062149457791+0j),0.0,1116010513110402170302504000051000600007000081000
3851,LTAF,36.9822006226,35.2803993225,2024-01-30 00:20:00,,,,,11.0,1020.0,(1234.5938737108029+0j),-4.0,13.0,30.0,10000.0,99999,4.0,(213.39387371080284+0j),0.0,1116040313101102140302004000051000600007000084000
3852,LTAI,36.8987007141,30.8005008698,2024-01-30 00:20:00,,,,,9.0,1019.0,(1791.8712815748622+0j),-5.0,10.0,310.0,10000.0,99999,3.0,(770.6712815748622+0j),0.0,1116033110100902150301904000051000600007000083000
3853,LTAJ,36.9472007751,37.4786987305,2024-01-30 00:20:00,61.0,36.0,^,green,3.0,1021.0,(24.742384716195133+0j),2.0,10.0,50.0,10000.0,99999,5.0,(-996.0576152838048+0j),0.0,1116050510100302020302104000051000600007610085000
3854,LTAP,40.8293991089,35.5219993591,2024-01-30 00:20:00,,,,,-0.0,1028.0,(39.311402000983065+0j),-3.0,4.0,300.0,10000.0,99999,6.0,(-988.6885979990169+0j),0.0,1116063004110002130302804000051000600007000086000
3855,LTAT,38.4352989197,38.0909996033,2024-01-30 00:20:00,,,,,-6.0,1024.0,(122.50500323179074+0j),-8.0,0.0,0.0,10000.0,99999,3.0,(-905.1949967682093+0j),0.0,1116030000110602180302404000051000600007000083000
3856,LTAU,38.770401001,35.4953994751,2024-01-30 00:20:00,,,,,-4.0,1022.0,(67.02423249438993+0j),-8.0,9.0,90.0,10000.0,99999,,(-955.9757675056101+0j),0.0,1116000909110402180302204000051000600007000080000
3857,LTBA,40.9768981934,28.8145999908,2024-01-30 00:20:00,80.0,36.0,q,green,4.0,1032.0,(2803.9362075371964+0j),2.0,8.0,50.0,10000.0,99999,4.0,(1771.4362075371964+0j),0.0,1116040508100402020303204000051000600007800084000
3859,LTBS,36.7131004333,28.7924995422,2024-01-30 00:20:00,,,,,9.0,1019.0,(1097.6237166396434+0j),-3.0,10.0,360.0,10000.0,99999,3.0,(77.52371663964334+0j),0.0,1116033610100902130301904000051000600007000083000
3860,LTBU,41.1381988525,27.9190998077,2024-01-30 00:20:00,,,,,1.0,1032.0,(21.93747921977514+0j),1.0,13.0,20.0,8000.0,99999,4.0,(-1011.8625207802248+0j),0.1,1114040213100102010303204000051000600107000084000
3861,LTCC,37.893901825,40.2010002136,2024-01-30 00:20:00,,,,,3.0,1023.0,(24.513380220055854+0j),-1.0,3.0,360.0,10000.0,99999,2.0,(-1001.8866197799442+0j),0.0,1116023603100302110302304000051000600007000082000
3862,LTCG,40.995098114,39.7896995544,2024-01-30 00:20:00,,,,,5.0,1030.0,(1860.9666155757016+0j),-5.0,11.0,210.0,10000.0,99999,3.0,(830.6666155757016+0j),0.0,1116032111100502150303004000051000600007000083000
3863,LTCJ,37.9290008545,41.1166000366,2024-01-30 00:20:00,10.0,36.0,+,yellow,0.0,1024.0,(39.158439347282744+0j),0.0,2.0,350.0,5000.0,99999,2.0,(-984.8415606527172+0j),0.0,1113023502100002000302404000051000600007100082000
3864,LTFE,37.2505989075,27.6643009186,2024-01-30 00:20:00,,,,,7.0,1022.0,(1129.035126563455+0j),-5.0,12.0,30.0,10000.0,99999,,0j,0.0,1116000312100702150302204000051000600007000080000
3874,EHLW,53.2285995483,5.7605600357,2024-01-30 00:26:00,10.0,36.0,+,yellow,6.0,1024.0,(1041.5594072805006+0j),5.0,8.0,180.0,7000.0,99999,6.0,(16.059407280500636+0j),0.0,1114061808100602050302404000051000600007100086000
3875,EGVA,51.6822013855,-1.7900300026,2024-01-30 00:28:00,51.0,36.0,T,green,10.0,30.06,(2214.786184970921+0j),8.0,13.0,220.0,10000.0,99999,8.0,(1196.786184970921+0j),0.0,111608221310100208033004000051000600007510088000
3879,LYBT,44.935299,20.2575,2024-01-30 00:30:00,,,,,-3.0,1040.0,(-2.811749672184735-2.9388772754321812j),-3.0,2.0,,3000.0,99999,,(-1042.8117496721848-2.9388772754321812j),0.0,1111003602110302130304004000051000600007000080000
3880,LYKV,43.818298,20.5872,2024-01-30 00:30:00,,,,,-4.0,1040.0,(270179.90214450925+0j),-4.0,2.0,320.0,10000.0,99999,1.0,(269139.90214450925+0j),0.0,1116013202110402140304004000051000600007000081000
3884,LYVR,45.1469,21.3099,2024-01-30 00:30:00,,,,,-3.0,1041.0,(-16.484803508847342-17.23013072656389j),-3.0,3.0,160.0,10000.0,99999,,(-1056.4848035088473-17.23013072656389j),0.0,1116001603110302130304104000051000600007000080000
3904,LHPA,47.3636016846,17.5007991791,2024-01-30 00:15:00,,,,,-0.0,1039.0,(39.73204929865895+0j),-2.0,4.0,150.0,10000.0,99999,,(-998.2679507013411+0j),0.0,1116001504110002120303904000051000600007000080000
3917,LFLN,46.4124984741,4.0132598877,2024-01-30 00:30:00,,,,,4.0,1030.0,(10.81247449621057+0j),3.0,3.0,70.0,9000.0,99999,,(-1020.1875255037894+0j),0.0,1115000703100402030303004000051000600007000080000
3953,EGXV,53.8758010864,-0.4350000024,2024-01-30 00:20:00,,,,,10.0,1017.0,(1145.3444429186486+0j),9.0,4.0,180.0,5000.0,99999,8.0,(127.34444291864861+0j),0.3,1113081804101002090301704000051000600307000088000
3960,EGUB,51.6164016724,-1.0958299637,2024-01-30 00:20:00,,,,,12.0,1019.0,(1755.962644904999+0j),9.0,18.0,190.0,10000.0,99999,4.0,(736.962644904999+0j),0.0,1116041918101202090301904000051000600007000084000
3961,EGVN,51.75,-1.5836199522,2024-01-30 00:20:00,,,,,11.0,1019.0,(2080.5485256968345+0j),9.0,9.0,210.0,10000.0,99999,6.0,(1061.5485256968345+0j),0.0,1116062109101102090301904000051000600007000086000
3963,EHEH,51.4500999451,5.3745298386,2024-01-30 00:25:00,,,,,8.0,1026.0,(1371.1809498890016+0j),5.0,5.0,170.0,10000.0,99999,8.0,(344.3809498890016+0j),0.0,1116081705100802050302604000051000600007000088000
3964,EHKD,52.9234008789,4.7806200981,2024-01-30 00:25:00,,,,,7.0,1024.0,(1039.0431030705633+0j),6.0,6.0,170.0,10000.0,99999,8.0,(14.243103070563393+0j),0.0,1116081706100702060302404000051000600007000088000
3995,LFPM,48.6046981812,2.6711199284,2024-01-30 00:30:00,,,,,8.0,1028.0,(2646.014219535742+0j),7.0,3.0,170.0,10000.0,99999,,(1618.014219535742+0j),0.0,1116001703100802070302804000051000600007000080000
4051,LFRL,48.2817001343,-4.4450201988,2024-01-30 00:30:00,,,,,7.0,1027.0,(2802.6766972990117+0j),6.0,5.0,280.0,10000.0,99999,2.0,(1777.6766972990117+0j),0.0,1116022805100702060302704000051000600007000082000
4083,EPLL,51.7219009399,19.3980998993,2024-01-30 00:30:00,,,,,2.0,1033.0,(14.950578564748618+0j),-3.0,3.0,160.0,10000.0,99999,,(-1019.7494214352514+0j),0.0,1116001603100202130303304000051000600007000080000
4084,EPWR,51.1026992798,16.885799408,2024-01-30 00:30:00,,,,,-2.0,1032.0,(5963.336391250862+0j),-4.0,2.0,,10000.0,99999,,(4930.036391250862+0j),0.0,1116003602110202140303204000051000600007000080000
4085,LFBE,44.8252983093,0.5186110139,2024-01-30 00:30:00,,,,,8.0,1030.0,(1886.3768271800952+0j),7.0,2.0,70.0,10000.0,99999,,(857.3768271800952+0j),0.0,1116000702100802070303004000051000600007000080000
4087,LFCR,44.4079017639,2.4826700687,2024-01-30 00:30:00,,,,,8.0,1031.0,(12.528472889334703+0j),6.0,10.0,110.0,10000.0,99999,,(-1018.4715271106653+0j),0.0,1116001110100802060303104000051000600007000080000
4088,LFJL,48.9821014404,6.2513198853,2024-01-30 00:30:00,,,,,6.0,1030.0,(8239.787080519583+0j),4.0,11.0,150.0,10000.0,99999,,(7210.7870805195835+0j),0.0,1116001511100602040303004000051000600007000080000
4089,LFMK,43.2159996033,2.306319952,2024-01-30 00:30:00,,,,,12.0,1031.0,(2572.6381762548717+0j),11.0,14.0,80.0,10000.0,99999,7.0,(1541.6381762548717+0j),0.0,11160708141012020110303104000051000600007000087000
4091,LFMU,43.3235015869,3.3538999557,2024-01-30 00:30:00,,,,,12.0,1033.0,(1203.220223105832+0j),11.0,7.0,100.0,10000.0,99999,8.0,(169.52022310583197+0j),0.0,11160810071012020110303304000051000600007000088000
4092,LFOK,48.7761001587,4.1844902039,2024-01-30 00:30:00,,,,,7.0,1028.0,(5033.386499127581+0j),5.0,7.0,170.0,10000.0,99999,,0j,0.0,1116001707100702050302804000051000600007000080000
4093,LHDC,47.488899231,21.6152992249,2024-01-30 00:15:00,,,,,-3.0,1040.0,(-89066.81697883783-93093.79387632273j),-4.0,2.0,80.0,8000.0,99999,,(-90107.71697883782-93093.79387632273j),0.0,1114000802110302140304004000051000600007000080000
4094,LHKE,46.9174995422,19.7492008209,2024-01-30 00:15:00,10.0,36.0,+,yellow,-5.0,1040.0,(7.51928727673155e-05+0j),-6.0,0.0,0.0,5000.0,99999,,(-1039.9999248071272+0j),0.0,1113000000110502160304004000051000600007100080000
4095,LHPP,45.9908981323,18.2409992218,2024-01-30 00:15:00,,,,,0.0,1039.0,(39.73204929865895+0j),-1.0,3.0,50.0,10000.0,99999,,(-1001.067950701341+0j),0.0,1116000503100002110303904000051000600007000080000
4096,LHSN,47.1228981018,20.2355003357,2024-01-30 00:15:00,10.0,36.0,+,yellow,-3.0,1040.0,(-2944.6220088193218-3077.757167384137j),-4.0,0.0,0.0,5000.0,99999,,(-3985.322008819322-3077.757167384137j),0.0,1113000000110302140304004000051000600007100080000
4100,LZPP,48.6251983643,17.8283996582,2024-01-30 00:30:00,,,,,2.0,1038.0,(13.946277275630507+0j),-2.0,7.0,130.0,10000.0,99999,,0j,0.0,1116001307100202120303804000051000600007000080000
4101,LZZI,49.2314987183,18.6135005951,2024-01-30 00:30:00,49.0,36.0,R,red,-3.0,1038.0,(244.56031595714546+0j),-3.0,2.0,,150.0,99999,8.0,0j,0.0,1110083602110302130303804000051000600007490088000
4118,UUBW,55.5532989502,38.1500015259,2024-01-30 00:30:00,,,,,-1.0,1027.0,(186.33696065332887+0j),-3.0,4.0,250.0,10000.0,99999,6.0,(-841.6630393466711+0j),0.0,1116062504110102130302704000051000600007000086000
4119,UUOL,52.7028007507,39.5377998352,2024-01-30 00:30:00,,,,,-6.0,1032.0,(-129.03168729915905-134.86559538549682j),-7.0,7.0,250.0,10000.0,99999,,0j,0.0,1116002507110602170303204000051000600007000080000
4120,EBBE,50.7585983276,4.7683300972,2024-01-30 00:25:00,,,,,10.0,1026.0,(2604.4728479487785+0j),6.0,11.0,200.0,10000.0,99999,6.0,(1577.0728479487784+0j),0.0,1116062011101002060302604000051000600007000086000
4121,EBBL,51.1683006287,5.4699997902,2024-01-30 00:25:00,,,,,8.0,1026.0,(2041.114930388858+0j),5.0,5.0,200.0,10000.0,99999,6.0,(1014.114930388858+0j),0.0,1116062005100802050302604000051000600007000086000
4122,EBCV,50.5758018494,3.8310000896,2024-01-30 00:25:00,,,,,9.0,1026.0,(1887.0220923260135+0j),7.0,7.0,180.0,10000.0,99999,3.0,(861.0220923260135+0j),0.0,1116031807100902070302604000051000600007000083000
4123,EBDT,50.9991989136,5.065559864,2024-01-30 00:25:00,,,,,8.0,1026.0,(1501.653269784944+0j),5.0,6.0,170.0,10000.0,99999,6.0,(474.253269784944+0j),0.0,1116061706100802050302604000051000600007000086000
4124,EBFN,51.0903015137,2.652780056,2024-01-30 00:25:00,,,,,9.0,1024.0,(1103.0095052394454+0j),7.0,9.0,180.0,10000.0,99999,6.0,(77.80950523944534+0j),0.0,1116061809100902070302404000051000600007000086000
4125,EBFS,50.2433013916,4.6458301544,2024-01-30 00:25:00,,,,,9.0,1027.0,(6092.487661587714+0j),5.0,7.0,210.0,10000.0,99999,6.0,(5065.487661587714+0j),0.0,1116062107100902050302704000051000600007000086000
4126,EBLB,50.4817008972,6.1819400787,2024-01-30 00:25:00,,,,,6.0,1028.0,(14.98232035325887+0j),4.0,4.0,210.0,10000.0,99999,,(-1013.0176796467412+0j),0.0,1116002104100602040302804000051000600007000080000
4168,LJCE,45.9000015259,15.5302000046,2024-01-30 00:30:00,10.0,36.0,+,yellow,-4.0,1039.0,(-846815.4454901295-885102.5017821756j),-5.0,1.0,250.0,3400.0,99999,,0j,0.0,1112002501110402150303904000051000600007100080000
4178,LFAQ,49.9715003967,2.6976599693,2024-01-30 00:30:00,,,,,8.0,1026.0,(3023.5978309989027+0j),6.0,7.0,160.0,10000.0,99999,,(1996.3978309989027+0j),0.0,1116001607100802060302604000051000600007000080000
4179,LFBU,45.7291984558,0.2214560062,2024-01-30 00:30:00,,,,,11.0,1029.0,(2740.9262002422374+0j),7.0,8.0,130.0,10000.0,99999,,(1711.9262002422374+0j),0.3,1116001308101102070302904000051000600307000080000
4180,LFGA,48.1099014282,7.3590102196,2024-01-30 00:30:00,,,,,3.0,1031.0,(11.281967962538845+0j),1.0,2.0,,10000.0,99999,,(-1019.7180320374612+0j),0.0,1116003602100302010303104000051000600007000080000
4183,LFOZ,47.896900177,2.1633300781,2024-01-30 00:30:00,,,,,8.0,1029.0,(3234.7307309455346+0j),6.0,5.0,200.0,10000.0,99999,,(2206.7307309455346+0j),0.0,1116002005100802060302904000051000600007000080000
4184,LFPT,49.0965995789,2.0408298969,2024-01-30 00:30:00,,,,,11.0,1027.0,(2252.1836910145457+0j),8.0,3.0,240.0,10000.0,99999,,(1224.6836910145457+0j),0.0,1116002403101102080302704000051000600007000080000
4189,LFOV,48.0313987732,-0.7429860234,2024-01-30 00:30:00,,,,,10.0,1027.0,(2414.9026615675252+0j),9.0,7.0,190.0,10000.0,99999,,(1388.9026615675252+0j),0.0,1116001907101002090302704000051000600007000080000
4192,LFRV,47.7233009338,-2.7185599804,2024-01-30 00:30:00,,,,,10.0,1027.0,(2981.479001895902+0j),10.0,5.0,260.0,10000.0,99999,8.0,(1956.479001895902+0j),0.0,11160826051010020100302704000051000600007000088000
4193,LFSG,48.3250007629,6.0699801445,2024-01-30 00:30:00,,,,,5.0,1030.0,(11.595497602784627+0j),2.0,4.0,190.0,10000.0,99999,,(-1019.9045023972154+0j),0.0,1116001904100502020303004000051000600007000080000
4223,LECH,40.9000015259,-1.3041199446,2024-01-30 00:30:00,,,,,11.0,1032.0,(13.653760685075712+0j),10.0,3.0,30.0,8000.0,99999,8.0,(-1018.3462393149243+0j),0.0,11140803031011020100303204000051000600007000088000
4229,LEMI,37.803,-1.125,2024-01-30 00:30:00,,,,,13.0,1031.0,(3199.8888615513733+0j),10.0,5.0,20.0,10000.0,99999,8.0,0j,0.0,11160802051013020100303104000051000600007000088000
4232,URMG,43.3883018494,45.698600769,2024-01-30 00:30:00,,,,,-7.0,1035.0,(1035+0j),-9.0,5.0,290.0,10000.0,99999,8.0,0j,0.0,1116082905110702190303504000051000600007000088000
4235,URMO,43.2051010132,44.6066017151,2024-01-30 00:30:00,,,,,-5.0,1032.0,(254.52204795476888+0j),-6.0,2.0,230.0,10000.0,99999,8.0,(-777.4779520452312+0j),0.0,1116082302110502160303204000051000600007000088000
4237,URRP,47.50083333,39.93361111,2024-01-30 00:30:00,10.0,36.0,+,yellow,-6.0,1038.0,(49.30402964117618+0j),-6.0,1.0,,4600.0,99999,6.0,0j,0.0,1112063601110602160303804000051000600007100086000
4242,UUBC,54.5499992371,36.3666687012,2024-01-30 00:30:00,,,,,-3.0,1030.0,(2407.9965322280973+0j),-3.0,5.0,250.0,10000.0,99999,3.0,0j,0.0,1116032505110302130303004000051000600007000083000
4243,UUOB,50.6437988281,36.5900993347,2024-01-30 00:30:00,,,,,-3.0,1037.0,(989.1735757494855+0j),-5.0,4.0,300.0,8000.0,99999,8.0,(-52.4264242505144+0j),0.0,1114083004110302150303704000051000600007000088000
4244,UUOK,51.7505989075,36.2956008911,2024-01-30 00:30:00,,,,,-5.0,1036.0,(-23734629.795699567-24807743.31990183j),-6.0,6.0,290.0,10000.0,99999,,(-23735666.795699567-24807743.31990183j),0.0,1116002906110502160303604000051000600007000080000
4247,UWPS,54.1251296997,45.2122573853,2024-01-30 00:30:00,,,,,-5.0,1024.0,(-10820350.243701572-11309570.605808306j),-7.0,8.0,250.0,8000.0,99999,8.0,(-10821380.843701571-11309570.605808306j),0.0,1114082508110502170302404000051000600007000088000
4250,UUDL,57.5606994629,40.1573982239,2024-01-30 00:30:00,,,,,1.0,1020.0,(14.234198302922646+0j),-2.0,7.0,270.0,10000.0,99999,6.0,(-1007.7658016970773+0j),0.0,1116062707100102120302004000051000600007000086000
4253,UUMO,55.5116996765,37.5071983337,2024-01-30 00:30:00,,,,,-2.0,1027.0,(451.13542622102415+0j),-3.0,6.0,260.0,10000.0,99999,8.0,(-576.8645737789759+0j),0.0,1116082606110202130302704000051000600007000088000
4261,UWKS,56.0903015137,47.3473014832,2024-01-30 00:30:00,,,,,-4.0,1019.0,(-62113185.405729525-64921508.0913544j),-6.0,7.0,260.0,7000.0,99999,6.0,(-62114209.30572952-64921508.0913544j),0.0,1114062607110402160301904000051000600007000086000
4269,LEMO,37.1749000549,-5.615940094,2024-01-30 00:30:00,,,,,7.0,1029.0,(2794.0220334599594+0j),6.0,0.0,0.0,10000.0,99999,,(1765.0220334599594+0j),0.0,1116000000100702060302904000051000600007000080000
4291,LQMO,43.2829017639,17.8458995819,2024-01-30 00:30:00,,,,,0.0,1035.0,(39.57908664495863+0j),-7.0,3.0,80.0,10000.0,99999,,(-994.4209133550414+0j),0.0,1116000803100002170303504000051000600007000080000
4295,LRCL,46.7851982117,23.6861991882,2024-01-30 00:30:00,,,,,-6.0,1040.0,(205844.90459896508+0j),-7.0,1.0,100.0,10000.0,99999,,(204802.1045989651+0j),0.0,1116001001110602170304004000051000600007000080000
4297,LRSV,47.6875,26.3540992737,2024-01-30 00:30:00,,,,,-3.0,1038.0,(129.71304121344545+0j),-4.0,5.0,180.0,10000.0,99999,,(-909.2869587865546+0j),0.0,1116001805110302140303804000051000600007000080000
4304,LEBG,42.3576011658,-3.620759964,2024-01-30 00:30:00,45.0,36.0,N,yellow,2.0,1031.0,(30.56050004042472+0j),2.0,3.0,70.0,150.0,99999,,(-999.4394999595753+0j),0.0,1110000703100202020303104000051000600007450080000
4323,LRCV,44.3180999756,23.8885993958,2024-01-30 00:30:00,,,,,-1.0,1041.0,(88.01831380744721+0j),-1.0,1.0,90.0,10000.0,99999,,(-951.9816861925528+0j),0.0,1116000901110102110304104000051000600007000080000
4324,LRIA,47.1785011292,27.6205997467,2024-01-30 00:30:00,,,,,-6.0,1042.0,(0.6456856944019238+0j),-7.0,2.0,300.0,10000.0,99999,,(-1041.354314305598+0j),0.0,1116003002110602170304204000051000600007000080000
4325,LROD,47.0252990723,21.9025001526,2024-01-30 00:30:00,,,,,-1.0,1041.0,(127.1598627544677+0j),-3.0,5.0,100.0,10000.0,99999,,(-914.3401372455323+0j),0.0,1116001005110102130304104000051000600007000080000
4326,LRSB,45.7855987549,24.091299057,2024-01-30 00:30:00,,,,,-6.0,1039.0,(887.5464883820212+0j),-8.0,4.0,110.0,10000.0,99999,,(-154.95351161797885+0j),0.0,1116001104110602180303904000051000600007000080000
4327,LRSM,47.7033004761,22.8857002258,2024-01-30 00:30:00,,,,,-1.0,1041.0,(162.1738200891446+0j),-4.0,5.0,100.0,10000.0,99999,,(-877.8261799108554+0j),0.0,1116001005110102140304104000051000600007000080000
4332,LFBG,45.6582984924,-0.3174999952,2024-01-30 00:30:00,,,,,11.0,1029.0,(1376.0896383463692+0j),9.0,5.0,120.0,10000.0,99999,,(347.08963834636916+0j),0.0,1116001205101102090302904000051000600007000080000
4333,LFBX,45.1981010437,0.8155559897,2024-01-30 00:30:00,,,,,7.0,1030.0,(3103.800079684988+0j),6.0,0.0,0.0,10000.0,99999,,(2073.4000796849878+0j),0.0,1116000000100702060303004000051000600007000080000
4334,LFBY,43.689201355,-1.0688899755,2024-01-30 00:30:00,,,,,10.0,1028.0,(1435.6435350208183+0j),9.0,3.0,,10000.0,99999,,(407.64353502081826+0j),0.0,1116003603101002090302804000051000600007000080000
4339,LFKS,41.9244003296,9.4060001373,2024-01-30 00:30:00,,,,,8.0,1035.0,(1161.900542260821+0j),3.0,6.0,270.0,10000.0,99999,,(126.90054226082111+0j),0.0,1116002706100802030303504000051000600007000080000
4343,LFMC,43.3847007751,6.3871397972,2024-01-30 00:30:00,,,,,-0.0,1035.0,(39.57908664495863+0j),-2.0,0.0,0.0,10000.0,99999,,(-995.4209133550414+0j),0.0,1116000000110002120303504000051000600007000080000
4344,LFMO,44.140499115,4.8667201996,2024-01-30 00:30:00,,,,,5.0,1035.0,(2745.229534936431+0j),3.0,3.0,120.0,10000.0,99999,3.0,(1710.4295349364309+0j),0.0,1116031203100502030303504000051000600007000083000
4351,LFRJ,48.5303001404,-4.1516399384,2024-01-30 00:30:00,,,,,7.0,1027.0,(3239.329296336287+0j),7.0,9.0,270.0,10000.0,99999,4.0,(2215.329296336287+0j),0.0,1116042709100702070302704000051000600007000084000
4356,LFYR,47.3208007813,1.6888899803,2024-01-30 00:30:00,,,,,9.0,1029.0,(2377.3585135673825+0j),7.0,3.0,210.0,10000.0,99999,,(1349.3585135673825+0j),0.0,1116002103100902070302904000051000600007000080000
4357,LUKK,46.9277000427,28.9309997559,2024-01-30 00:30:00,,,,,-1.0,1041.0,(167.12627376436083+0j),-3.0,3.0,360.0,10000.0,99999,8.0,(-875.8737262356392+0j),0.0,1116083603110102130304104000051000600007000088000
4365,LEHC,42.0760993958,-0.3166669905,2024-01-30 00:30:00,,,,,8.0,1033.0,(11.809789068714954+0j),6.0,5.0,100.0,10000.0,99999,8.0,(-1020.8902109312851+0j),0.0,1116081005100802060303304000051000600007000088000
4368,LESB,39.5988998413,2.7027800083,2024-01-30 00:30:00,,,,,11.0,1032.0,(1583.8628721344865+0j),9.0,4.0,30.0,10000.0,99999,3.0,(551.8628721344865+0j),0.0,1116030304101102090303204000051000600007000083000
4392,LRBC,46.521900177,26.9102993011,2024-01-30 00:30:00,,,,,-5.0,1041.0,(-144447.69921879092-150978.61126190485j),-7.0,2.0,130.0,10000.0,99999,,(-145491.9992187909-150978.61126190485j),0.0,1116001302110502170304104000051000600007000080000
