,station,lat,lon,time,weather,weatherfont,weathersymbol,weathercolour,temperature,pressure,sl_pressure,dewpoint,windspeed,winddir,visibility,visual_range,cloudcover,pressure3h_change,rain,wwletter
69,EEEI,59.2602996826,24.2084999084,2023-05-14 23:50:00,,,,,4.0,99999,99999,2.0,3.0,80.0,10000.0,99999,,98977.0,0.0,1116000803100402020399904999051989770600007000080000
489,LGIO,39.6963996887,20.8225002289,2023-05-14 23:50:00,,,,,18.0,99999,99999,11.0,6.0,160.0,10000.0,99999,,98981.5,0.0,11160016061018020110399904999051989815600007000080000
604,ENZV,58.876701355,5.6377801895,2023-05-14 23:50:00,,,,,7.0,99999,99999,6.0,6.0,200.0,9000.0,99999,8.0,0.0,0.0,1115082006100702060399904999051000600007000088000
713,EGJB,49.4350013733,-2.6019699574,2023-05-14 23:50:00,10.0,36.0,+,yellow,12.0,99999,99999,12.0,10.0,280.0,4000.0,99999,6.0,98978.2,0.0,11120628101012020120399904999051989781600007100086000
783,LGTG,38.3398017883,23.5650005341,2023-05-14 23:50:00,,,,,11.0,99999,99999,10.0,0.0,0.0,10000.0,99999,,98980.3,0.0,11160000001011020100399904999051989803600007000080000
816,LGKZ,40.2860984802,21.8407993317,2023-05-14 23:50:00,,,,,11.0,99999,99999,11.0,2.0,,10000.0,99999,,98978.5,0.2,11160036021011020110399904999051989785600207000080000
817,LGLR,39.6562825886,22.3400008678,2023-05-14 23:50:00,,,,,12.0,99999,99999,11.0,0.0,0.0,10000.0,99999,2.0,98980.0,0.0,11160200001012020110399904999051989800600007000082000
826,LIRQ,43.8100013733,11.2051000595,2023-05-14 23:50:00,,,,,11.0,99999,99999,10.0,2.0,120.0,10000.0,99999,,98988.0,0.0,11160012021011020100399904999051989880600007000080000
893,LGKL,37.0682983398,22.0254993439,2023-05-14 23:50:00,,,,,15.0,99999,99999,11.0,4.0,320.0,10000.0,99999,1.0,98982.0,0.0,11160132041015020110399904999051989820600007000081000
920,ETNG,50.9608001709,6.0424199104,2023-05-14 23:50:00,,,,,13.0,99999,99999,12.0,7.0,280.0,10000.0,99999,4.0,98983.4,0.0,11160428071013020120399904999051989833600007000084000
937,LGAL,40.8558998108,25.9563007355,2023-05-14 23:50:00,,,,,12.0,99999,99999,10.0,0.0,0.0,10000.0,99999,1.0,98979.7,0.0,11160100001012020100399904999051989796600007000081000
940,LGSM,37.6899986267,26.911699295,2023-05-14 23:50:00,,,,,15.0,99999,99999,9.0,3.0,,10000.0,99999,1.0,98980.6,0.0,1116013603101502090399904999051989806600007000081000
991,LGPZ,38.9254989624,20.7653007507,2023-05-14 23:50:00,,,,,19.0,99999,99999,13.0,4.0,120.0,10000.0,99999,6.0,98983.0,0.0,11160612041019020130399904999051989830600007000086000
1049,EGQL,56.3728981018,-2.8684399128,2023-05-14 23:50:00,,,,,8.0,99999,99999,4.0,3.0,220.0,10000.0,99999,6.0,98981.5,0.0,1116062203100802040399904999051989815600007000086000
1050,EGQS,57.7052001953,-3.3391699791,2023-05-14 23:50:00,,,,,6.0,99999,99999,4.0,8.0,240.0,10000.0,99999,1.0,98981.6,0.0,1116012408100602040399904999051989816600007000081000
1089,LTAY,37.7855987549,29.7012996674,2023-05-14 23:50:00,,,,,10.0,99999,99999,8.0,1.0,,10000.0,99999,1.0,98979.1,0.0,1116013601101002080399904999051989791600007000081000
1092,LTBH,40.1376991272,26.4267997742,2023-05-14 23:50:00,,,,,13.0,99999,99999,11.0,3.0,50.0,10000.0,99999,,98980.0,0.0,11160005031013020110399904999051989800600007000080000
1094,LTBY,39.8098983765,30.5193996429,2023-05-14 23:50:00,,,,,11.0,99999,99999,6.0,3.0,240.0,10000.0,99999,,0.0,0.0,1116002403101102060399904999051000600007000080000
1096,LTCB,40.966667,38.08,2023-05-14 23:50:00,,,,,9.0,99999,99999,6.0,3.0,230.0,10000.0,99999,,98977.0,0.0,1116002303100902060399904999051989770600007000080000
1100,LTCN,37.5388259888,36.9535217285,2023-05-14 23:50:00,,,,,16.0,99999,99999,8.0,5.0,240.0,10000.0,99999,,98982.8,0.0,1116002405101602080399904999051989828600007000080000
1101,LTCT,39.9766273499,43.8766479492,2023-05-14 23:50:00,,,,,9.0,99999,99999,3.0,7.0,260.0,10000.0,99999,3.0,0.0,0.0,1116032607100902030399904999051000600007000083000
1102,LTDA,36.36277771,36.2822227478,2023-05-14 23:50:00,,,,,17.0,99999,99999,15.0,4.0,70.0,10000.0,99999,4.0,98984.0,0.0,11160407041017020150399904999051989840600007000084000
1103,LTFD,39.554599762,27.0137996674,2023-05-14 23:50:00,,,,,16.0,99999,99999,9.0,5.0,80.0,10000.0,99999,,98979.6,0.0,1116000805101602090399904999051989796600007000080000
1104,LTFG,36.2992172241,32.3005981445,2023-05-14 23:50:00,,,,,17.0,99999,99999,15.0,3.0,60.0,10000.0,99999,3.0,98984.0,0.0,11160306031017020150399904999051989840600007000083000
1106,LTBD,37.8149986267,27.8952999115,2023-05-14 23:50:00,,,,,15.0,99999,99999,12.0,7.0,60.0,10000.0,99999,,98981.0,0.0,11160006071015020120399904999051989810600007000080000
1107,LTCR,37.2233009338,40.6316986084,2023-05-14 23:50:00,,,,,17.0,99999,99999,-2.0,10.0,330.0,10000.0,99999,,98986.5,0.0,1116003310101702120399904999051989865600007000080000
1201,ETEK,49.6502990723,7.300069809,2023-05-14 23:55:00,,,,,10.9,99999,99999,6.4,0.0,0.0,10000.0,99999,4.0,98984.0,0.0,1116040000101092069399904999051989840600007000084000
1202,ETIC,49.6986999512,11.940199852,2023-05-14 23:55:00,,,,,9.1,99999,99999,8.0,0.0,0.0,10000.0,99999,4.0,98986.0,0.0,1116040000100902080399904999051989860600007000084000
1253,LGBL,39.2196006775,22.7943000793,2023-05-14 23:50:00,,,,,12.0,99999,99999,11.0,0.0,0.0,10000.0,99999,1.0,98980.0,0.0,11160100001012020110399904999051989800600007000081000
1254,LGLM,39.917098999,25.2362995148,2023-05-14 23:50:00,,,,,14.0,99999,99999,8.0,0.0,0.0,10000.0,99999,,98980.0,0.0,1116000000101402080399904999051989800600007000080000
1255,LGMK,37.4351005554,25.3481006622,2023-05-14 23:50:00,,,,,17.0,99999,99999,12.0,8.0,20.0,10000.0,99999,,98980.4,0.0,11160002081017020120399904999051989803600007000080000
1374,LTAB,39.9350013733,32.7407989502,2023-05-14 23:50:00,,,,,12.0,99999,99999,6.0,0.0,0.0,10000.0,99999,,98979.3,0.0,1116000000101202060399904999051989793600007000080000
1378,LTBI,39.7840995789,30.5820999146,2023-05-14 23:50:00,,,,,10.0,99999,99999,7.0,0.0,0.0,10000.0,99999,,98978.0,0.0,1116000000101002070399904999051989780600007000080000
1379,LTBL,38.5130004883,27.010099411,2023-05-14 23:50:00,,,,,13.0,99999,99999,11.0,0.0,0.0,10000.0,99999,,98980.4,0.0,11160000001013020110399904999051989803600007000080000
1382,LTAD,39.949798584,32.6885986328,2023-05-14 23:50:00,,,,,10.0,99999,99999,7.0,2.0,,10000.0,99999,,98979.5,0.0,1116003602101002070399904999051989795600007000080000
1386,LTAR,39.8138008118,36.9034996033,2023-05-14 23:50:00,,,,,0.0,99999,99999,-2.0,2.0,130.0,10000.0,99999,,98977.0,0.0,1116001302100002120399904999051989770600007000080000
1389,LTBG,40.3180007935,27.9776992798,2023-05-14 23:50:00,,,,,10.0,99999,99999,10.0,2.0,,10000.0,99999,,98978.5,0.0,11160036021010020100399904999051989785600007000080000
1391,LTBQ,40.7350006104,30.0832996368,2023-05-14 23:50:00,,,,,11.0,99999,99999,10.0,1.0,,10000.0,99999,,98978.0,0.0,11160036011011020100399904999051989780600007000080000
1393,LTCA,38.6068992615,39.2914009094,2023-05-14 23:50:00,,,,,8.0,99999,99999,-1.0,6.0,,10000.0,99999,,98982.0,0.0,1116003606100802110399904999051989820600007000080000
1398,LTCI,38.4682006836,43.3322982788,2023-05-14 23:50:00,,,,,6.0,99999,99999,-0.0,5.0,70.0,10000.0,99999,3.0,98986.4,0.2,1116030705100602100399904999051989863600207000083000
1462,LTAE,40.0788993835,32.5656013489,2023-05-14 23:50:00,,,,,10.0,99999,99999,5.0,3.0,10.0,10000.0,99999,,98979.0,0.0,1116000103101002050399904999051989790600007000080000
1492,EBBE,50.7585983276,4.7683300972,2023-05-14 23:55:00,10.0,36.0,+,yellow,9.0,99999,99999,8.0,4.0,250.0,3800.0,99999,,98982.0,0.0,1112002504100902080399904999051989820600007100080000
1494,EBDT,50.9991989136,5.065559864,2023-05-14 23:55:00,10.0,36.0,+,yellow,10.0,99999,99999,9.0,5.0,310.0,4600.0,99999,6.0,98982.3,0.0,1112063105101002090399904999051989823600007100086000
2025,LPBJ,38.0788993835,-7.9324002266,2023-05-15 00:00:00,,,,,15.0,99999,99999,9.0,9.0,310.0,10000.0,99999,,98979.0,0.0,1116003109101502090399904999051989790600007000080000
2028,LPMR,39.831199646,-8.887260437,2023-05-15 00:00:00,,,,,14.0,99999,99999,12.0,6.0,340.0,10000.0,99999,1.0,98975.2,0.0,11160134061014020120399904999051989751600007000081000
2029,LPMT,38.7038993835,-9.0359201431,2023-05-15 00:00:00,,,,,16.0,99999,99999,12.0,7.0,340.0,10000.0,99999,,98977.3,0.0,11160034071016020120399904999051989773600007000080000
2033,UMBB,52.1082992554,23.8980998993,2023-05-15 00:00:00,,,,,13.0,99999,99999,6.0,2.0,110.0,7000.0,99999,,98980.9,0.0,1114001102101302060399904999051989808600007000080000
2034,UMGG,52.5270004272,31.0167007446,2023-05-15 00:00:00,,,,,13.0,99999,99999,7.0,2.0,70.0,10000.0,99999,,98978.5,0.0,1116000702101302070399904999051989785600007000080000
2045,URMN,43.5129013062,43.6366004944,2023-05-15 00:00:00,80.0,36.0,q,green,9.0,99999,99999,7.0,4.0,270.0,10000.0,99999,6.0,98980.0,0.0,1116062704100902070399904999051989800600007800086000
2059,UWLW,54.4010009766,48.8027000427,2023-05-15 00:00:00,,,,,12.0,99999,99999,8.0,5.0,30.0,10000.0,99999,3.0,98979.7,0.0,1116030305101202080399904999051989796600007000083000
2136,EGXC,53.0929985046,-0.1660140008,2023-05-14 23:50:00,,,,,13.0,99999,99999,10.0,10.0,310.0,10000.0,99999,3.0,98981.9,0.0,11160331101013020100399904999051989818600007000083000
2186,LGHI,38.3432006836,26.1406002045,2023-05-14 23:50:00,,,,,13.0,99999,99999,11.0,1.0,,10000.0,99999,,98980.7,0.0,11160036011013020110399904999051989806600007000080000
2190,LKKB,50.1213989258,14.5436000824,2023-05-15 00:00:00,61.0,36.0,^,green,10.0,99999,99999,10.0,4.0,310.0,10000.0,99999,,0.0,0.0,11160031041010020100399904999051000600007610080000
2191,LKKV,50.202999115,12.9149999619,2023-05-15 00:00:00,61.0,36.0,^,green,7.0,99999,99999,7.0,1.0,140.0,10000.0,99999,6.0,98984.5,0.0,1116061401100702070399904999051989845600007610086000
2192,LKLN,49.675201416,13.274600029,2023-05-15 00:00:00,,,,,9.0,99999,99999,8.0,2.0,,10000.0,99999,5.0,98985.0,0.0,1116053602100902080399904999051989850600007000085000
2197,LOXZ,47.2028007507,14.7441997528,2023-05-14 23:50:00,,,,,8.0,99999,99999,8.0,2.0,,8000.0,99999,3.0,98985.4,0.1,1114033602100802080399904999051989853600107000083000
2207,LTCD,39.7102012634,39.5270004272,2023-05-14 23:50:00,,,,,4.0,99999,99999,-1.0,8.0,250.0,10000.0,99999,1.0,98978.0,0.0,1116012508100402110399904999051989780600007000081000
2208,LTCF,40.5621986389,43.1150016785,2023-05-14 23:50:00,,,,,1.0,99999,99999,-3.0,4.0,,10000.0,99999,2.0,98979.8,0.0,1116023604100102130399904999051989798600007000082000
2211,LTFH,41.2545013428,36.5671005249,2023-05-14 23:50:00,,,,,7.0,99999,99999,7.0,3.0,140.0,10000.0,99999,,0.0,0.0,1116001403100702070399904999051000600007000080000
2297,EIME,53.301700592,-6.4513301849,2023-05-15 00:00:00,,,,,4.0,99999,99999,3.0,7.0,260.0,10000.0,99999,,98976.0,0.0,1116002607100402030399904999051989760600007000080000
2306,LTAN,37.9790000916,32.5619010925,2023-05-14 23:50:00,,,,,13.0,99999,99999,5.0,4.0,270.0,10000.0,99999,,98978.0,0.0,1116002704101302050399904999051989780600007000080000
2307,LTBF,39.6193008423,27.9260005951,2023-05-14 23:50:00,,,,,12.0,99999,99999,11.0,2.0,220.0,10000.0,99999,,98978.5,0.0,11160022021012020110399904999051989785600007000080000
2331,LIBN,40.239200592,18.1333007813,2023-05-14 23:55:00,,,,,17.0,99999,99999,16.0,5.0,140.0,8000.0,99999,3.0,98986.9,0.0,11140314051017020160399904999051989868600007000083000
2338,LIPS,45.6848983765,12.0829000473,2023-05-14 23:55:00,,,,,11.0,99999,99999,10.0,4.0,300.0,10000.0,99999,6.0,98988.9,0.0,11160630041011020100399904999051989888600007000086000
2344,LIRM,41.060798645,14.0818996429,2023-05-14 23:55:00,61.0,36.0,^,green,15.0,99999,99999,14.0,3.0,50.0,8000.0,99999,3.0,98987.2,0.0,11140305031015020140399904999051989871600007610083000
2347,ETAR,49.4369010925,7.600279808,2023-05-14 23:55:00,,,,,9.6,99999,99999,8.5,0.0,0.0,10000.0,99999,8.0,98985.0,0.0,1116080000100952085399904999051989850600007000088000
2348,ETIH,49.2181015015,11.8360996246,2023-05-14 23:55:00,,,,,7.8,99999,99999,6.9,0.0,0.0,10000.0,99999,8.0,98985.9,0.0,1116080000100772067399904999051989858600007000088000
2349,ETIK,49.4738998413,10.3880996704,2023-05-14 23:55:00,10.0,36.0,+,yellow,9.7,99999,99999,9.5,0.0,0.0,8000.0,99999,8.0,98986.0,0.0,1114080000100962096399904999051989860600007100088000
2364,ETAD,49.9726982117,6.6925001144,2023-05-14 23:55:00,,,,,10.4,99999,99999,6.9,4.0,290.0,10000.0,99999,3.0,98983.9,0.0,1116032904101042064399904999051989838600007000083000
2389,LGRX,38.1511001587,21.4256000519,2023-05-14 23:50:00,,,,,19.0,99999,99999,12.0,10.0,60.0,10000.0,99999,,98983.0,0.0,11160006101019020120399904999051989830600007000080000
2390,LICT,37.9113998413,12.4879999161,2023-05-14 23:55:00,95.0,36.0,2,red,18.0,99999,99999,15.0,12.0,20.0,10000.0,99999,2.0,98987.0,0.0,11160202121018020150399904999051989870600007950082000
2391,LIBA,41.5414009094,15.7180995941,2023-05-14 23:55:00,61.0,36.0,^,green,15.0,99999,99999,14.0,5.0,260.0,8000.0,99999,3.0,98988.0,0.0,11140326051015020140399904999051989880600007610083000
2393,LIPA,46.0318984985,12.5965003967,2023-05-14 23:55:00,,,,,12.0,99999,99999,12.0,3.0,30.0,10000.0,99999,6.0,98988.6,0.0,11160603031012020120399904999051989886600007000086000
2394,LIPC,44.2242012024,12.3072004318,2023-05-14 23:55:00,,,,,10.0,99999,99999,8.0,2.0,230.0,10000.0,99999,1.0,98988.0,0.0,1116012302101002080399904999051989880600007000081000
2395,LIPI,45.9786987305,13.0493001938,2023-05-14 23:55:00,,,,,12.0,99999,99999,10.0,2.0,40.0,10000.0,99999,8.0,98988.0,0.0,11160804021012020100399904999051989880600007000088000
2396,LIPL,45.4322013855,10.2677001953,2023-05-14 23:55:00,,,,,12.0,99999,99999,12.0,3.0,320.0,8000.0,99999,1.0,98987.6,0.0,11140132031012020120399904999051989876600007000081000
2398,LIRS,42.7597007751,11.0719003677,2023-05-14 23:55:00,,,,,11.0,99999,99999,9.0,2.0,40.0,10000.0,99999,1.0,98986.9,0.0,1116010402101102090399904999051989868600007000081000
2399,LICZ,37.4016990662,14.9224004745,2023-05-14 23:55:00,10.0,36.0,+,yellow,16.0,99999,99999,16.0,4.0,310.0,5000.0,99999,2.0,98989.2,0.0,11130231041016020160399904999051989891600007100082000
2401,EGUN,52.3619003296,0.4864059985,2023-05-14 23:55:00,,,,,14.0,99999,99999,14.0,7.0,340.0,10000.0,99999,8.0,98983.0,0.0,11160834071014020140399904999051989830600007000088000
2404,LIRE,41.654499054,12.4451999664,2023-05-14 23:55:00,,,,,14.0,99999,99999,12.0,4.0,10.0,10000.0,99999,3.0,98985.4,0.0,11160301041014020120399904999051989853600007000083000
2412,ULOO,57.7839012146,28.3955993652,2023-05-15 00:00:00,,,,,11.0,99999,99999,6.0,1.0,,10000.0,99999,,98977.0,0.0,1116003601101102060399904999051989770600007000080000
2413,ULPB,61.8852005005,34.1547012329,2023-05-15 00:00:00,,,,,4.0,99999,99999,3.0,0.0,0.0,10000.0,99999,,98974.7,0.0,1116000000100402030399904999051989746600007000080000
2434,EGVA,51.6822013855,-1.7900300026,2023-05-15 00:10:00,,,,,12.0,99999,99999,12.0,9.0,320.0,10000.0,99999,5.0,98980.3,0.0,11160532091012020120399904999051989803600007000085000
2438,EVGA,56.778301239,24.8539009094,2023-05-15 00:20:00,,,,,7.0,99999,99999,5.0,0.0,0.0,10000.0,99999,,98977.9,0.0,1116000000100702050399904999051989778600007000080000
2449,LATI,41.4146995544,19.7206001282,2023-05-15 00:20:00,,,,,16.0,99999,99999,16.0,6.0,330.0,10000.0,99999,6.0,98986.0,0.6,11160633061016020160399904999051989860600607000086000
2482,EVVA,57.35779953,21.5442008972,2023-05-15 00:20:00,,,,,12.0,99999,99999,4.0,4.0,70.0,10000.0,99999,,0.0,0.0,1116000704101202040399904999051000600007000080000
2496,LSZC,46.9744444444,8.3969444444,2023-05-15 00:20:00,,,,,10.0,99999,99999,9.0,2.0,290.0,10000.0,99999,6.0,98983.7,0.1,1116062902101002090399904999051989836600107000086000
2505,EKRS,55.4258003235,11.8066997528,2023-05-15 00:20:00,,,,,10.0,99999,99999,10.0,2.0,,10000.0,99999,,98982.4,0.0,11160036021010020100399904999051989823600007000080000
2513,LSMA,46.943901062,8.2841701508,2023-05-15 00:20:00,,,,,9.0,99999,99999,9.0,1.0,,10000.0,99999,8.0,98983.4,0.5,1116083601100902090399904999051989833600507000088000
2514,LSMD,47.398601532,8.648229599,2023-05-15 00:20:00,,,,,10.0,99999,99999,9.0,0.0,0.0,7000.0,99999,5.0,98984.1,0.3,1114050000101002090399904999051989841600307000085000
2515,LSME,47.0923995972,8.3051204681,2023-05-15 00:20:00,,,,,10.0,99999,99999,10.0,2.0,,10000.0,99999,7.0,98983.8,0.0,11160736021010020100399904999051989838600007000087000
2516,LSMM,46.7433013916,8.1099996567,2023-05-15 00:20:00,,,,,9.0,99999,99999,9.0,0.0,0.0,10000.0,99999,5.0,98984.0,0.4,1116050000100902090399904999051989840600407000085000
2517,LSMP,46.8432006836,6.9150600433,2023-05-15 00:20:00,61.0,36.0,^,green,11.0,99999,99999,10.0,3.0,230.0,10000.0,99999,3.0,98983.3,0.0,11160323031011020100399904999051989833600007610083000
2604,ESTA,56.2961006165,12.8471002579,2023-05-15 00:20:00,,,,,9.0,99999,99999,5.0,5.0,110.0,10000.0,99999,1.0,98981.7,0.0,1116011105100902050399904999051989816600007000081000
2605,ESTL,56.0828018188,13.2124996185,2023-05-15 00:20:00,,,,,7.0,99999,99999,6.0,0.0,0.0,10000.0,99999,4.0,98981.3,0.0,1116040000100702060399904999051989813600007000084000
2616,ESOH,60.0200996399,13.5789003372,2023-05-15 00:20:00,,,,,8.0,99999,99999,5.0,2.0,,10000.0,99999,1.0,98981.0,0.0,1116013602100802050399904999051989810600007000081000
2624,ESNZ,63.1944007874,14.5003004074,2023-05-15 00:20:00,,,,,10.0,99999,99999,-4.0,5.0,170.0,10000.0,99999,2.0,98981.9,0.0,1116021705101002140399904999051989818600007000082000
2626,EGHQ,50.4406013489,-4.9954099655,2023-05-15 00:20:00,,,,,11.0,99999,99999,10.0,9.0,350.0,10000.0,99999,3.0,98979.0,0.0,11160335091011020100399904999051989790600007000083000
2628,EGCK,53.1041984558,-4.340280056,2023-05-15 00:20:00,,,,,10.0,99999,99999,7.0,4.0,340.0,10000.0,99999,,98977.4,0.0,1116003404101002070399904999051989773600007000080000
2658,ESCF,58.4023017883,15.5256996155,2023-05-15 00:20:00,,,,,12.0,99999,99999,5.0,4.0,110.0,10000.0,99999,6.0,98978.8,0.0,1116061104101202050399904999051989788600007000086000
2660,ESIB,58.426399231,12.7144002914,2023-05-15 00:20:00,,,,,8.0,99999,99999,7.0,4.0,100.0,10000.0,99999,3.0,98980.7,0.0,1116031004100802070399904999051989806600007000083000
2662,ESPE,65.8752975464,20.1499004364,2023-05-15 00:20:00,,,,,6.0,99999,99999,3.0,1.0,,10000.0,99999,8.0,98982.0,0.0,1116083601100602030399904999051989820600007000088000
2664,ESIA,58.5138015747,14.5071001053,2023-05-15 00:20:00,,,,,7.0,99999,99999,7.0,1.0,20.0,10000.0,99999,,98979.8,0.0,1116000201100702070399904999051989798600007000080000
2665,ESCM,59.8973007202,17.5886001587,2023-05-15 00:20:00,,,,,7.0,99999,99999,4.0,0.0,0.0,10000.0,99999,,98979.1,0.0,1116000000100702040399904999051989791600007000080000
2712,ESGT,58.3180999756,12.345000267,2023-05-15 00:20:00,,,,,9.0,99999,99999,7.0,4.0,280.0,10000.0,99999,,98981.1,0.0,1116002804100902070399904999051989811600007000080000
2713,ESMQ,56.6855010986,16.2875995636,2023-05-15 00:20:00,,,,,9.0,99999,99999,7.0,4.0,320.0,10000.0,99999,1.0,98979.7,0.0,1116013204100902070399904999051989796600007000081000
2715,ESMT,56.6911010742,12.8201999664,2023-05-15 00:20:00,,,,,11.0,99999,99999,5.0,5.0,50.0,10000.0,99999,,98982.0,0.0,1116000505101102050399904999051989820600007000080000
2733,EFJO,62.6628990173,29.6075000763,2023-05-15 00:20:00,,,,,8.0,99999,99999,5.0,2.0,140.0,10000.0,99999,,98975.8,0.0,1116001402100802050399904999051989758600007000080000
2737,EFKS,65.9876022339,29.2394008636,2023-05-15 00:20:00,,,,,0.0,99999,99999,-1.0,0.0,0.0,10000.0,99999,,98979.0,0.0,1116000000100002110399904999051989790600007000080000
2738,EFKT,67.7009963989,24.8467998505,2023-05-15 00:20:00,,,,,6.0,99999,99999,2.0,1.0,,10000.0,99999,,98982.0,0.0,1116003601100602020399904999051989820600007000080000
2740,EFLP,61.0446014404,28.1443996429,2023-05-15 00:20:00,,,,,11.0,99999,99999,7.0,4.0,120.0,10000.0,99999,,98976.1,0.0,1116001204101102070399904999051989761600007000080000
2741,EFMI,61.6865997314,27.2017993927,2023-05-15 00:20:00,,,,,6.0,99999,99999,5.0,1.0,,10000.0,99999,,98976.6,0.0,1116003601100602050399904999051989766600007000080000
2742,EFSA,61.9430999756,28.9451007843,2023-05-15 00:20:00,,,,,8.0,99999,99999,7.0,2.0,110.0,10000.0,99999,,98976.0,0.0,1116001102100802070399904999051989760600007000080000
2743,EFUT,60.8964004517,26.9384002686,2023-05-15 00:20:00,,,,,8.0,99999,99999,6.0,3.0,150.0,10000.0,99999,,98976.7,0.0,1116001503100802060399904999051989766600007000080000
2782,ESNV,64.5791015625,16.8335990906,2023-05-15 00:20:00,,,,,6.0,99999,99999,3.0,2.0,,10000.0,99999,,98981.4,0.0,1116003602100602030399904999051989813600007000080000
2784,ESST,60.1576004028,12.9912996292,2023-05-15 00:20:00,,,,,11.0,99999,99999,8.0,0.0,0.0,10000.0,99999,8.0,0.0,0.0,1116080000101102080399904999051000600007000088000
2785,ESUP,67.2455978394,23.0688991547,2023-05-15 00:20:00,,,,,99999.0,99999,99999,99999.0,2.0,,10000.0,99999,,98982.1,0.0,11160036021099999020999990399904999051989821600007000080000
2786,ESND,62.0477981567,14.4229001999,2023-05-15 00:20:00,,,,,5.0,99999,99999,3.0,0.0,0.0,10000.0,99999,3.0,98980.9,0.0,1116030000100502030399904999051989808600007000083000
2817,LIMZ,44.547000885,7.6232199669,2023-05-15 00:20:00,,,,,9.0,99999,99999,9.0,4.0,150.0,10000.0,99999,,0.0,0.0,1116001504100902090399904999051000600007000080000
2820,LICB,36.9946010208,14.6071815491,2023-05-15 00:20:00,,,,,20.0,99999,99999,13.0,5.0,30.0,10000.0,99999,6.0,98991.7,0.0,11160603051020020130399904999051989916600007000086000
2822,LIPO,45.4289016724,10.3305997849,2023-05-15 00:20:00,,,,,11.0,99999,99999,11.0,4.0,290.0,10000.0,99999,1.0,0.0,0.0,11160129041011020110399904999051000600007000081000
2870,EDBC,51.8563995361,11.42029953,2023-05-15 00:20:00,,,,,13.0,99999,99999,9.0,2.0,,10000.0,99999,4.0,98985.4,0.0,1116043602101302090399904999051989853600007000084000
2942,EFET,68.3626022339,23.4242992401,2023-05-15 00:20:00,,,,,2.0,99999,99999,1.0,4.0,40.0,10000.0,99999,,0.0,0.0,1116000404100202010399904999051000600007000080000
2943,EFHA,61.8559989929,24.7866001129,2023-05-15 00:20:00,,,,,12.0,99999,99999,8.0,4.0,150.0,10000.0,99999,,98978.0,0.0,1116001504101202080399904999051989780600007000080000
2946,EFSI,62.6921005249,22.8323001862,2023-05-15 00:20:00,,,,,5.0,99999,99999,2.0,4.0,120.0,10000.0,99999,,0.0,0.0,1116001204100502020399904999051000600007000080000
3014,EDJA,47.9888000488,10.2395000458,2023-05-15 00:20:00,,,,,9.0,99999,99999,8.0,6.0,230.0,10000.0,99999,4.0,0.0,0.0,1116042306100902080399904999051000600007000084000
3021,EDTY,49.1183319092,9.7838888168,2023-05-15 00:20:00,,,,,8.0,99999,99999,7.0,4.0,110.0,10000.0,99999,6.0,98985.7,0.0,1116061104100802070399904999051989856600007000086000
3024,EDWE,53.3911094666,7.2274999619,2023-05-15 00:20:00,,,,,10.0,99999,99999,9.0,3.0,340.0,3400.0,99999,6.0,98982.7,0.0,1112063403101002090399904999051989826600007000086000
3027,EKBI,55.7402992249,9.1517801285,2023-05-15 00:20:00,,,,,10.0,99999,99999,6.0,3.0,120.0,10000.0,99999,6.0,98982.4,0.0,1116061203101002060399904999051989823600007000086000
3028,EKCH,55.6179008484,12.6560001373,2023-05-15 00:20:00,,,,,12.0,99999,99999,8.0,5.0,50.0,10000.0,99999,8.0,98982.0,0.0,1116080505101202080399904999051989820600007000088000
3029,EKEB,55.5259017944,8.5534000397,2023-05-15 00:20:00,,,,,12.0,99999,99999,8.0,4.0,140.0,10000.0,99999,6.0,98982.4,0.0,1116061404101202080399904999051989823600007000086000
3031,EKRK,55.5856018066,12.1314001083,2023-05-15 00:20:00,,,,,11.0,99999,99999,7.0,4.0,60.0,10000.0,99999,6.0,98981.9,0.0,1116060604101102070399904999051989818600007000086000
3032,EKRN,55.0633010864,14.7595996857,2023-05-15 00:20:00,,,,,15.0,99999,99999,5.0,11.0,50.0,10000.0,99999,1.0,98983.0,0.0,1116010511101502050399904999051989830600007000081000
3033,EKSB,54.9644012451,9.7917299271,2023-05-15 00:20:00,,,,,11.0,99999,99999,8.0,2.0,290.0,10000.0,99999,6.0,98982.5,0.0,1116062902101102080399904999051989825600007000086000
3035,EKSP,55.2256011963,9.2639303207,2023-05-15 00:20:00,,,,,10.0,99999,99999,7.0,2.0,90.0,10000.0,99999,,98983.0,0.0,1116000902101002070399904999051989830600007000080000
3036,EKVD,55.4362983704,9.3309202194,2023-05-15 00:20:00,,,,,10.0,99999,99999,7.0,3.0,90.0,10000.0,99999,,98983.0,0.0,1116000903101002070399904999051989830600007000080000
3046,EFIV,68.6072998047,27.4053001404,2023-05-15 00:20:00,,,,,3.0,99999,99999,1.0,2.0,250.0,10000.0,99999,,98981.0,0.0,1116002502100302010399904999051989810600007000080000
3047,EFJY,62.3995018005,25.6783008575,2023-05-15 00:20:00,,,,,6.0,99999,99999,6.0,1.0,,10000.0,99999,,98977.1,0.0,1116003601100602060399904999051989771600007000080000
3048,EFKE,65.7787017822,24.5820999146,2023-05-15 00:20:00,,,,,5.0,99999,99999,1.0,5.0,160.0,10000.0,99999,,98979.3,0.0,1116001605100502010399904999051989793600007000080000
3049,EFKK,63.7211990356,23.1431007385,2023-05-15 00:20:00,,,,,3.0,99999,99999,1.0,2.0,170.0,10000.0,99999,,98978.4,0.0,1116001702100302010399904999051989783600007000080000
3051,EFMA,60.1222000122,19.8981990814,2023-05-15 00:20:00,,,,,7.0,99999,99999,4.0,2.0,,10000.0,99999,,98978.1,0.0,1116003602100702040399904999051989781600007000080000
3052,EFOU,64.9300994873,25.3546009064,2023-05-15 00:20:00,,,,,8.0,99999,99999,3.0,3.0,120.0,10000.0,99999,,98979.0,0.0,1116001203100802030399904999051989790600007000080000
3053,EFPO,61.4617004395,21.7999992371,2023-05-15 00:20:00,,,,,7.0,99999,99999,2.0,2.0,,10000.0,99999,,98978.0,0.0,1116003602100702020399904999051989780600007000080000
3054,EFRO,66.5647964478,25.8304004669,2023-05-15 00:20:00,,,,,9.0,99999,99999,2.0,8.0,180.0,10000.0,99999,,98980.0,0.0,1116001808100902020399904999051989800600007000080000
3055,EFTP,61.414100647,23.6044006348,2023-05-15 00:20:00,,,,,6.0,99999,99999,3.0,0.0,0.0,10000.0,99999,,98978.0,0.0,1116000000100602030399904999051989780600007000080000
3056,EFTU,60.5140991211,22.2628002167,2023-05-15 00:20:00,,,,,6.0,99999,99999,1.0,3.0,230.0,10000.0,99999,,98977.1,0.0,1116002303100602010399904999051989771600007000080000
3057,EFVA,63.0507011414,21.7621994019,2023-05-15 00:20:00,,,,,5.0,99999,99999,1.0,1.0,,10000.0,99999,,98979.0,0.0,1116003601100502010399904999051989790600007000080000
3059,ENBR,60.2933998108,5.2181401253,2023-05-15 00:20:00,,,,,7.0,99999,99999,7.0,8.0,190.0,10000.0,99999,7.0,0.0,0.0,1116071908100702070399904999051000600007000087000
3060,ENCN,58.2042007446,8.0853700638,2023-05-15 00:20:00,,,,,10.0,99999,99999,8.0,3.0,30.0,10000.0,99999,4.0,98982.3,0.0,1116040303101002080399904999051989823600007000084000
3062,ENHD,59.3452987671,5.2083601952,2023-05-15 00:20:00,,,,,7.0,99999,99999,5.0,7.0,180.0,10000.0,99999,8.0,98984.0,0.0,1116081807100702050399904999051989840600007000088000
3065,ENVA,63.4578018188,10.9239997864,2023-05-15 00:20:00,,,,,13.0,99999,99999,2.0,4.0,140.0,10000.0,99999,6.0,98984.2,0.0,1116061404101302020399904999051989841600007000086000
3069,LGAV,37.9364013672,23.9444999695,2023-05-15 00:20:00,,,,,12.0,99999,99999,8.0,0.0,0.0,10000.0,99999,,0.0,0.0,1116000000101202080399904999051000600007000080000
3071,LGIR,35.3396987915,25.1802997589,2023-05-15 00:20:00,,,,,16.0,99999,99999,9.0,5.0,170.0,10000.0,99999,1.0,98980.4,0.0,1116011705101602090399904999051989803600007000081000
3073,LGKR,39.6018981934,19.911699295,2023-05-15 00:20:00,,,,,20.0,99999,99999,17.0,5.0,140.0,10000.0,99999,4.0,98983.5,0.0,11160414051020020170399904999051989835600007000084000
3074,LGRP,36.4053993225,28.0862007141,2023-05-15 00:20:00,,,,,20.0,99999,99999,12.0,10.0,230.0,10000.0,99999,,98982.5,0.0,11160023101020020120399904999051989825600007000080000
3100,ENAL,62.5625,6.119699955,2023-05-15 00:20:00,,,,,8.0,99999,99999,7.0,8.0,260.0,10000.0,99999,8.0,98985.6,0.0,1116082608100802070399904999051989856600007000088000
3106,ENDU,69.0558013916,18.5403995514,2023-05-15 00:20:00,,,,,0.0,99999,99999,-1.0,2.0,,10000.0,99999,,0.0,0.0,1116003602100002110399904999051000600007000080000
3121,ENRO,62.5783996582,11.342300415,2023-05-15 00:20:00,,,,,5.0,99999,99999,-0.0,2.0,,10000.0,99999,7.0,98983.0,0.0,1116073602100502100399904999051989830600007000087000
3123,ENRY,59.3788986206,10.7855997086,2023-05-15 00:20:00,,,,,9.0,99999,99999,6.0,4.0,100.0,10000.0,99999,3.0,0.0,0.0,1116031004100902060399904999051000600007000083000
3129,ENTO,59.1866989136,10.258600235,2023-05-15 00:20:00,,,,,10.0,99999,99999,7.0,0.0,0.0,10000.0,99999,3.0,0.0,0.0,1116030000101002070399904999051000600007000083000
3132,ESGG,57.6627998352,12.279800415,2023-05-15 00:20:00,,,,,11.0,99999,99999,5.0,8.0,120.0,10000.0,99999,,98982.0,0.0,1116001208101102050399904999051989820600007000080000
3133,ESGJ,57.757598877,14.0686998367,2023-05-15 00:20:00,,,,,5.0,99999,99999,4.0,1.0,300.0,10000.0,99999,,98980.5,0.0,1116003001100502040399904999051989805600007000080000
3134,ESGP,57.7747001648,11.8704004288,2023-05-15 00:20:00,,,,,8.0,99999,99999,5.0,2.0,50.0,10000.0,99999,,98981.6,0.0,1116000502100802050399904999051989816600007000080000
3135,ESKN,58.7886009216,16.9122009277,2023-05-15 00:20:00,,,,,8.0,99999,99999,4.0,2.0,340.0,10000.0,99999,,98978.5,0.0,1116003402100802040399904999051989785600007000080000
3136,ESMK,55.9216995239,14.0854997635,2023-05-15 00:20:00,,,,,7.0,99999,99999,7.0,3.0,300.0,10000.0,99999,1.0,98981.0,0.0,1116013003100702070399904999051989810600007000081000
3137,ESMS,55.536305364,13.3761978149,2023-05-15 00:20:00,,,,,11.0,99999,99999,5.0,4.0,20.0,10000.0,99999,,98982.0,0.0,1116000204101102050399904999051989820600007000080000
3138,ESMX,56.9291000366,14.7279996872,2023-05-15 00:20:00,,,,,7.0,99999,99999,7.0,2.0,,10000.0,99999,6.0,98980.0,0.0,1116063602100702070399904999051989800600007000086000
3139,ESNN,62.5280990601,17.4438991547,2023-05-15 00:20:00,41.0,36.0,J,yellow,3.0,99999,99999,3.0,3.0,340.0,250.0,99999,,98980.2,0.0,1110003403100302030399904999051989801600007410080000
3140,ESNO,63.4082984924,18.9899997711,2023-05-15 00:20:00,,,,,3.0,99999,99999,3.0,2.0,,10000.0,99999,,98979.7,0.0,1116003602100302030399904999051989796600007000080000
3141,ESNQ,67.8219985962,20.3367996216,2023-05-15 00:20:00,,,,,4.0,99999,99999,0.0,7.0,220.0,10000.0,99999,,98982.8,0.0,1116002207100402000399904999051989828600007000080000
3142,ESNS,64.6248016357,21.0769004822,2023-05-15 00:20:00,,,,,9.0,99999,99999,2.0,3.0,,10000.0,99999,,98981.0,0.0,1116003603100902020399904999051989810600007000080000
3143,ESNU,63.7918014526,20.2828006744,2023-05-15 00:20:00,41.0,36.0,J,yellow,2.0,99999,99999,1.0,2.0,,10000.0,99999,,98980.0,0.0,1116003602100202010399904999051989800600007410080000
3144,ESOK,59.4446983337,13.3374004364,2023-05-15 00:20:00,,,,,9.0,99999,99999,7.0,2.0,140.0,10000.0,99999,3.0,98980.9,0.0,1116031402100902070399904999051989808600007000083000
3146,ESPA,65.543800354,22.1219997406,2023-05-15 00:20:00,,,,,6.0,99999,99999,2.0,5.0,180.0,10000.0,99999,,98981.1,0.0,1116001805100602020399904999051989811600007000080000
3147,ESSB,59.3544006348,17.9416999817,2023-05-15 00:20:00,,,,,9.0,99999,99999,2.0,0.0,0.0,10000.0,99999,1.0,98978.9,0.0,1116010000100902020399904999051989788600007000081000
3148,ESSD,60.422000885,15.5151996613,2023-05-15 00:20:00,,,,,13.0,99999,99999,3.0,3.0,,10000.0,99999,,98981.0,0.0,1116003603101302030399904999051989810600007000080000
3149,ESSP,58.5862998962,16.2506008148,2023-05-15 00:20:00,,,,,8.0,99999,99999,7.0,0.0,0.0,10000.0,99999,,98979.0,0.0,1116000000100802070399904999051989790600007000080000
3150,ESSV,57.6627998352,18.346200943,2023-05-15 00:20:00,,,,,13.0,99999,99999,6.0,11.0,110.0,10000.0,99999,1.0,98978.9,0.0,1116011111101302060399904999051989788600007000081000
3151,LSGC,47.0839004517,6.792840004,2023-05-15 00:20:00,,,,,8.0,99999,99999,8.0,2.0,,10000.0,99999,4.0,98982.9,0.0,1116043602100802080399904999051989828600007000084000
3152,LSGG,46.2380981445,6.1089501381,2023-05-15 00:20:00,,,,,10.0,99999,99999,10.0,2.0,330.0,10000.0,99999,6.0,98983.2,0.0,11160633021010020100399904999051989831600007000086000
3153,LSGS,46.2196006775,7.3267598152,2023-05-15 00:20:00,,,,,12.0,99999,99999,8.0,8.0,260.0,10000.0,99999,2.0,98985.8,0.0,1116022608101202080399904999051989858600007000082000
3154,LSZA,46.0042991638,8.9105796814,2023-05-15 00:20:00,,,,,10.0,99999,99999,10.0,5.0,10.0,10000.0,99999,5.0,98988.0,0.0,11160501051010020100399904999051989880600007000085000
3155,LSZB,46.914100647,7.4971499443,2023-05-15 00:20:00,,,,,9.0,99999,99999,8.0,5.0,90.0,10000.0,99999,3.0,98983.1,1.0,1116030905100902080399904999051989831601007000083000
3156,LSZG,47.1815986633,7.4171900749,2023-05-15 00:20:00,,,,,10.0,99999,99999,10.0,1.0,,7000.0,99999,3.0,98983.1,0.5,11140336011010020100399904999051989831600507000083000
3157,LSZH,47.4646987915,8.5491695404,2023-05-15 00:20:00,,,,,10.0,99999,99999,9.0,2.0,180.0,10000.0,99999,3.0,98983.3,0.0,1116031802101002090399904999051989833600007000083000
3158,LSZL,46.1608009338,8.8786096573,2023-05-15 00:20:00,,,,,11.0,99999,99999,10.0,1.0,,10000.0,99999,6.0,98988.1,0.0,11160636011011020100399904999051989881600007000086000
3159,LSZR,47.4850006104,9.5607700348,2023-05-15 00:20:00,,,,,11.0,99999,99999,11.0,3.0,130.0,10000.0,99999,4.0,98984.3,0.6,11160413031011020110399904999051989843600607000084000
3160,LSZS,46.5340995789,9.8841104507,2023-05-15 00:20:00,,,,,4.0,99999,99999,1.0,11.0,40.0,10000.0,99999,4.0,98984.7,0.0,1116040411100402010399904999051989846600007000084000
3161,EGAA,54.6575012207,-6.2158298492,2023-05-15 00:20:00,,,,,7.0,99999,99999,4.0,9.0,300.0,10000.0,99999,,98977.3,0.0,1116003009100702040399904999051989773600007000080000
3163,EGCC,53.3536987305,-2.2749500275,2023-05-15 00:20:00,,,,,10.0,99999,99999,6.0,7.0,290.0,10000.0,99999,,98979.8,0.0,1116002907101002060399904999051989798600007000080000
3164,EGFF,51.3967018127,-3.3433299065,2023-05-15 00:20:00,,,,,11.0,99999,99999,10.0,6.0,320.0,10000.0,99999,6.0,98978.9,0.1,11160632061011020100399904999051989788600107000086000
3169,EGKK,51.1481018066,-0.1902779937,2023-05-15 00:20:00,,,,,13.0,99999,99999,9.0,5.0,270.0,10000.0,99999,,98982.0,0.0,1116002705101302090399904999051989820600007000080000
3170,EGLF,51.2757987976,-0.7763329744,2023-05-15 00:20:00,,,,,13.0,99999,99999,9.0,6.0,290.0,10000.0,99999,,98981.0,0.0,1116002906101302090399904999051989810600007000080000
3171,EGLL,51.4706001282,-0.4619410038,2023-05-15 00:20:00,,,,,14.0,99999,99999,9.0,5.0,290.0,10000.0,99999,,98980.6,0.0,1116002905101402090399904999051989806600007000080000
3172,EGMD,50.9561004639,0.9391670227,2023-05-15 00:20:00,10.0,36.0,+,yellow,12.0,99999,99999,12.0,8.0,230.0,1000.0,99999,8.0,0.0,0.0,11100823081012020120399904999051000600007100088000
3174,EGNM,53.8658981323,-1.6605700254,2023-05-15 00:20:00,,,,,7.0,99999,99999,2.0,11.0,310.0,10000.0,99999,1.0,98981.0,0.0,1116013111100702020399904999051989810600007000081000
3176,EGNX,52.8311004639,-1.3280600309,2023-05-15 00:20:00,,,,,10.0,99999,99999,8.0,7.0,310.0,10000.0,99999,,98980.9,0.0,1116003107101002080399904999051989808600007000080000
3177,EGPA,58.9578018188,-2.9049999714,2023-05-15 00:20:00,,,,,5.0,99999,99999,4.0,4.0,260.0,10000.0,99999,1.0,98983.2,0.0,1116012604100502040399904999051989831600007000081000
3178,EGPB,59.8788986206,-1.2955600023,2023-05-15 00:20:00,,,,,8.0,99999,99999,6.0,7.0,250.0,10000.0,99999,1.0,98985.0,0.0,1116012507100802060399904999051989850600007000081000
3180,EGPD,57.2019004822,-2.1977798939,2023-05-15 00:20:00,,,,,8.0,99999,99999,6.0,6.0,280.0,10000.0,99999,,98982.1,0.0,1116002806100802060399904999051989821600007000080000
3185,EGTE,50.7344017029,-3.4138898849,2023-05-15 00:20:00,,,,,12.0,99999,99999,11.0,4.0,310.0,10000.0,99999,4.0,98979.0,0.0,11160431041012020110399904999051989790600007000084000
3186,EGAC,54.6180992126,-5.8724999428,2023-05-15 00:20:00,,,,,8.0,99999,99999,4.0,2.0,,10000.0,99999,3.0,98976.8,0.0,1116033602100802040399904999051989768600007000083000
3187,EGGP,53.3335990906,-2.8497200012,2023-05-15 00:20:00,,,,,10.0,99999,99999,5.0,12.0,320.0,10000.0,99999,1.0,0.0,0.0,1116013212101002050399904999051000600007000081000
3188,EGGW,51.8746986389,-0.3683330119,2023-05-15 00:20:00,,,,,12.0,99999,99999,10.0,10.0,330.0,10000.0,99999,3.0,98981.3,0.0,11160333101012020100399904999051989813600007000083000
3190,EGNT,55.0374984741,-1.6916699409,2023-05-15 00:20:00,,,,,6.0,99999,99999,3.0,7.0,300.0,10000.0,99999,,98982.0,0.0,1116003007100602030399904999051989820600007000080000
3191,EGPC,58.4589004517,-3.0930600166,2023-05-15 00:20:00,,,,,5.0,99999,99999,2.0,5.0,230.0,10000.0,99999,,98982.6,0.0,1116002305100502020399904999051989826600007000080000
3192,EGPE,57.5424995422,-4.0475001335,2023-05-15 00:20:00,,,,,7.0,99999,99999,4.0,5.0,240.0,10000.0,99999,6.0,98980.6,0.0,1116062405100702040399904999051989806600007000086000
3193,EGPF,55.8718986511,-4.4330601692,2023-05-15 00:20:00,,,,,6.0,99999,99999,3.0,6.0,240.0,10000.0,99999,,98979.0,0.0,1116002406100602030399904999051989790600007000080000
3194,EGPL,57.481098175,-7.3627800941,2023-05-15 00:20:00,,,,,8.0,99999,99999,4.0,14.0,280.0,10000.0,99999,1.0,98979.8,0.0,1116012814100802040399904999051989798600007000081000
3205,EDGS,50.707698822,8.0829696655,2023-05-15 00:20:00,,,,,10.0,99999,99999,7.0,6.0,320.0,10000.0,99999,,98984.0,0.0,1116003206101002070399904999051989840600007000080000
3206,EDLV,51.6024017334,6.1421699524,2023-05-15 00:20:00,,,,,12.0,99999,99999,10.0,3.0,310.0,8000.0,99999,6.0,0.0,0.0,11140631031012020100399904999051000600007000086000
3209,EGPI,55.6819000244,-6.2566699982,2023-05-15 00:20:00,,,,,5.0,99999,99999,4.0,1.0,50.0,10000.0,99999,6.0,98978.0,0.0,1116060501100502040399904999051989780600007000086000
3216,ESNG,67.1324005127,20.8145999908,2023-05-15 00:20:00,,,,,99999.0,99999,99999,99999.0,3.0,310.0,10000.0,99999,,98983.0,0.0,11160031031099999020999990399904999051989830600007000080000
3217,ESNK,63.0485992432,17.7688999176,2023-05-15 00:20:00,,,,,99999.0,99999,99999,99999.0,0.0,0.0,10000.0,99999,1.0,98981.0,0.0,11160100001099999020999990399904999051989810600007000081000
3218,ESNL,64.5483016968,18.7161998749,2023-05-15 00:20:00,,,,,4.0,99999,99999,-0.0,2.0,150.0,10000.0,99999,,0.0,0.0,1116001502100402100399904999051000600007000080000
3219,ESNX,65.5903015137,19.2819004059,2023-05-15 00:20:00,,,,,7.0,99999,99999,2.0,4.0,50.0,10000.0,99999,6.0,0.0,0.0,1116060504100702020399904999051000600007000086000
3220,ESOE,59.2237014771,15.0380001068,2023-05-15 00:20:00,,,,,7.0,99999,99999,5.0,2.0,,10000.0,99999,,98980.1,0.0,1116003602100702050399904999051989801600007000080000
3221,ESSL,58.4062004089,15.6805000305,2023-05-15 00:20:00,,,,,8.0,99999,99999,4.0,2.0,80.0,10000.0,99999,1.0,98979.4,0.0,1116010802100802040399904999051989793600007000081000
3222,ESUT,65.806098938,15.0827999115,2023-05-15 00:20:00,,,,,-0.0,99999,99999,-0.0,3.0,,10000.0,99999,,98982.5,0.0,1116003603110002100399904999051989825600007000080000
3224,EETN,59.4132995605,24.8327999115,2023-05-15 00:20:00,,,,,7.0,99999,99999,2.0,0.0,0.0,10000.0,99999,,98977.0,0.0,1116000000100702020399904999051989770600007000080000
3226,EFHK,60.317199707,24.963300705,2023-05-15 00:20:00,,,,,6.0,99999,99999,4.0,0.0,0.0,10000.0,99999,,98977.0,0.0,1116000000100602040399904999051989770600007000080000
3227,EVLA,56.5175018311,21.0969009399,2023-05-15 00:20:00,,,,,12.0,99999,99999,4.0,7.0,70.0,10000.0,99999,,98979.0,0.0,1116000707101202040399904999051989790600007000080000
3228,EVRA,56.9235992432,23.9710998535,2023-05-15 00:20:00,,,,,5.0,99999,99999,3.0,0.0,0.0,10000.0,99999,,0.0,0.0,1116000000100502030399904999051000600007000080000
3229,EYKA,54.9639015198,24.0848007202,2023-05-15 00:20:00,,,,,13.0,99999,99999,5.0,6.0,90.0,10000.0,99999,8.0,0.0,0.0,1116080906101302050399904999051000600007000088000
3230,EYPA,55.9732017517,21.0939006805,2023-05-15 00:20:00,,,,,16.0,99999,99999,3.0,7.0,90.0,1000.0,99999,,98979.3,0.0,1110000907101602030399904999051989793600007000080000
3231,EYVI,54.6341018677,25.2858009338,2023-05-15 00:20:00,,,,,14.0,99999,99999,2.0,1.0,,10000.0,99999,,98978.4,0.0,1116003601101402020399904999051989783600007000080000
3241,ENBL,61.3911018372,5.756939888,2023-05-15 00:20:00,,,,,7.0,99999,99999,6.0,3.0,220.0,6000.0,99999,7.0,98985.1,0.0,1113072203100702060399904999051989851600007000087000
3242,ENBV,70.8713989258,29.0342006683,2023-05-15 00:20:00,,,,,7.0,99999,99999,4.0,9.0,240.0,10000.0,99999,8.0,98984.0,0.0,1116082409100702040399904999051989840600007000088000
3243,ENFL,61.5835990906,5.024720192,2023-05-15 00:20:00,,,,,8.0,99999,99999,6.0,12.0,200.0,10000.0,99999,8.0,98985.0,0.0,1116082012100802060399904999051989850600007000088000
3244,ENHK,70.4867019653,22.1396999359,2023-05-15 00:20:00,,,,,8.0,99999,99999,4.0,6.0,120.0,10000.0,99999,8.0,98984.0,0.0,1116081206100802040399904999051989840600007000088000
3245,ENHV,71.0096969604,25.9836006165,2023-05-15 00:20:00,,,,,7.0,99999,99999,4.0,12.0,190.0,10000.0,99999,7.0,98984.0,0.0,1116071912100702040399904999051989840600007000087000
3246,ENKB,63.1118011475,7.8245201111,2023-05-15 00:20:00,,,,,8.0,99999,99999,7.0,5.0,290.0,10000.0,99999,4.0,0.0,0.0,1116042905100802070399904999051000600007000084000
3247,ENKR,69.7257995605,29.8913002014,2023-05-15 00:20:00,,,,,7.0,99999,99999,4.0,5.0,180.0,10000.0,99999,1.0,0.0,0.0,1116011805100702040399904999051000600007000081000
3248,ENML,62.7447013855,7.2624998093,2023-05-15 00:20:00,,,,,10.0,99999,99999,6.0,9.0,10.0,10000.0,99999,3.0,98986.0,0.0,1116030109101002060399904999051989860600007000083000
3249,ENSS,70.3554000854,31.0449008942,2023-05-15 00:20:00,,,,,8.0,99999,99999,5.0,8.0,250.0,10000.0,99999,7.0,98983.0,0.0,1116072508100802050399904999051989830600007000087000
3259,ENHF,70.6797027588,23.6686000824,2023-05-15 00:20:00,,,,,9.0,99999,99999,4.0,4.0,260.0,10000.0,99999,6.0,0.0,0.0,1116062604100902040399904999051000600007000086000
3260,ENNM,64.4721984863,11.5785999298,2023-05-15 00:20:00,,,,,13.0,99999,99999,1.0,4.0,70.0,10000.0,99999,,98985.0,0.0,1116000704101302010399904999051989850600007000080000
3261,ENOV,62.1800003052,6.0741000175,2023-05-15 00:20:00,,,,,10.0,99999,99999,6.0,3.0,,10000.0,99999,8.0,0.0,0.0,1116083603101002060399904999051000600007000088000
3262,ENSD,61.8300018311,6.1058301926,2023-05-15 00:20:00,,,,,11.0,99999,99999,6.0,5.0,350.0,10000.0,99999,1.0,0.0,0.0,1116013505101102060399904999051000600007000081000
3263,ENSG,61.1561012268,7.1377801895,2023-05-15 00:20:00,,,,,10.0,99999,99999,1.0,4.0,250.0,10000.0,99999,3.0,98982.8,0.0,1116032504101002010399904999051989828600007000083000
3265,LGKO,36.7933006287,27.0916996002,2023-05-15 00:20:00,,,,,19.0,99999,99999,8.0,8.0,340.0,10000.0,99999,,98981.3,0.0,1116003408101902080399904999051989813600007000080000
3266,LGSO,37.4227981567,24.9508991241,2023-05-15 00:20:00,,,,,17.0,99999,99999,14.0,2.0,,10000.0,99999,,0.0,0.0,11160036021017020140399904999051000600007000080000
3267,LGTS,40.5196990967,22.9708995819,2023-05-15 00:20:00,,,,,15.0,99999,99999,14.0,2.0,,10000.0,99999,1.0,98978.5,0.0,11160136021015020140399904999051989785600007000081000
3268,LIBR,40.6576004028,17.9470005035,2023-05-15 00:20:00,17.0,36.0,2,red,17.0,99999,99999,15.0,4.0,170.0,10000.0,99999,1.0,98985.9,0.0,11160117041017020150399904999051989858600007170081000
3269,LIPE,44.5354003906,11.2887001038,2023-05-15 00:20:00,,,,,13.0,99999,99999,12.0,2.0,250.0,10000.0,99999,6.0,98987.6,0.0,11160625021013020120399904999051989876600007000086000
3270,LIPH,45.648399353,12.1943998337,2023-05-15 00:20:00,,,,,12.0,99999,99999,11.0,3.0,250.0,10000.0,99999,4.0,98988.9,0.0,11160425031012020110399904999051989888600007000084000
3271,LIPZ,45.5052986145,12.3519001007,2023-05-15 00:20:00,,,,,12.0,99999,99999,11.0,6.0,300.0,10000.0,99999,3.0,98988.1,0.0,11160330061012020110399904999051989881600007000083000
3276,EDDB,52.362167,13.500667,2023-05-15 00:20:00,,,,,10.0,99999,99999,7.0,2.0,350.0,10000.0,99999,,98984.5,0.0,1116003502101002070399904999051989845600007000080000
3278,EDDE,50.979801178,10.9581003189,2023-05-15 00:20:00,,,,,8.0,99999,99999,7.0,6.0,220.0,10000.0,99999,,98984.8,0.0,1116002206100802070399904999051989848600007000080000
3279,EDDF,50.0264015198,8.543129921,2023-05-15 00:20:00,,,,,10.0,99999,99999,9.0,1.0,,10000.0,99999,,98984.7,0.0,1116003601101002090399904999051989846600007000080000
3280,EDDG,52.134601593,7.6848301888,2023-05-15 00:20:00,,,,,11.0,99999,99999,9.0,2.0,,10000.0,99999,,98983.8,0.0,1116003602101102090399904999051989838600007000080000
3281,EDDH,53.6304016113,9.9882297516,2023-05-15 00:20:00,,,,,9.0,99999,99999,8.0,2.0,,10000.0,99999,,98983.3,0.0,1116003602100902080399904999051989833600007000080000
3282,EDDK,50.8658981323,7.1427397728,2023-05-15 00:20:00,,,,,11.0,99999,99999,9.0,2.0,,10000.0,99999,,98983.6,0.0,1116003602101102090399904999051989836600007000080000
3283,EDDL,51.2895011902,6.7667798996,2023-05-15 00:20:00,,,,,13.0,99999,99999,12.0,4.0,330.0,8000.0,99999,,98983.4,0.0,11140033041013020120399904999051989833600007000080000
3285,EDDN,49.4986991882,11.0669002533,2023-05-15 00:20:00,,,,,10.0,99999,99999,9.0,2.0,100.0,8000.0,99999,,98985.5,0.0,1114001002101002090399904999051989855600007000080000
3286,EDDP,51.4323997498,12.2416000366,2023-05-15 00:20:00,,,,,10.0,99999,99999,8.0,2.0,,10000.0,99999,,98985.0,0.0,1116003602101002080399904999051989850600007000080000
3287,EDDR,49.2145996094,7.1095099449,2023-05-15 00:20:00,,,,,10.0,99999,99999,8.0,3.0,300.0,10000.0,99999,,98984.2,0.0,1116003003101002080399904999051989841600007000080000
3288,EDDS,48.6898994446,9.2219600677,2023-05-15 00:20:00,,,,,8.0,99999,99999,7.0,2.0,,10000.0,99999,,98985.7,0.0,1116003602100802070399904999051989856600007000080000
3290,EDDW,53.0475006104,8.7866697311,2023-05-15 00:20:00,,,,,10.0,99999,99999,8.0,2.0,250.0,10000.0,99999,,98983.6,0.0,1116002502101002080399904999051989836600007000080000
3292,EDFM,49.4730567932,8.514166832,2023-05-15 00:20:00,,,,,12.0,99999,99999,9.0,5.0,340.0,10000.0,99999,7.0,98985.2,0.0,1116073405101202090399904999051989851600007000087000
3308,ENBN,65.4610977173,12.217499733,2023-05-15 00:20:00,,,,,15.0,99999,99999,2.0,16.0,160.0,10000.0,99999,,0.0,0.0,1116001616101502020399904999051000600007000080000
3309,ENBS,70.6005020142,29.691400528,2023-05-15 00:20:00,,,,,8.0,99999,99999,5.0,8.0,260.0,10000.0,99999,8.0,98982.7,0.0,1116082608100802050399904999051989826600007000088000
3310,ENMH,71.0297012329,27.8267002106,2023-05-15 00:20:00,,,,,6.0,99999,99999,4.0,14.0,200.0,10000.0,99999,7.0,98984.0,0.2,1116072014100602040399904999051989840600207000087000
3311,ENRA,66.363899231,14.3014001846,2023-05-15 00:20:00,,,,,4.0,99999,99999,2.0,3.0,340.0,10000.0,99999,6.0,0.0,0.0,1116063403100402020399904999051000600007000086000
3312,ENSR,69.7867965698,20.959400177,2023-05-15 00:20:00,,,,,7.0,99999,99999,1.0,2.0,,10000.0,99999,1.0,98984.0,0.0,1116013602100702010399904999051989840600007000081000
3313,LGAD,37.9207000732,21.2926006317,2023-05-15 00:20:00,,,,,15.0,99999,99999,13.0,3.0,,10000.0,99999,,98982.6,0.0,11160036031015020130399904999051989826600007000080000
3314,LGEL,38.0638008118,23.5559997559,2023-05-15 00:20:00,,,,,15.0,99999,99999,8.0,0.0,0.0,10000.0,99999,1.0,98980.0,0.0,1116010000101502080399904999051989800600007000081000
3315,LGSA,35.5317001343,24.1497001648,2023-05-15 00:20:00,,,,,16.0,99999,99999,15.0,0.0,0.0,10000.0,99999,1.0,98981.4,0.0,11160100001016020150399904999051989813600007000081000
3316,LGSR,36.3992004395,25.4792995453,2023-05-15 00:20:00,,,,,17.0,99999,99999,9.0,6.0,270.0,10000.0,99999,1.0,98980.8,0.0,1116012706101702090399904999051989808600007000081000
3317,LIBD,41.1389007568,16.7605991364,2023-05-15 00:20:00,,,,,17.0,99999,99999,17.0,3.0,110.0,4000.0,99999,6.0,98987.7,1.8,11120611031017020170399904999051989876601807000086000
3319,LICC,37.4668006897,15.0663995743,2023-05-15 00:20:00,,,,,17.0,99999,99999,16.0,5.0,200.0,8000.0,99999,1.0,98988.3,0.0,11140120051017020160399904999051989883600007000081000
3321,LIPQ,45.8274993896,13.4722003937,2023-05-15 00:20:00,63.0,36.0,',green,13.0,99999,99999,13.0,3.0,20.0,5000.0,99999,8.0,98989.1,0.4,11130802031013020130399904999051989891600407630088000
3322,LIPR,44.0203018188,12.611700058,2023-05-15 00:20:00,,,,,11.0,99999,99999,10.0,2.0,220.0,10000.0,99999,6.0,98987.3,0.0,11160622021011020100399904999051989873600007000086000
3323,LIPX,45.3956985474,10.8885002136,2023-05-15 00:20:00,41.0,36.0,J,yellow,12.0,99999,99999,11.0,5.0,290.0,6000.0,99999,6.0,98987.5,0.0,11130629051012020110399904999051989875600007410086000
3324,LIRF,41.8045005798,12.2508001328,2023-05-15 00:20:00,,,,,13.0,99999,99999,12.0,3.0,90.0,10000.0,99999,3.0,98986.5,0.0,11160309031013020120399904999051989865600007000083000
3345,ESDF,56.2667007446,15.2650003433,2023-05-15 00:20:00,,,,,12.0,99999,99999,7.0,4.0,50.0,10000.0,99999,7.0,98980.2,0.0,1116070504101202070399904999051989801600007000087000
3346,ESOW,59.5894012451,16.633600235,2023-05-15 00:20:00,,,,,8.0,99999,99999,2.0,2.0,,10000.0,99999,1.0,98979.0,0.0,1116013602100802020399904999051989790600007000081000
3358,LIEA,40.6320991516,8.290769577,2023-05-15 00:20:00,,,,,10.0,99999,99999,10.0,3.0,70.0,10000.0,99999,1.0,98985.7,0.0,11160107031010020100399904999051989856600007000081000
3359,LIEE,39.251499176,9.0542802811,2023-05-15 00:20:00,,,,,13.0,99999,99999,12.0,7.0,340.0,10000.0,99999,,98985.1,0.0,11160034071013020120399904999051989851600007000080000
3360,LIEO,40.8987007141,9.5176296234,2023-05-15 00:20:00,,,,,13.0,99999,99999,12.0,4.0,220.0,10000.0,99999,,98985.2,0.0,11160022041013020120399904999051989851600007000080000
3361,LIMC,45.6305999756,8.7281103134,2023-05-15 00:20:00,,,,,10.0,99999,99999,9.0,5.0,20.0,10000.0,99999,3.0,98987.8,0.0,1116030205101002090399904999051989878600007000083000
3362,LIME,45.6739006042,9.7041702271,2023-05-15 00:20:00,,,,,11.0,99999,99999,11.0,1.0,,10000.0,99999,6.0,98987.2,0.0,11160636011011020110399904999051989871600007000086000
3363,LIMF,45.2008018494,7.6496300697,2023-05-15 00:20:00,,,,,12.0,99999,99999,11.0,5.0,30.0,10000.0,99999,6.0,98988.2,0.0,11160603051012020110399904999051989881600007000086000
3364,LIMJ,44.4132995605,8.8374996185,2023-05-15 00:20:00,,,,,15.0,99999,99999,12.0,4.0,60.0,10000.0,99999,1.0,98987.6,0.0,11160106041015020120399904999051989876600007000081000
3365,LIML,45.445098877,9.2767400742,2023-05-15 00:20:00,,,,,12.0,99999,99999,11.0,3.0,60.0,10000.0,99999,6.0,98987.5,0.0,11160606031012020110399904999051989875600007000086000
3367,LIRA,41.7994003296,12.5949001312,2023-05-15 00:20:00,,,,,14.0,99999,99999,11.0,2.0,170.0,10000.0,99999,3.0,98986.6,0.0,11160317021014020110399904999051989866600007000083000
3369,LIRP,43.6838989258,10.3927001953,2023-05-15 00:15:00,61.0,36.0,^,green,13.0,99999,99999,13.0,2.0,,10000.0,99999,3.0,98986.8,0.0,11160336021013020130399904999051989868600007610083000
3373,EBCI,50.4592018127,4.4538202286,2023-05-15 00:20:00,10.0,36.0,+,yellow,8.0,99999,99999,7.0,5.0,290.0,4000.0,99999,,98981.1,0.0,1112002905100802070399904999051989811600007100080000
3374,EBLG,50.6374015808,5.4432201385,2023-05-15 00:20:00,10.0,36.0,+,yellow,10.0,99999,99999,9.0,3.0,250.0,3200.0,99999,6.0,98982.1,0.0,1111062503101002090399904999051989821600007100086000
3375,EBOS,51.1988983154,2.8622200489,2023-05-15 00:20:00,10.0,36.0,+,yellow,10.0,99999,99999,9.0,5.0,270.0,3500.0,99999,4.0,98980.1,0.0,1112042705101002090399904999051989801600007100084000
3376,EDAH,53.8787002563,14.152299881,2023-05-15 00:20:00,,,,,10.0,99999,99999,9.0,2.0,,10000.0,99999,3.0,98983.8,0.0,1116033602101002090399904999051989838600007000083000
3377,EDDC,51.1328010559,13.76720047,2023-05-15 00:20:00,,,,,11.0,99999,99999,8.0,0.0,0.0,10000.0,99999,,98984.4,0.0,1116000000101102080399904999051989843600007000080000
3378,EDDV,52.461101532,9.6850795746,2023-05-15 00:20:00,,,,,8.0,99999,99999,7.0,2.0,240.0,10000.0,99999,,98984.1,0.0,1116002402100802070399904999051989841600007000080000
3380,EDHI,53.5352783203,9.8355560303,2023-05-15 00:20:00,,,,,12.0,99999,99999,8.0,2.0,,10000.0,99999,,98984.0,0.0,1116003602101202080399904999051989840600007000080000
3381,EDHK,54.3794441223,10.145277977,2023-05-15 00:20:00,,,,,11.0,99999,99999,10.0,4.0,30.0,7000.0,99999,1.0,98984.0,0.0,11140103041011020100399904999051989840600007000081000
3382,EDMO,48.081401825,11.2831001282,2023-05-15 00:20:00,,,,,9.0,99999,99999,9.0,5.0,290.0,10000.0,99999,4.0,98986.1,0.0,1116042905100902090399904999051989861600007000084000
3383,EDTL,48.3693008423,7.8277201653,2023-05-15 00:20:00,,,,,12.0,99999,99999,9.0,5.0,190.0,10000.0,99999,3.0,98984.8,0.0,1116031905101202090399904999051989848600007000083000
3384,EDVE,52.3191986084,10.5560998917,2023-05-15 00:20:00,,,,,11.0,99999,99999,8.0,0.0,0.0,10000.0,99999,6.0,98984.4,0.0,1116060000101102080399904999051989843600007000086000
3385,EDVK,51.4083328247,9.3774995804,2023-05-15 00:20:00,,,,,8.0,99999,99999,6.0,2.0,270.0,10000.0,99999,,98985.0,0.0,1116002702100802060399904999051989850600007000080000
3386,EDXW,54.9132003784,8.340470314,2023-05-15 00:20:00,,,,,12.0,99999,99999,9.0,4.0,130.0,10000.0,99999,6.0,98982.8,0.0,1116061304101202090399904999051989828600007000086000
3387,EGJJ,49.207901001,-2.1955099106,2023-05-15 00:20:00,,,,,12.0,99999,99999,12.0,10.0,280.0,5000.0,99999,8.0,98978.2,0.0,11130828101012020120399904999051989781600007000088000
3403,LOWW,48.1102981567,16.5697002411,2023-05-15 00:20:00,53.0,36.0,V,green,11.0,99999,99999,11.0,2.0,10.0,4000.0,99999,4.0,98987.7,0.1,11120401021011020110399904999051989876600107530084000
3404,LOWL,48.2332000732,14.1875,2023-05-15 00:20:00,61.0,36.0,^,green,10.0,99999,99999,10.0,4.0,270.0,7000.0,99999,3.0,98985.9,0.5,11140327041010020100399904999051989858600507610083000
3405,LOWS,47.7933006287,13.0043001175,2023-05-15 00:20:00,61.0,36.0,^,green,9.0,99999,99999,9.0,5.0,290.0,10000.0,99999,3.0,98986.5,2.0,1116032905100902090399904999051989865602007610083000
3406,LOWI,47.2602005005,11.3439998627,2023-05-15 00:20:00,51.0,36.0,T,green,10.0,99999,99999,9.0,3.0,,10000.0,99999,3.0,98985.6,0.2,1116033603101002090399904999051989856600207510083000
3407,LOWG,46.9911003113,15.4395999908,2023-05-15 00:20:00,,,,,10.0,99999,99999,9.0,1.0,,10000.0,99999,8.0,98987.9,0.0,1116083601101002090399904999051989878600007000088000
3408,LOWK,46.6425018311,14.3376998901,2023-05-15 00:20:00,,,,,10.0,99999,99999,9.0,2.0,,10000.0,99999,3.0,98987.3,0.0,1116033602101002090399904999051989873600007000083000
3409,EEKE,58.2299003601,22.5095005035,2023-05-15 00:20:00,,,,,5.0,99999,99999,4.0,3.0,20.0,10000.0,99999,,98976.7,0.0,1116000203100502040399904999051989766600007000080000
3410,EETU,58.3074989319,26.6903991699,2023-05-15 00:20:00,,,,,11.0,99999,99999,6.0,1.0,60.0,10000.0,99999,4.0,98977.1,0.0,1116040601101102060399904999051989771600007000084000
3411,EEPU,58.4189987183,24.4727993011,2023-05-15 00:20:00,,,,,8.0,99999,99999,2.0,5.0,60.0,10000.0,99999,,0.0,0.0,1116000605100802020399904999051000600007000080000
3412,EBAW,51.1893997192,4.4602799416,2023-05-15 00:20:00,10.0,36.0,+,yellow,10.0,99999,99999,8.0,5.0,260.0,4900.0,99999,,98982.0,0.0,1113002605101002080399904999051989820600007100080000
3413,EBBR,50.9014015198,4.4844398499,2023-05-15 00:20:00,10.0,36.0,+,yellow,9.0,99999,99999,8.0,4.0,290.0,4500.0,99999,,98982.0,0.0,1112002904100902080399904999051989820600007100080000
3414,EGPH,55.9500007629,-3.3724999428,2023-05-15 00:20:00,,,,,5.0,99999,99999,2.0,3.0,220.0,10000.0,99999,,98980.7,0.0,1116002203100502020399904999051989806600007000080000
3415,EGPK,55.5093994141,-4.5866699219,2023-05-15 00:20:00,,,,,8.0,99999,99999,4.0,6.0,320.0,10000.0,99999,1.0,98979.0,0.0,1116013206100802040399904999051989790600007000081000
3416,EGPO,58.2155990601,-6.3311100006,2023-05-15 00:20:00,,,,,4.0,99999,99999,3.0,6.0,230.0,10000.0,99999,,98981.4,0.0,1116002306100402030399904999051989813600007000080000
3417,EGPU,56.4991989136,-6.8691701889,2023-05-15 00:20:00,,,,,8.0,99999,99999,4.0,11.0,290.0,10000.0,99999,3.0,98978.5,0.0,1116032911100802040399904999051989785600007000083000
3418,EKAH,56.2999992371,10.6190004349,2023-05-15 00:20:00,,,,,8.0,99999,99999,5.0,0.0,0.0,10000.0,99999,,98982.0,0.0,1116000000100802050399904999051989820600007000080000
3419,EKKA,56.2975006104,9.1246299744,2023-05-15 00:20:00,,,,,10.0,99999,99999,7.0,3.0,120.0,10000.0,99999,4.0,98982.6,0.0,1116041203101002070399904999051989826600007000084000
3420,EKYT,57.0927589138,9.8492431641,2023-05-15 00:20:00,,,,,10.0,99999,99999,8.0,3.0,70.0,10000.0,99999,6.0,98982.2,0.0,1116060703101002080399904999051989821600007000086000
3421,ENAN,69.2925033569,16.1441993713,2023-05-15 00:20:00,,,,,7.0,99999,99999,3.0,8.0,160.0,10000.0,99999,,0.0,0.0,1116001608100702030399904999051000600007000080000
3422,ENBO,67.269203186,14.3653001785,2023-05-15 00:20:00,,,,,12.0,99999,99999,4.0,14.0,100.0,10000.0,99999,,98984.1,0.0,1116001014101202040399904999051989841600007000080000
3423,ENGM,60.193901062,11.100399971,2023-05-15 00:20:00,,,,,7.0,99999,99999,5.0,2.0,,10000.0,99999,,0.0,0.0,1116003602100702050399904999051000600007000080000
3424,ENOL,63.6988983154,9.6040000916,2023-05-15 00:20:00,,,,,9.0,99999,99999,7.0,5.0,60.0,10000.0,99999,,98985.2,0.0,1116000605100902070399904999051989851600007000080000
3425,ENSH,68.2433013916,14.6691999435,2023-05-15 00:20:00,,,,,6.0,99999,99999,4.0,6.0,350.0,10000.0,99999,,98984.0,0.0,1116003506100602040399904999051989840600007000080000
3426,ENTC,69.6832962036,18.9188995361,2023-05-15 00:20:00,,,,,6.0,99999,99999,2.0,5.0,,10000.0,99999,,98983.7,0.0,1116003605100602020399904999051989836600007000080000
3450,EDFH,49.9486999512,7.2638897896,2023-05-15 00:20:00,,,,,10.0,99999,99999,8.0,4.0,280.0,10000.0,99999,,98983.6,0.0,1116002804101002080399904999051989836600007000080000
3453,EDLP,51.6141014099,8.6163196564,2023-05-15 00:20:00,,,,,9.0,99999,99999,7.0,2.0,,10000.0,99999,,98984.0,0.0,1116003602100902070399904999051989840600007000080000
3457,EDSB,48.7793998718,8.0804996491,2023-05-15 00:20:00,,,,,10.0,99999,99999,9.0,5.0,210.0,10000.0,99999,,98984.5,0.0,1116002105101002090399904999051989845600007000080000
3458,ELLX,49.6265983582,6.211520195,2023-05-15 00:20:00,,,,,12.0,99999,99999,9.0,12.0,340.0,10000.0,99999,,98983.4,0.0,1116003412101202090399904999051989833600007000080000
3459,ESKM,60.957901001,14.5114002228,2023-05-15 00:20:00,,,,,9.0,99999,99999,6.0,2.0,300.0,10000.0,99999,8.0,98980.5,0.0,1116083002100902060399904999051989805600007000088000
3469,ENAT,69.9760971069,23.3717002869,2023-05-15 00:20:00,,,,,6.0,99999,99999,4.0,2.0,150.0,10000.0,99999,8.0,98982.5,0.0,1116081502100602040399904999051989825600007000088000
3470,ENEV,68.4913024902,16.6781005859,2023-05-15 00:20:00,,,,,5.0,99999,99999,4.0,6.0,210.0,10000.0,99999,,0.0,0.0,1116002106100502040399904999051000600007000080000
3471,ENMS,65.783996582,13.2149000168,2023-05-15 00:20:00,,,,,6.0,99999,99999,2.0,0.0,0.0,10000.0,99999,,0.0,0.0,1116000000100602020399904999051000600007000080000
3472,ENNA,70.0688018799,24.9734992981,2023-05-15 00:20:00,,,,,8.0,99999,99999,3.0,9.0,160.0,10000.0,99999,8.0,98983.0,0.0,1116081609100802030399904999051989830600007000088000
3473,ENRM,64.8383026123,11.1461000443,2023-05-15 00:20:00,,,,,13.0,99999,99999,3.0,7.0,160.0,10000.0,99999,,98987.0,0.0,1116001607101302030399904999051989870600007000080000
3474,ENRS,67.5278015137,12.1033000946,2023-05-15 00:20:00,,,,,7.0,99999,99999,6.0,5.0,150.0,10000.0,99999,8.0,0.0,0.0,1116081505100702060399904999051000600007000088000
3475,ENSK,68.5788269043,15.033416748,2023-05-15 00:20:00,,,,,8.0,99999,99999,4.0,9.0,160.0,10000.0,99999,,98985.0,0.0,1116001609100802040399904999051989850600007000080000
3476,ENVD,70.0652999878,29.8446998596,2023-05-15 00:20:00,,,,,4.0,99999,99999,1.0,3.0,30.0,10000.0,99999,6.0,0.0,0.0,1116060303100402010399904999051000600007000086000
3479,EGSH,52.6758003235,1.2827800512,2023-05-15 00:20:00,,,,,13.0,99999,99999,12.0,5.0,230.0,10000.0,99999,,98981.8,0.0,11160023051013020120399904999051989818600007000080000
3485,LIBP,42.4317016602,14.1810998917,2023-05-15 00:20:00,,,,,15.0,99999,99999,14.0,2.0,,10000.0,99999,6.0,98987.3,0.0,11160636021015020140399904999051989873600007000086000
3486,LICA,38.9053993225,16.2423000336,2023-05-15 00:20:00,10.0,36.0,+,yellow,16.0,99999,99999,16.0,1.0,,4300.0,99999,,98986.4,0.0,11120036011016020160399904999051989863600007100080000
3487,LICR,38.0712013245,15.651599884,2023-05-15 00:20:00,,,,,17.0,99999,99999,16.0,8.0,360.0,10000.0,99999,1.0,98989.0,0.2,11160136081017020160399904999051989890600207000081000
3488,LIPY,43.6162986755,13.3622999191,2023-05-15 00:20:00,,,,,12.0,99999,99999,11.0,3.0,190.0,10000.0,99999,6.0,98988.0,0.0,11160619031012020110399904999051989880600007000086000
3490,LICD,35.4978981018,12.6181001663,2023-05-15 00:20:00,61.0,36.0,^,green,17.0,99999,99999,16.0,20.0,10.0,10000.0,99999,4.0,98990.0,0.0,11160401201017020160399904999051989900600007610084000
3491,LIRZ,43.0959014893,12.5131998062,2023-05-15 00:20:00,,,,,12.0,99999,99999,11.0,1.0,,10000.0,99999,6.0,98987.3,0.0,11160636011012020110399904999051989873600007000086000
3494,EHDL,52.0606002808,5.8730602264,2023-05-15 00:25:00,,,,,9.0,99999,99999,9.0,3.0,320.0,10000.0,99999,8.0,98983.0,0.0,1116083203100902090399904999051989830600007000088000
3498,EHLE,52.4603004456,5.5272197723,2023-05-15 00:25:00,,,,,10.0,99999,99999,9.0,5.0,320.0,10000.0,99999,1.0,98982.4,0.0,1116013205101002090399904999051989823600007000081000
3500,EHVK,51.6563987732,5.7086100578,2023-05-15 00:25:00,,,,,11.0,99999,99999,10.0,3.0,290.0,10000.0,99999,8.0,98982.6,0.0,11160829031011020100399904999051989826600007000088000
3512,EGVN,51.75,-1.5836199522,2023-05-15 00:20:00,61.0,36.0,^,green,12.0,99999,99999,10.0,11.0,340.0,10000.0,99999,3.0,98981.0,0.0,11160334111012020100399904999051989810600007610083000
3513,EFKI,64.2854995728,27.6923999786,2023-05-15 00:20:00,,,,,5.0,99999,99999,3.0,2.0,,10000.0,99999,,98978.0,0.0,1116003602100502030399904999051989780600007000080000
3514,EFKU,63.0070991516,27.7978000641,2023-05-15 00:20:00,,,,,10.0,99999,99999,7.0,4.0,140.0,10000.0,99999,,98978.0,0.0,1116001404101002070399904999051989780600007000080000
3560,EYSA,55.893901825,23.3950004578,2023-05-15 00:20:00,,,,,13.0,99999,99999,3.0,6.0,60.0,10000.0,99999,,0.0,0.0,1116000606101302030399904999051000600007000080000
3570,EGBB,52.4538993835,-1.7480299473,2023-05-15 00:20:00,,,,,10.0,99999,99999,8.0,12.0,330.0,10000.0,99999,1.0,98979.8,0.0,1116013312101002080399904999051989798600007000081000
3571,EGGD,51.3827018738,-2.7190899849,2023-05-15 00:20:00,,,,,11.0,99999,99999,11.0,9.0,330.0,2900.0,99999,7.0,98980.0,0.0,11110733091011020110399904999051989800600007000087000
3572,EGLC,51.5052986145,0.0552779995,2023-05-15 00:20:00,,,,,16.0,99999,99999,10.0,6.0,310.0,10000.0,99999,6.0,98982.0,0.0,11160631061016020100399904999051989820600007000086000
3573,EGNJ,53.5744018555,-0.3508329988,2023-05-15 00:20:00,,,,,12.0,99999,99999,8.0,11.0,290.0,10000.0,99999,,98982.0,0.0,1116002911101202080399904999051989820600007000080000
3574,EGSS,51.8849983215,0.2349999994,2023-05-15 00:20:00,,,,,13.0,99999,99999,9.0,7.0,320.0,10000.0,99999,6.0,98981.0,0.0,1116063207101302090399904999051989810600007000086000
3576,LIRN,40.8860015869,14.2908000946,2023-05-15 00:20:00,,,,,15.0,99999,99999,14.0,2.0,,10000.0,99999,3.0,98986.6,0.0,11160336021015020140399904999051989866600007000083000
3625,EDAC,50.9819450378,12.5063886642,2023-05-15 00:20:00,,,,,8.0,99999,99999,7.0,2.0,130.0,3000.0,99999,1.0,98984.2,0.0,1111011302100802070399904999051989841600007000081000
3626,EDHL,53.8054008484,10.7192001343,2023-05-15 00:20:00,,,,,9.0,99999,99999,8.0,0.0,0.0,10000.0,99999,1.0,98983.2,0.0,1116010000100902080399904999051989831600007000081000
3627,EDLN,51.2302780151,6.5044441223,2023-05-15 00:20:00,,,,,13.0,99999,99999,11.0,6.0,310.0,9000.0,99999,2.0,98984.0,0.0,11150231061013020110399904999051989840600007000082000
3628,EDLW,51.5182991028,7.6122398377,2023-05-15 00:20:00,,,,,11.0,99999,99999,9.0,5.0,200.0,10000.0,99999,1.0,98983.9,0.0,1116012005101102090399904999051989838600007000081000
3629,EDMA,48.42527771,10.9316673279,2023-05-15 00:20:00,,,,,9.0,99999,99999,9.0,2.0,,1000.0,99999,5.0,98985.1,0.0,1110053602100902090399904999051989851600007000085000
3630,EDQM,50.2886123657,11.8563890457,2023-05-15 00:20:00,,,,,8.0,99999,99999,7.0,0.0,0.0,8000.0,99999,8.0,98984.6,0.0,1114080000100802070399904999051989846600007000088000
3635,ETNN,50.831199646,6.6581702232,2023-05-15 00:20:00,,,,,13.0,99999,99999,11.0,9.0,270.0,10000.0,99999,4.0,98984.0,0.0,11160427091013020110399904999051989840600007000084000
3639,ETSN,48.7109985352,11.2115001678,2023-05-15 00:20:00,,,,,9.0,99999,99999,8.0,1.0,200.0,10000.0,99999,4.0,98985.0,0.0,1116042001100902080399904999051989850600007000084000
3658,LTCS,37.4456634521,38.8955917358,2023-05-15 00:20:00,,,,,14.0,99999,99999,-0.0,16.0,360.0,10000.0,99999,,98984.1,0.0,1116003616101402100399904999051989841600007000080000
3662,LTFM,41.275333,28.752,2023-05-15 00:20:00,,,,,13.0,99999,99999,6.0,4.0,160.0,10000.0,99999,,0.0,0.0,1116001604101302060399904999051000600007000080000
3692,LTAZ,38.771900177,34.5345001221,2023-05-15 00:20:00,,,,,9.0,99999,99999,6.0,5.0,120.0,10000.0,99999,,0.0,0.0,1116001205100902060399904999051000600007000080000
3693,LTBR,40.2551994324,29.5625991821,2023-05-15 00:20:00,,,,,12.0,99999,99999,10.0,0.0,0.0,9000.0,99999,3.0,98978.0,0.0,11150300001012020100399904999051989780600007000083000
3695,LTFC,37.8554000854,30.3684005737,2023-05-15 00:20:00,,,,,13.0,99999,99999,9.0,5.0,340.0,10000.0,99999,,98978.0,0.0,1116003405101302090399904999051989780600007000080000
3696,LTFJ,40.898601532,29.3092002869,2023-05-15 00:20:00,,,,,13.0,99999,99999,6.0,6.0,20.0,10000.0,99999,,98978.1,0.0,1116000206101302060399904999051989781600007000080000
3703,EHBK,50.9117012024,5.7701401711,2023-05-15 00:25:00,,,,,12.0,99999,99999,11.0,4.0,270.0,9000.0,99999,,98983.0,0.0,11150027041012020110399904999051989830600007000080000
3704,EHEH,51.4500999451,5.3745298386,2023-05-15 00:25:00,10.0,36.0,+,yellow,10.0,99999,99999,9.0,4.0,300.0,6000.0,99999,8.0,98982.3,0.0,1113083004101002090399904999051989823600007100088000
3705,EHGG,53.1197013855,6.5794401169,2023-05-15 00:25:00,45.0,36.0,N,yellow,10.0,99999,99999,10.0,6.0,310.0,550.0,99999,,98983.0,0.0,11100031061010020100399904999051989830600007450080000
3706,EHRD,51.9569015503,4.4372200966,2023-05-15 00:25:00,10.0,36.0,+,yellow,9.0,99999,99999,8.0,2.0,,2200.0,99999,1.0,98981.4,0.0,1111013602100902080399904999051989813600007100081000
3707,ETHF,51.1146,9.286,2023-05-15 00:20:00,,,,,9.0,99999,99999,7.0,6.0,300.0,10000.0,99999,,98984.0,0.0,1116003006100902070399904999051989840600007000080000
3708,ETHS,52.9193992615,10.1975002289,2023-05-15 00:20:00,,,,,8.0,99999,99999,6.0,0.0,0.0,10000.0,99999,6.0,98983.9,0.0,1116060000100802060399904999051989838600007000086000
3709,ETMN,53.7677001953,8.6584997177,2023-05-15 00:20:00,,,,,12.0,99999,99999,7.0,3.0,100.0,10000.0,99999,8.0,98983.4,0.0,1116081003101202070399904999051989833600007000088000
3710,ETNL,53.9182014465,12.2783002853,2023-05-15 00:20:00,,,,,11.0,99999,99999,8.0,3.0,310.0,10000.0,99999,3.0,98983.2,0.0,1116033103101102080399904999051989831600007000083000
3711,ETNW,52.4572982788,9.4271697998,2023-05-15 00:20:00,,,,,10.0,99999,99999,9.0,2.0,320.0,10000.0,99999,1.0,98983.9,0.0,1116013202101002090399904999051989838600007000081000
3712,ETSH,51.7677993774,13.1676998138,2023-05-15 00:20:00,,,,,10.0,99999,99999,7.0,1.0,10.0,10000.0,99999,6.0,98984.9,0.0,1116060101101002070399904999051989848600007000086000
3713,ETSL,48.1855010986,10.8612003326,2023-05-15 00:20:00,,,,,9.0,99999,99999,9.0,4.0,230.0,10000.0,99999,3.0,98985.0,0.0,1116032304100902090399904999051989850600007000083000
3720,LGKP,35.4213981628,27.1459999084,2023-05-15 00:30:00,,,,,18.0,99999,99999,13.0,12.0,290.0,10000.0,99999,,98982.2,0.0,11160029121018020130399904999051989821600007000080000
3744,EHAM,52.3086013794,4.7638897896,2023-05-15 00:25:00,,,,,8.0,99999,99999,8.0,2.0,330.0,8000.0,99999,,98981.8,0.0,1114003302100802080399904999051989818600007000080000
3760,LTAF,36.9822006226,35.2803993225,2023-05-15 00:20:00,,,,,18.0,99999,99999,17.0,1.0,260.0,6000.0,99999,3.0,98983.1,0.0,11130326011018020170399904999051989831600007000083000
3761,LTAG,37.0021018982,35.4258995056,2023-05-15 00:20:00,,,,,17.0,99999,99999,16.0,5.0,40.0,6000.0,99999,3.0,98983.6,0.0,11130304051017020160399904999051989836600007000083000
3763,LTBJ,38.2924003601,27.156999588,2023-05-15 00:20:00,,,,,13.0,99999,99999,10.0,3.0,350.0,10000.0,99999,,98979.6,0.0,11160035031013020100399904999051989796600007000080000
3764,LTCE,39.9565010071,41.1702003479,2023-05-15 00:20:00,,,,,3.0,99999,99999,-3.0,8.0,280.0,10000.0,99999,,98980.1,0.0,1116002808100302130399904999051989801600007000080000
3765,LTCG,40.995098114,39.7896995544,2023-05-15 00:20:00,,,,,14.0,99999,99999,6.0,1.0,,10000.0,99999,3.0,98976.3,0.0,1116033601101402060399904999051989763600007000083000
3808,LFCK,43.5563011169,2.2891800404,2023-05-15 00:30:00,,,,,12.0,99999,99999,11.0,9.0,290.0,10000.0,99999,8.0,0.0,0.0,11160829091012020110399904999051000600007000088000
3809,LFLP,45.9291992188,6.098760128,2023-05-15 00:30:00,,,,,10.0,99999,99999,9.0,0.0,0.0,10000.0,99999,5.0,98983.0,0.0,1116050000101002090399904999051989830600007000085000
3813,LFQA,49.2086982727,4.1565799713,2023-05-15 00:30:00,10.0,36.0,+,yellow,11.0,99999,99999,10.0,10.0,300.0,5000.0,99999,,98982.0,0.0,11130030101011020100399904999051989820600007100080000
3835,LFGA,48.1099014282,7.3590102196,2023-05-15 00:30:00,,,,,12.0,99999,99999,9.0,3.0,270.0,10000.0,99999,6.0,98983.7,0.3,1116062703101202090399904999051989836600307000086000
3836,LFJR,47.5602989197,-0.3122220039,2023-05-15 00:30:00,,,,,11.0,99999,99999,9.0,3.0,330.0,8000.0,99999,,98979.4,0.0,1114003303101102090399904999051989793600007000080000
3839,LFPT,49.0965995789,2.0408298969,2023-05-15 00:30:00,10.0,36.0,+,yellow,9.0,99999,99999,9.0,4.0,310.0,4400.0,99999,6.0,98980.4,0.0,1112063104100902090399904999051989803600007100086000
3847,EPBY,53.0968017578,17.9776992798,2023-05-15 00:30:00,,,,,13.0,99999,99999,6.0,4.0,50.0,10000.0,99999,,0.0,0.0,1116000504101302060399904999051000600007000080000
3852,EPSY,53.481944,20.937778,2023-05-15 00:30:00,,,,,13.0,99999,99999,4.0,4.0,50.0,10000.0,99999,,98982.0,0.0,1116000504101302040399904999051989820600007000080000
3855,LHKE,46.9174995422,19.7492008209,2023-05-15 00:15:00,61.0,36.0,^,green,14.0,99999,99999,12.0,4.0,170.0,8000.0,99999,8.0,98987.6,2.0,11140817041014020120399904999051989876602007610088000
3858,LHPR,47.6244010925,17.8136005402,2023-05-15 00:15:00,,,,,12.0,99999,99999,12.0,2.0,220.0,2600.0,99999,,98989.6,0.0,11110022021012020120399904999051989896600007000080000
3859,LHSM,46.6864013672,17.1590995789,2023-05-15 00:15:00,61.0,36.0,^,green,11.0,99999,99999,11.0,3.0,280.0,10000.0,99999,5.0,0.0,0.0,11160528031011020110399904999051000600007610085000
3860,LHSN,47.1228981018,20.2355003357,2023-05-15 00:15:00,,,,,13.0,99999,99999,11.0,8.0,140.0,10000.0,99999,8.0,98988.3,1.1,11160814081013020110399904999051989883601107000088000
3865,LYBT,44.935299,20.2575,2023-05-15 00:30:00,,,,,16.0,99999,99999,13.0,16.0,130.0,10000.0,99999,,98988.3,0.0,11160013161016020130399904999051989883600007000080000
3866,LYKV,43.818298,20.5872,2023-05-15 00:30:00,,,,,14.0,99999,99999,12.0,9.0,150.0,10000.0,99999,,98987.0,0.0,11160015091014020120399904999051989870600007000080000
3870,LYVR,45.1469,21.3099,2023-05-15 00:30:00,,,,,17.0,99999,99999,8.0,25.0,130.0,10000.0,99999,,98988.0,0.0,1116001325101702080399904999051989880600007000080000
3886,EGXV,53.8758010864,-0.4350000024,2023-05-15 00:20:00,,,,,10.0,99999,99999,8.0,6.0,280.0,10000.0,99999,1.0,98983.0,0.4,1116012806101002080399904999051989830600407000081000
3949,ESSA,59.6519012451,17.9186000824,2023-05-15 00:20:00,,,,,11.0,99999,99999,0.0,4.0,160.0,10000.0,99999,,98979.0,0.0,1116001604101102000399904999051989790600007000080000
3968,EPLL,51.7219009399,19.3980998993,2023-05-15 00:30:00,,,,,14.0,99999,99999,7.0,3.0,90.0,10000.0,99999,1.0,98984.3,0.0,1116010903101402070399904999051989843600007000081000
3969,EPWR,51.1026992798,16.885799408,2023-05-15 00:30:00,,,,,12.0,99999,99999,12.0,6.0,350.0,5000.0,99999,3.0,98986.0,0.1,11130335061012020120399904999051989860600107000083000
3976,LHDC,47.488899231,21.6152992249,2023-05-15 00:15:00,,,,,13.0,99999,99999,11.0,6.0,90.0,10000.0,99999,,98986.2,1.5,11160009061013020110399904999051989861601507000080000
3978,LKPD,50.0134010315,15.7385997772,2023-05-15 00:30:00,61.0,36.0,^,green,11.0,99999,99999,10.0,4.0,280.0,8000.0,99999,8.0,98984.7,0.8,11140828041011020100399904999051989846600807610088000
3982,LZPP,48.6251983643,17.8283996582,2023-05-15 00:30:00,10.0,36.0,+,yellow,12.0,99999,99999,11.0,2.0,,5000.0,99999,8.0,0.0,0.0,11130836021012020110399904999051000600007100088000
3983,LZZI,49.2314987183,18.6135005951,2023-05-15 00:30:00,61.0,36.0,^,green,10.0,99999,99999,10.0,2.0,,10000.0,99999,8.0,0.0,0.0,11160836021010020100399904999051000600007610088000
3991,LTAC,40.1281013489,32.995098114,2023-05-15 00:20:00,,,,,9.0,99999,99999,4.0,6.0,360.0,10000.0,99999,,98979.2,0.0,1116003606100902040399904999051989791600007000080000
3992,LTAI,36.8987007141,30.8005008698,2023-05-15 00:20:00,,,,,20.0,99999,99999,14.0,7.0,320.0,10000.0,99999,,98982.1,0.0,11160032071020020140399904999051989821600007000080000
3993,LTAJ,36.9472007751,37.4786987305,2023-05-15 00:20:00,,,,,16.0,99999,99999,8.0,6.0,340.0,10000.0,99999,,98985.7,0.0,1116003406101602080399904999051989856600007000080000
3994,LTAP,40.8293991089,35.5219993591,2023-05-15 00:20:00,,,,,4.0,99999,99999,3.0,0.0,0.0,10000.0,99999,,98975.9,0.0,1116000000100402030399904999051989758600007000080000
3995,LTAT,38.4352989197,38.0909996033,2023-05-15 00:20:00,,,,,10.0,99999,99999,-0.0,2.0,,10000.0,99999,,98979.0,0.0,1116003602101002100399904999051989790600007000080000
3996,LTAU,38.770401001,35.4953994751,2023-05-15 00:20:00,,,,,8.0,99999,99999,4.0,7.0,80.0,10000.0,99999,,98978.0,0.0,1116000807100802040399904999051989780600007000080000
3997,LTBA,40.9768981934,28.8145999908,2023-05-15 00:20:00,,,,,15.0,99999,99999,7.0,4.0,50.0,10000.0,99999,,98977.9,0.0,1116000504101502070399904999051989778600007000080000
3998,LTBS,36.7131004333,28.7924995422,2023-05-15 00:20:00,,,,,20.0,99999,99999,11.0,6.0,70.0,10000.0,99999,,98981.9,0.0,11160007061020020110399904999051989818600007000080000
3999,LTBU,41.1381988525,27.9190998077,2023-05-15 00:20:00,,,,,12.0,99999,99999,8.0,6.0,40.0,10000.0,99999,,98978.2,0.0,1116000406101202080399904999051989781600007000080000
4000,LTCC,37.893901825,40.2010002136,2023-05-15 00:20:00,,,,,12.0,99999,99999,-0.0,10.0,310.0,10000.0,99999,,98986.9,0.0,1116003110101202100399904999051989868600007000080000
4001,LTCJ,37.9290008545,41.1166000366,2023-05-15 00:20:00,,,,,10.0,99999,99999,1.0,6.0,10.0,10000.0,99999,,98987.0,0.0,1116000106101002010399904999051989870600007000080000
4002,LTFE,37.2505989075,27.6643009186,2023-05-15 00:20:00,,,,,14.0,99999,99999,12.0,1.0,,10000.0,99999,,0.0,0.0,11160036011014020120399904999051000600007000080000
4003,LJCE,45.9000015259,15.5302000046,2023-05-15 00:30:00,,,,,11.0,99999,99999,11.0,0.0,0.0,10000.0,99999,8.0,0.0,0.0,11160800001011020110399904999051000600007000088000
4012,LFOV,48.0313987732,-0.7429860234,2023-05-15 00:30:00,10.0,36.0,+,yellow,10.0,99999,99999,9.0,6.0,330.0,5000.0,99999,8.0,98979.0,0.0,1113083306101002090399904999051989790600007100088000
4014,LFRV,47.7233009338,-2.7185599804,2023-05-15 00:30:00,,,,,11.0,99999,99999,7.0,4.0,330.0,10000.0,99999,,98978.3,0.0,1116003304101102070399904999051989783600007000080000
4015,LFSG,48.3250007629,6.0699801445,2023-05-15 00:30:00,61.0,36.0,^,green,11.0,99999,99999,10.0,5.0,270.0,7000.0,99999,,98983.7,0.0,11140027051011020100399904999051989836600007610080000
4022,LFOZ,47.896900177,2.1633300781,2023-05-15 00:30:00,,,,,9.0,99999,99999,7.0,3.0,330.0,10000.0,99999,,98980.7,0.0,1116003303100902070399904999051989806600007000080000
4029,LFAQ,49.9715003967,2.6976599693,2023-05-15 00:30:00,45.0,36.0,N,yellow,8.0,99999,99999,8.0,6.0,290.0,800.0,99999,,98980.5,0.0,1110002906100802080399904999051989805600007450080000
4030,LFBU,45.7291984558,0.2214560062,2023-05-15 00:30:00,,,,,12.0,99999,99999,11.0,6.0,290.0,10000.0,99999,,98979.5,0.0,11160029061012020110399904999051989795600007000080000
4063,LEMI,37.803,-1.125,2023-05-15 00:30:00,,,,,18.0,99999,99999,8.0,4.0,310.0,10000.0,99999,,0.0,0.0,1116003104101802080399904999051000600007000080000
4065,LECH,40.9000015259,-1.3041199446,2023-05-15 00:30:00,,,,,15.0,99999,99999,3.0,9.0,310.0,10000.0,99999,,98981.0,0.0,1116003109101502030399904999051989810600007000080000
4076,LQMO,43.2829017639,17.8458995819,2023-05-15 00:30:00,61.0,36.0,^,green,17.0,99999,99999,16.0,5.0,190.0,10000.0,99999,3.0,98987.0,2.9,11160319051017020160399904999051989870602907610083000
4106,UUDL,57.5606994629,40.1573982239,2023-05-15 00:30:00,,,,,3.0,99999,99999,3.0,0.0,0.0,10000.0,99999,,98974.5,0.0,1116000000100302030399904999051989745600007000080000
4109,UUMO,55.5116996765,37.5071983337,2023-05-15 00:30:00,,,,,3.0,99999,99999,2.0,0.0,0.0,10000.0,99999,,98975.0,0.0,1116000000100302020399904999051989750600007000080000
4119,ULWC,59.276667,38.028333,2023-05-15 00:30:00,42.0,36.0,K,yellow,2.0,99999,99999,1.0,0.0,0.0,10000.0,99999,,98973.9,0.0,1116000000100202010399904999051989738600007420080000
4120,UUBC,54.5499992371,36.3666687012,2023-05-15 00:30:00,,,,,7.0,99999,99999,4.0,1.0,20.0,10000.0,99999,,0.0,0.0,1116000201100702040399904999051000600007000080000
4122,UUOB,50.6437988281,36.5900993347,2023-05-15 00:30:00,,,,,11.0,99999,99999,3.0,3.0,20.0,10000.0,99999,,98978.9,0.0,1116000203101102030399904999051989788600007000080000
4123,UUOK,51.7505989075,36.2956008911,2023-05-15 00:30:00,,,,,7.0,99999,99999,3.0,2.0,360.0,10000.0,99999,,98978.0,0.0,1116003602100702030399904999051989780600007000080000
4126,UWPS,54.1251296997,45.2122573853,2023-05-15 00:30:00,61.0,36.0,^,green,9.0,99999,99999,8.0,3.0,30.0,10000.0,99999,6.0,98977.9,0.0,1116060303100902080399904999051989778600007610086000
4129,URMG,43.3883018494,45.698600769,2023-05-15 00:30:00,,,,,10.0,99999,99999,9.0,2.0,270.0,9000.0,99999,,98979.0,0.4,1115002702101002090399904999051989790600407000080000
4132,URMO,43.2051010132,44.6066017151,2023-05-15 00:30:00,51.0,36.0,T,green,8.0,99999,99999,7.0,5.0,250.0,8000.0,99999,,98977.7,0.5,1114002505100802070399904999051989776600507510080000
4134,URRP,47.50083333,39.93361111,2023-05-15 00:30:00,,,,,10.0,99999,99999,8.0,4.0,320.0,10000.0,99999,,0.0,0.0,1116003204101002080399904999051000600007000080000
4140,EGDM,51.1521987915,-1.747410059,2023-05-15 00:20:00,61.0,36.0,^,green,11.0,99999,99999,10.0,6.0,300.0,10000.0,99999,6.0,98980.1,0.0,11160630061011020100399904999051989801600007610086000
4141,EGDR,50.086101532,-5.255710125,2023-05-15 00:20:00,,,,,12.0,99999,99999,10.0,9.0,330.0,10000.0,99999,6.0,98977.9,0.0,11160633091012020100399904999051989778600007000086000
4142,EGDY,51.0093994141,-2.6388199329,2023-05-15 00:20:00,,,,,12.0,99999,99999,11.0,6.0,310.0,10000.0,99999,8.0,98979.2,0.0,11160831061012020110399904999051989791600007000088000
4144,EGOS,52.7981987,-2.6680400372,2023-05-15 00:20:00,,,,,9.0,99999,99999,6.0,10.0,300.0,10000.0,99999,8.0,98979.0,0.3,1116083010100902060399904999051989790600307000088000
4145,EGOV,53.2481002808,-4.5353398323,2023-05-15 00:20:00,,,,,10.0,99999,99999,6.0,6.0,360.0,10000.0,99999,4.0,98977.6,0.0,1116043606101002060399904999051989776600007000084000
4146,EGQK,57.6493988037,-3.5606400967,2023-05-15 00:20:00,,,,,6.0,99999,99999,3.0,4.0,210.0,10000.0,99999,2.0,98981.5,0.0,1116022104100602030399904999051989815600007000082000
4147,EGUB,51.6164016724,-1.0958299637,2023-05-15 00:20:00,61.0,36.0,^,green,13.0,99999,99999,10.0,5.0,310.0,10000.0,99999,4.0,98980.8,0.0,11160431051013020100399904999051989808600007610084000
4148,EGUW,52.1273002625,0.956264019,2023-05-15 00:20:00,10.0,36.0,+,yellow,13.0,99999,99999,10.0,7.0,320.0,10000.0,99999,4.0,98981.4,0.0,11160432071013020100399904999051989813600007100084000
4149,EGVO,51.2341003418,-0.9428250194,2023-05-15 00:20:00,,,,,12.0,99999,99999,9.0,6.0,280.0,10000.0,99999,4.0,98980.6,0.0,1116042806101202090399904999051989806600007000084000
4150,EGVP,51.1394004822,-1.5686099529,2023-05-15 00:20:00,,,,,11.0,99999,99999,9.0,4.0,300.0,10000.0,99999,4.0,98981.0,0.0,1116043004101102090399904999051989810600007000084000
4151,EGWC,52.6399993896,-2.3055799007,2023-05-15 00:20:00,,,,,99999.0,99999,99999,99999.0,6.0,320.0,10000.0,99999,,98980.2,0.0,11160032061099999020999990399904999051989801600007000080000
4152,EGWU,51.5530014038,-0.418166995,2023-05-15 00:20:00,,,,,14.0,99999,99999,9.0,7.0,330.0,10000.0,99999,8.0,98982.0,0.0,1116083307101402090399904999051989820600007000088000
4153,EGXE,54.2924003601,-1.535400033,2023-05-15 00:20:00,,,,,8.0,99999,99999,3.0,8.0,270.0,10000.0,99999,,98981.0,0.0,1116002708100802030399904999051989810600007000080000
4154,EGXT,52.6125984192,-0.4764530063,2023-05-15 00:20:00,61.0,36.0,^,green,12.0,99999,99999,10.0,11.0,290.0,10000.0,99999,8.0,98982.2,0.0,11160829111012020100399904999051989821600007610088000
4155,EGXW,53.1661987305,-0.5238109827,2023-05-15 00:20:00,,,,,11.0,99999,99999,9.0,9.0,320.0,10000.0,99999,1.0,98981.2,0.0,1116013209101102090399904999051989811600007000081000
4156,EGXZ,54.2055015564,-1.3820899725,2023-05-15 00:20:00,,,,,8.0,99999,99999,3.0,7.0,290.0,10000.0,99999,1.0,98982.0,0.0,1116012907100802030399904999051989820600007000081000
4157,EGYD,53.0303001404,-0.4832420051,2023-05-15 00:20:00,,,,,11.0,99999,99999,9.0,10.0,310.0,10000.0,99999,3.0,98980.3,0.0,1116033110101102090399904999051989803600007000083000
4158,EGYE,52.9622001648,-0.5616250038,2023-05-15 00:20:00,,,,,99999.0,99999,99999,99999.0,13.0,310.0,10000.0,99999,,98981.5,0.0,11160031131099999020999990399904999051989815600007000080000
4159,EGYM,52.648399353,0.5506920218,2023-05-15 00:20:00,,,,,13.0,99999,99999,10.0,10.0,330.0,10000.0,99999,4.0,98982.5,0.0,11160433101013020100399904999051989825600007000084000
4163,UUBW,55.5532989502,38.1500015259,2023-05-15 00:30:00,,,,,6.0,99999,99999,5.0,0.0,0.0,10000.0,99999,,98974.7,0.0,1116000000100602050399904999051989746600007000080000
4164,UUOL,52.7028007507,39.5377998352,2023-05-15 00:30:00,,,,,8.0,99999,99999,5.0,3.0,20.0,10000.0,99999,,0.0,0.0,1116000203100802050399904999051000600007000080000
4175,LFMU,43.3235015869,3.3538999557,2023-05-15 00:30:00,,,,,16.0,99999,99999,9.0,11.0,290.0,10000.0,99999,,98983.5,0.0,1116002911101602090399904999051989835600007000080000
4176,LFMY,43.6063995361,5.1092500687,2023-05-15 00:30:00,,,,,15.0,99999,99999,9.0,16.0,330.0,10000.0,99999,,98987.0,0.0,1116003316101502090399904999051989870600007000080000
4189,LFYR,47.3208007813,1.6888899803,2023-05-15 00:30:00,10.0,36.0,+,yellow,8.0,99999,99999,7.0,0.0,0.0,5000.0,99999,,98981.0,0.0,1113000000100802070399904999051989810600007100080000
4190,EGOM,55.0499992371,-2.5499999523,2023-05-15 00:20:00,,,,,4.0,99999,99999,2.0,9.0,300.0,10000.0,99999,,98982.0,0.0,1116003009100402020399904999051989820600007000080000
4201,LFMK,43.2159996033,2.306319952,2023-05-15 00:30:00,,,,,13.0,99999,99999,10.0,10.0,280.0,10000.0,99999,6.0,98980.0,0.0,11160628101013020100399904999051989800600007000086000
4217,LFBG,45.6582984924,-0.3174999952,2023-05-15 00:30:00,,,,,12.0,99999,99999,11.0,5.0,240.0,9000.0,99999,,98979.2,0.0,11150024051012020110399904999051989791600007000080000
4221,LFCR,44.4079017639,2.4826700687,2023-05-15 00:30:00,,,,,7.0,99999,99999,6.0,8.0,290.0,10000.0,99999,,98981.2,0.0,1116002908100702060399904999051989811600007000080000
4222,LFJL,48.9821014404,6.2513198853,2023-05-15 00:30:00,,,,,11.0,99999,99999,8.0,3.0,320.0,10000.0,99999,,98983.7,0.0,1116003203101102080399904999051989836600007000080000
4230,LFMO,44.140499115,4.8667201996,2023-05-15 00:30:00,,,,,15.0,99999,99999,10.0,19.0,340.0,10000.0,99999,,98985.4,0.0,11160034191015020100399904999051989853600007000080000
4233,LFRL,48.2817001343,-4.4450201988,2023-05-15 00:30:00,58.0,36.0,[,green,12.0,99999,99999,11.0,10.0,320.0,10000.0,99999,8.0,98977.0,0.0,11160832101012020110399904999051989770600007580088000
4269,LFBX,45.1981010437,0.8155559897,2023-05-15 00:30:00,,,,,14.0,99999,99999,11.0,0.0,0.0,10000.0,99999,,98980.0,0.0,11160000001014020110399904999051989800600007000080000
4270,LFBY,43.689201355,-1.0688899755,2023-05-15 00:30:00,,,,,14.0,99999,99999,11.0,5.0,290.0,10000.0,99999,,98976.9,0.0,11160029051014020110399904999051989768600007000080000
4271,LFLN,46.4124984741,4.0132598877,2023-05-15 00:30:00,10.0,36.0,+,yellow,10.0,99999,99999,9.0,2.0,,5000.0,99999,6.0,98982.0,0.0,1113063602101002090399904999051989820600007100086000
4285,LEHC,42.0760993958,-0.3166669905,2023-05-15 00:30:00,,,,,9.0,99999,99999,4.0,7.0,240.0,10000.0,99999,,98981.5,0.0,1116002407100902040399904999051989815600007000080000
4288,LESB,39.5988998413,2.7027800083,2023-05-15 00:30:00,,,,,17.0,99999,99999,10.0,6.0,310.0,10000.0,99999,,98981.9,0.0,11160031061017020100399904999051989818600007000080000
4289,LEMO,37.1749000549,-5.615940094,2023-05-15 00:30:00,,,,,18.0,99999,99999,7.0,9.0,190.0,10000.0,99999,,98980.0,0.0,1116001909101802070399904999051989800600007000080000
4292,LUKK,46.9277000427,28.9309997559,2023-05-15 00:30:00,,,,,11.0,99999,99999,4.0,3.0,130.0,10000.0,99999,,98978.4,0.0,1116001303101102040399904999051989783600007000080000
4324,LEBG,42.3576011658,-3.620759964,2023-05-15 00:30:00,,,,,5.0,99999,99999,4.0,4.0,40.0,10000.0,99999,,98974.0,0.0,1116000404100502040399904999051989740600007000080000
4336,LRBC,46.521900177,26.9102993011,2023-05-15 00:30:00,,,,,11.0,99999,99999,5.0,10.0,160.0,10000.0,99999,,98979.7,0.0,1116001610101102050399904999051989796600007000080000
4341,LRCV,44.3180999756,23.8885993958,2023-05-15 00:30:00,,,,,13.0,99999,99999,6.0,8.0,70.0,10000.0,99999,,98983.0,0.0,1116000708101302060399904999051989830600007000080000
4342,LRIA,47.1785011292,27.6205997467,2023-05-15 00:30:00,,,,,12.0,99999,99999,6.0,6.0,90.0,10000.0,99999,,98980.0,0.0,1116000906101202060399904999051989800600007000080000
4345,LRSB,45.7855987549,24.091299057,2023-05-15 00:30:00,,,,,16.0,99999,99999,4.0,8.0,180.0,10000.0,99999,3.0,98983.7,0.0,1116031808101602040399904999051989836600007000083000
4347,LRSV,47.6875,26.3540992737,2023-05-15 00:30:00,,,,,13.0,99999,99999,7.0,7.0,140.0,10000.0,99999,,98981.0,0.0,1116001407101302070399904999051989810600007000080000
4350,GEML,35.279800415,-2.9562599659,2023-05-15 00:30:00,,,,,21.0,99999,99999,8.0,13.0,290.0,10000.0,99999,,98979.9,0.0,1116002913102102080399904999051989798600007000080000
4352,EBFN,51.0903015137,2.652780056,2023-05-15 00:25:00,,,,,99999.0,99999,99999,99999.0,4.0,250.0,10000.0,99999,,98980.7,0.0,11160025041099999020999990399904999051989806600007000080000
4354,EDDM,48.3538017273,11.7861003876,2023-05-15 00:20:00,,,,,10.0,99999,99999,9.0,3.0,290.0,10000.0,99999,1.0,98986.0,0.0,1116012903101002090399904999051989860600007000081000
4355,EPGD,54.3776016235,18.4661998749,2023-05-15 00:30:00,,,,,13.0,99999,99999,7.0,7.0,100.0,10000.0,99999,,98983.0,0.0,1116001007101302070399904999051989830600007000080000
4356,EPKK,50.0777015686,19.7847995758,2023-05-15 00:30:00,61.0,36.0,^,green,12.0,99999,99999,11.0,9.0,70.0,10000.0,99999,4.0,98985.1,1.1,11160407091012020110399904999051989851601107610084000
4357,EPKT,50.4743003845,19.0799999237,2023-05-15 00:30:00,61.0,36.0,^,green,11.0,99999,99999,10.0,6.0,80.0,10000.0,99999,,98984.8,0.6,11160008061011020100399904999051989848600607610080000
4358,EPLB,51.240278,22.713611,2023-05-15 00:30:00,,,,,12.0,99999,99999,7.0,7.0,70.0,10000.0,99999,,0.0,0.0,1116000707101202070399904999051000600007000080000
4359,EPMO,52.4510993958,20.6518001556,2023-05-15 00:30:00,,,,,13.0,99999,99999,6.0,8.0,70.0,10000.0,99999,,98982.6,0.0,1116000708101302060399904999051989826600007000080000
4360,EPPO,52.4210014343,16.8262996674,2023-05-15 00:30:00,,,,,14.0,99999,99999,8.0,3.0,10.0,10000.0,99999,,98984.3,0.0,1116000103101402080399904999051989843600007000080000
4361,EPRZ,50.1100006104,22.0189990997,2023-05-15 00:30:00,61.0,36.0,^,green,13.0,99999,99999,9.0,6.0,40.0,10000.0,99999,,98985.0,0.0,1116000406101302090399904999051989850600007610080000
4362,EPSC,53.5847015381,14.9021997452,2023-05-15 00:30:00,,,,,10.0,99999,99999,7.0,2.0,120.0,10000.0,99999,,98985.0,0.0,1116001202101002070399904999051989850600007000080000
4363,EPWA,52.1656990051,20.9671001434,2023-05-15 00:30:00,,,,,16.0,99999,99999,5.0,9.0,90.0,10000.0,99999,,98983.4,0.0,1116000909101602050399904999051989833600007000080000
4369,LHBP,47.4369010925,19.2555999756,2023-05-15 00:30:00,61.0,36.0,^,green,12.0,99999,99999,12.0,7.0,100.0,10000.0,99999,4.0,98986.6,1.9,11160410071012020120399904999051989866601907610084000
4371,LRBS,44.503200531,26.1021003723,2023-05-15 00:30:00,,,,,10.0,99999,99999,6.0,4.0,40.0,10000.0,99999,,98979.7,0.0,1116000404101002060399904999051989796600007000080000
4372,LRCK,44.3622016907,28.4883003235,2023-05-15 00:30:00,,,,,7.0,99999,99999,6.0,7.0,140.0,10000.0,99999,,98979.0,0.0,1116001407100702060399904999051989790600007000080000
4373,LROP,44.5722007751,26.1021995544,2023-05-15 00:30:00,,,,,9.0,99999,99999,6.0,4.0,30.0,10000.0,99999,,98978.6,0.0,1116000304100902060399904999051989786600007000080000
4375,LRTR,45.8098983765,21.3379001617,2023-05-15 00:30:00,,,,,14.0,99999,99999,12.0,6.0,110.0,10000.0,99999,,98987.9,0.0,11160011061014020120399904999051989878600007000080000
4376,LDDU,42.5614013672,18.2681999207,2023-05-15 00:30:00,63.0,36.0,',green,16.0,99999,99999,15.0,15.0,110.0,9000.0,99999,3.0,98985.5,1.7,11150311151016020150399904999051989855601707630083000
4377,LDOS,45.4626998901,18.8101997375,2023-05-15 00:30:00,61.0,36.0,^,green,14.0,99999,99999,13.0,2.0,,6000.0,99999,5.0,98989.7,0.0,11130536021014020130399904999051989896600007610085000
4378,LDPL,44.8935012817,13.9222002029,2023-05-15 00:30:00,,,,,10.0,99999,99999,10.0,2.0,,10000.0,99999,2.0,98988.9,2.2,11160236021010020100399904999051989888602207000082000
4379,LDRI,45.2168998718,14.5703001022,2023-05-15 00:30:00,,,,,13.0,99999,99999,13.0,4.0,120.0,10000.0,99999,2.0,98988.8,0.0,11160212041013020130399904999051989888600007000082000
4380,LDSP,43.538898468,16.2980003357,2023-05-15 00:30:00,,,,,16.0,99999,99999,12.0,2.0,,10000.0,99999,8.0,98989.1,4.7,11160836021016020120399904999051989891604707000088000
4381,LDZA,45.7429008484,16.0687999725,2023-05-15 00:30:00,61.0,36.0,^,green,12.0,99999,99999,11.0,2.0,,10000.0,99999,7.0,98989.1,0.0,11160736021012020110399904999051989891600007610087000
4382,LDZD,44.1082992554,15.3466997147,2023-05-15 00:30:00,,,,,13.0,99999,99999,13.0,1.0,,10000.0,99999,3.0,98989.0,0.0,11160336011013020130399904999051989890600007000083000
4383,LJLJ,46.2237014771,14.4575996399,2023-05-15 00:30:00,,,,,9.0,99999,99999,8.0,2.0,,10000.0,99999,3.0,98987.4,0.2,1116033602100902080399904999051989873600207000083000
4384,LJMB,46.4799003601,15.6861000061,2023-05-15 00:30:00,,,,,10.0,99999,99999,10.0,0.0,0.0,4600.0,99999,7.0,98988.0,0.0,11120700001010020100399904999051989880600007000087000
4385,LJPZ,45.473400116,13.6149997711,2023-05-15 00:30:00,,,,,13.0,99999,99999,12.0,3.0,120.0,10000.0,99999,5.0,98989.2,0.1,11160512031013020120399904999051989891600107000085000
4386,LKMT,49.6963005066,18.1110992432,2023-05-15 00:30:00,61.0,36.0,^,green,11.0,99999,99999,10.0,3.0,10.0,6000.0,99999,5.0,98985.7,0.6,11130501031011020100399904999051989856600607610085000
4387,LKPR,50.1007995605,14.2600002289,2023-05-15 00:30:00,61.0,36.0,^,green,9.0,99999,99999,9.0,4.0,320.0,7000.0,99999,4.0,98984.6,0.1,1114043204100902090399904999051989846600107610084000
4388,LKTB,49.1512985229,16.6944007874,2023-05-15 00:30:00,61.0,36.0,^,green,11.0,99999,99999,9.0,3.0,310.0,9000.0,99999,8.0,98986.5,2.1,1115083103101102090399904999051989865602107610088000
4389,LQSA,43.8246002197,18.3314990997,2023-05-15 00:30:00,61.0,36.0,^,green,15.0,99999,99999,15.0,3.0,220.0,10000.0,99999,3.0,98989.7,0.3,11160322031015020150399904999051989896600307610083000
4390,LWSK,41.9616012573,21.6214008331,2023-05-15 00:30:00,,,,,13.0,99999,99999,10.0,1.0,120.0,10000.0,99999,5.0,98981.4,0.0,11160512011013020100399904999051989813600007000085000
4391,LYBE,44.8184013367,20.3090991974,2023-05-15 00:30:00,,,,,16.0,99999,99999,12.0,18.0,150.0,10000.0,99999,,98988.2,0.0,11160015181016020120399904999051989881600007000080000
4392,LYNI,43.337299,21.853701,2023-05-15 00:30:00,,,,,14.0,99999,99999,11.0,5.0,120.0,10000.0,99999,,98983.9,0.0,11160012051014020110399904999051989838600007000080000
4393,LYPG,42.3594017029,19.2518997192,2023-05-15 00:30:00,61.0,36.0,^,green,16.0,99999,99999,16.0,6.0,10.0,10000.0,99999,5.0,0.0,0.0,11160501061016020160399904999051000600007610085000
4394,LYTV,42.4047012329,18.7233009338,2023-05-15 00:30:00,61.0,36.0,^,green,16.0,99999,99999,16.0,4.0,320.0,10000.0,99999,7.0,98984.9,0.4,11160732041016020160399904999051989848600407610087000
4395,LZIB,48.1702003479,17.2126998901,2023-05-15 00:30:00,,,,,12.0,99999,99999,11.0,2.0,,3500.0,99999,8.0,98987.2,1.1,11120836021012020110399904999051989871601107000088000
4396,LZKZ,48.6631011963,21.2411003113,2023-05-15 00:30:00,61.0,36.0,^,green,12.0,99999,99999,11.0,6.0,340.0,10000.0,99999,4.0,0.0,0.0,11160434061012020110399904999051000600007610084000
4397,LZTT,49.073600769,20.2411003113,2023-05-15 00:30:00,61.0,36.0,^,green,9.0,99999,99999,9.0,2.0,,10000.0,99999,8.0,98984.7,0.9,1116083602100902090399904999051989846600907610088000
4402,LFAT,50.5173988342,1.6205899715,2023-05-15 00:30:00,10.0,36.0,+,yellow,11.0,99999,99999,10.0,5.0,240.0,2200.0,99999,,98980.5,0.0,11110024051011020100399904999051989805600007100080000
4403,LFBD,44.8283004761,-0.7155560255,2023-05-15 00:30:00,,,,,13.0,99999,99999,11.0,6.0,280.0,10000.0,99999,,98976.2,0.0,11160028061013020110399904999051989761600007000080000
4404,LFBH,46.1791992188,-1.1952799559,2023-05-15 00:30:00,,,,,14.0,99999,99999,13.0,9.0,320.0,10000.0,99999,1.0,98978.2,0.0,11160132091014020130399904999051989781600007000081000
4405,LFBI,46.5876998901,0.3066659868,2023-05-15 00:30:00,,,,,11.0,99999,99999,8.0,6.0,310.0,10000.0,99999,,98980.1,0.0,1116003106101102080399904999051989801600007000080000
4406,LFBO,43.6291007996,1.3638199568,2023-05-15 00:30:00,,,,,13.0,99999,99999,10.0,14.0,280.0,10000.0,99999,6.0,98978.8,0.0,11160628141013020100399904999051989788600007000086000
4409,LFBZ,43.4683990479,-1.5233199596,2023-05-15 00:30:00,,,,,14.0,99999,99999,11.0,10.0,290.0,10000.0,99999,6.0,98975.5,0.2,11160629101014020110399904999051989755600207000086000
4411,LFKB,42.5527000427,9.4837303162,2023-05-15 00:30:00,,,,,11.0,99999,99999,9.0,4.0,230.0,10000.0,99999,1.0,98986.6,0.0,1116012304101102090399904999051989866600007000081000
4412,LFKC,42.5307998657,8.7931900024,2023-05-15 00:30:00,,,,,16.0,99999,99999,6.0,12.0,190.0,10000.0,99999,3.0,98987.5,0.0,1116031912101602060399904999051989875600007000083000
4413,LFKJ,41.9235992432,8.8029203415,2023-05-15 00:30:00,,,,,11.0,99999,99999,9.0,6.0,30.0,10000.0,99999,6.0,98985.5,0.0,1116060306101102090399904999051989855600007000086000
4414,LFLB,45.6380996704,5.88022995,2023-05-15 00:30:00,,,,,11.0,99999,99999,10.0,3.0,,10000.0,99999,5.0,98983.6,0.0,11160536031011020100399904999051989836600007000085000
4415,LFLC,45.7867012024,3.1691699028,2023-05-15 00:30:00,,,,,9.0,99999,99999,8.0,3.0,230.0,10000.0,99999,6.0,98980.9,0.1,1116062303100902080399904999051989808600107000086000
4416,LFLL,45.726398468,5.0908298492,2023-05-15 00:30:00,,,,,12.0,99999,99999,11.0,9.0,310.0,10000.0,99999,3.0,98982.9,0.0,11160331091012020110399904999051989828600007000083000
4417,LFLS,45.3628997803,5.3293700218,2023-05-15 00:30:00,,,,,11.0,99999,99999,9.0,3.0,200.0,10000.0,99999,3.0,98983.0,0.0,1116032003101102090399904999051989830600007000083000
4418,LFLY,45.7271995544,4.944270134,2023-05-15 00:30:00,,,,,12.0,99999,99999,11.0,2.0,,10000.0,99999,4.0,98983.0,0.0,11160436021012020110399904999051989830600007000084000
4419,LFMD,43.5419998169,6.9534797668,2023-05-15 00:30:00,,,,,12.0,99999,99999,10.0,5.0,10.0,10000.0,99999,,98987.9,0.0,11160001051012020100399904999051989878600007000080000
4420,LFMH,45.540599823,4.2963900566,2023-05-15 00:30:00,,,,,11.0,99999,99999,10.0,99999.0,,10000.0,99999,,98982.0,0.0,11160036999991011020100399904999051989820600007000080000
4421,LFML,43.439271922,5.2214241028,2023-05-15 00:30:00,,,,,16.0,99999,99999,10.0,16.0,320.0,10000.0,99999,,98987.2,0.0,11160032161016020100399904999051989871600007000080000
4422,LFMN,43.6584014893,7.2158699036,2023-05-15 00:30:00,,,,,14.0,99999,99999,10.0,6.0,330.0,10000.0,99999,,98987.7,0.0,11160033061014020100399904999051989876600007000080000
4423,LFMP,42.740398407,2.8706700802,2023-05-15 00:30:00,,,,,16.0,99999,99999,9.0,19.0,300.0,10000.0,99999,3.0,98982.2,0.0,1116033019101602090399904999051989821600007000083000
4424,LFMT,43.5761985779,3.9630100727,2023-05-15 00:30:00,,,,,17.0,99999,99999,6.0,8.0,290.0,10000.0,99999,,98984.4,0.0,1116002908101702060399904999051989843600007000080000
4425,LFOB,49.4543991089,2.1127800941,2023-05-15 00:30:00,10.0,36.0,+,yellow,8.0,99999,99999,8.0,8.0,330.0,4100.0,99999,8.0,98981.0,0.0,1112083308100802080399904999051989810600007100088000
4426,LFOH,49.5339012146,0.0880559981,2023-05-15 00:30:00,10.0,36.0,+,yellow,11.0,99999,99999,11.0,9.0,260.0,4200.0,99999,8.0,98980.0,0.0,11120826091011020110399904999051989800600007100088000
4427,LFOT,47.4322013855,0.7276059985,2023-05-15 00:30:00,,,,,11.0,99999,99999,8.0,3.0,320.0,10000.0,99999,,98980.0,0.0,1116003203101102080399904999051989800600007000080000
4430,LFPN,48.7518997192,2.1061899662,2023-05-15 00:30:00,,,,,9.0,99999,99999,7.0,5.0,340.0,7000.0,99999,,98979.7,0.0,1114003405100902070399904999051989796600007000080000
4431,LFPO,48.7252998352,2.3594400883,2023-05-15 00:30:00,,,,,11.0,99999,99999,8.0,3.0,,10000.0,99999,,98980.4,0.0,1116003603101102080399904999051989803600007000080000
4435,LFRD,48.5876998901,-2.0799601078,2023-05-15 00:30:00,,,,,12.0,99999,99999,11.0,7.0,290.0,9000.0,99999,8.0,98977.7,0.0,11150829071012020110399904999051989776600007000088000
4436,LFRG,49.3652992249,0.1543059945,2023-05-15 00:30:00,10.0,36.0,+,yellow,11.0,99999,99999,11.0,6.0,270.0,5000.0,99999,8.0,98979.0,0.0,11130827061011020110399904999051989790600007100088000
4438,LFRN,48.0694999695,-1.7347899675,2023-05-15 00:30:00,,,,,11.0,99999,99999,10.0,3.0,300.0,8000.0,99999,7.0,98977.9,0.0,11140730031011020100399904999051989778600007000087000
4440,LFRS,47.1531982422,-1.610730052,2023-05-15 00:30:00,,,,,12.0,99999,99999,9.0,4.0,340.0,10000.0,99999,,98978.4,0.0,1116003404101202090399904999051989783600007000080000
4442,LFRZ,47.3121986389,-2.1491799355,2023-05-15 00:30:00,,,,,14.0,99999,99999,12.0,5.0,10.0,10000.0,99999,,98978.3,0.0,11160001051014020120399904999051989783600007000080000
4444,LFSN,48.6921005249,6.2304601669,2023-05-15 00:30:00,,,,,12.0,99999,99999,10.0,5.0,300.0,10000.0,99999,,98983.7,0.0,11160030051012020100399904999051989836600007000080000
4445,LFST,48.5382995605,7.6282300949,2023-05-15 00:30:00,,,,,10.0,99999,99999,9.0,6.0,220.0,10000.0,99999,,98985.1,0.0,1116002206101002090399904999051989851600007000080000
4446,LFTW,43.7574005127,4.4163498878,2023-05-15 00:30:00,,,,,15.0,99999,99999,7.0,8.0,310.0,10000.0,99999,,98985.7,0.0,1116003108101502070399904999051989856600007000080000
4447,LFBA,44.1747016907,0.5905560255,2023-05-15 00:30:00,,,,,14.0,99999,99999,12.0,6.0,270.0,8000.0,99999,,98979.0,0.0,11140027061014020120399904999051989790600007000080000
4448,LFBC,44.5332984924,-1.125,2023-05-15 00:30:00,,,,,14.0,99999,99999,12.0,7.0,310.0,10000.0,99999,3.0,98978.0,0.0,11160331071014020120399904999051989780600007000083000
4451,LFKF,41.5005989075,9.0977802277,2023-05-15 00:30:00,,,,,13.0,99999,99999,11.0,6.0,250.0,10000.0,99999,,98985.7,0.0,11160025061013020110399904999051989856600007000080000
4452,LFOE,49.0287017822,1.2198599577,2023-05-15 00:30:00,10.0,36.0,+,yellow,10.0,99999,99999,9.0,8.0,320.0,2400.0,99999,8.0,98980.0,0.0,1111083208101002090399904999051989800600007100088000
4453,LFOP,49.3842010498,1.1748000383,2023-05-15 00:30:00,10.0,36.0,+,yellow,9.0,99999,99999,9.0,8.0,300.0,4300.0,99999,8.0,98979.5,0.0,1112083008100902090399904999051989795600007100088000
4454,LFPB,48.9693984985,2.4413900375,2023-05-15 00:30:00,,,,,10.0,99999,99999,8.0,0.0,0.0,10000.0,99999,,98980.7,0.0,1116000000101002080399904999051989806600007000080000
4455,LFPG,49.0127983093,2.5499999523,2023-05-15 00:30:00,,,,,10.0,99999,99999,9.0,9.0,340.0,8000.0,99999,,98981.0,0.0,1114003409101002090399904999051989810600007000080000
4456,LFPV,48.7743988037,2.2015399933,2023-05-15 00:30:00,,,,,10.0,99999,99999,9.0,7.0,320.0,10000.0,99999,,98981.0,0.0,1116003207101002090399904999051989810600007000080000
4457,LFQB,48.322101593,4.016699791,2023-05-15 00:30:00,10.0,36.0,+,yellow,10.0,99999,99999,9.0,7.0,300.0,4300.0,99999,,98981.4,0.0,1112003007101002090399904999051989813600007100080000
4458,LFQQ,50.5619010925,3.0894401073,2023-05-15 00:30:00,10.0,36.0,+,yellow,10.0,99999,99999,9.0,7.0,290.0,3900.0,99999,8.0,98980.6,0.0,1112082907101002090399904999051989806600007100088000
4460,LFSD,47.268901825,5.0900001526,2023-05-15 00:30:00,,,,,13.0,99999,99999,11.0,8.0,330.0,8000.0,99999,5.0,98982.5,0.0,11140533081013020110399904999051989825600007000085000
