,station,lat,lon,time,weather,weatherfont,weathersymbol,weathercolour,temperature,pressure,sl_pressure,dewpoint,windspeed,winddir,visibility,visual_range,cloudcover,pressure3h_change,rain,wwletter
71,ETNG,50.9608001709,6.0424199104,2023-08-16 23:50:00,,,,,19.0,99999,99999,17.0,3.0,30.0,10000.0,99999,5.0,98979.1,0.0,11160503031019020170399904999051989791600007000085000
740,ENBO,67.269203186,14.3653001785,2023-08-16 23:50:00,51.0,36.0,T,green,12.0,99999,99999,11.0,12.0,320.0,10000.0,99999,3.0,98980.4,0.0,11160332121012020110399904999051989803600007510083000
759,EGJB,49.4350013733,-2.6019699574,2023-08-16 23:50:00,,,,,16.0,99999,99999,15.0,4.0,60.0,10000.0,99999,1.0,98979.1,0.0,11160106041016020150399904999051989791600007000081000
820,LGSM,37.6899986267,26.911699295,2023-08-16 23:50:00,,,,,25.0,99999,99999,17.0,3.0,,10000.0,99999,,98991.1,0.0,11160036031025020170399904999051989911600007000080000
862,LGAL,40.8558998108,25.9563007355,2023-08-16 23:50:00,,,,,26.0,99999,99999,18.0,6.0,40.0,10000.0,99999,,98987.2,0.0,11160004061026020180399904999051989871600007000080000
863,LGLM,39.917098999,25.2362995148,2023-08-16 23:50:00,,,,,25.0,99999,99999,19.0,14.0,50.0,10000.0,99999,1.0,98988.0,0.0,11160105141025020190399904999051989880600007000081000
952,LGKL,37.0682983398,22.0254993439,2023-08-16 23:50:00,,,,,26.0,99999,99999,19.0,8.0,350.0,10000.0,99999,,98987.5,0.0,11160035081026020190399904999051989875600007000080000
1097,LTAY,37.7855987549,29.7012996674,2023-08-16 23:50:00,,,,,21.0,99999,99999,18.0,0.0,0.0,10000.0,99999,,98990.0,0.0,11160000001021020180399904999051989900600007000080000
1098,LTBD,37.8149986267,27.8952999115,2023-08-16 23:50:00,,,,,24.0,99999,99999,22.0,0.0,0.0,10000.0,99999,,98990.8,0.0,11160000001024020220399904999051989908600007000080000
1100,LTBH,40.1376991272,26.4267997742,2023-08-16 23:50:00,,,,,25.0,99999,99999,22.0,13.0,70.0,10000.0,99999,3.0,98989.0,0.0,11160307131025020220399904999051989890600007000083000
1102,LTBY,39.8098983765,30.5193996429,2023-08-16 23:50:00,,,,,20.0,99999,99999,18.0,2.0,270.0,10000.0,99999,,0.0,0.0,11160027021020020180399904999051000600007000080000
1104,LTCB,40.966667,38.08,2023-08-16 23:50:00,,,,,23.0,99999,99999,21.0,0.0,0.0,10000.0,99999,3.0,98986.7,0.0,11160300001023020210399904999051989866600007000083000
1108,LTCN,37.5388259888,36.9535217285,2023-08-16 23:50:00,,,,,28.0,99999,99999,22.0,9.0,280.0,10000.0,99999,,98992.3,0.0,11160028091028020220399904999051989923600007000080000
1109,LTCT,39.9766273499,43.8766479492,2023-08-16 23:50:00,,,,,23.0,99999,99999,5.0,6.0,250.0,10000.0,99999,,0.0,0.0,1116002506102302050399904999051000600007000080000
1110,LTDA,36.36277771,36.2822227478,2023-08-16 23:50:00,,,,,28.0,99999,99999,24.0,10.0,260.0,10000.0,99999,,98993.3,0.0,11160026101028020240399904999051989933600007000080000
1111,LTFD,39.554599762,27.0137996674,2023-08-16 23:50:00,,,,,26.0,99999,99999,21.0,14.0,80.0,10000.0,99999,,98989.6,0.0,11160008141026020210399904999051989896600007000080000
1112,LTFG,36.2992172241,32.3005981445,2023-08-16 23:50:00,10.0,36.0,+,yellow,28.0,99999,99999,26.0,0.0,0.0,4000.0,99999,6.0,98993.7,0.0,11120600001028020260399904999051989936600007100086000
1117,EGNS,54.0833015442,-4.6238899231,2023-08-16 23:50:00,,,,,11.0,99999,99999,10.0,7.0,40.0,10000.0,99999,,98976.6,0.0,11160004071011020100399904999051989766600007000080000
1152,ELLX,49.6265983582,6.211520195,2023-08-16 23:50:00,10.0,36.0,+,yellow,16.0,99999,99999,16.0,4.0,60.0,1100.0,99999,3.0,98980.5,0.0,11100306041016020160399904999051989805600007100083000
1155,EGQL,56.3728981018,-2.8684399128,2023-08-16 23:50:00,,,,,16.0,99999,99999,14.0,10.0,110.0,10000.0,99999,6.0,98975.1,0.0,11160611101016020140399904999051989751600007000086000
1156,EGQS,57.7052001953,-3.3391699791,2023-08-16 23:50:00,,,,,15.0,99999,99999,12.0,6.0,100.0,10000.0,99999,8.0,98975.1,0.0,11160810061015020120399904999051989751600007000088000
1168,LGBL,39.2196006775,22.7943000793,2023-08-16 23:50:00,,,,,23.0,99999,99999,17.0,4.0,280.0,10000.0,99999,,98987.3,0.0,11160028041023020170399904999051989873600007000080000
1169,LGLR,39.6562825886,22.3400008678,2023-08-16 23:50:00,,,,,23.0,99999,99999,15.0,0.0,0.0,10000.0,99999,,98986.9,0.0,11160000001023020150399904999051989868600007000080000
1172,LGTG,38.3398017883,23.5650005341,2023-08-16 23:50:00,,,,,23.0,99999,99999,11.0,5.0,310.0,10000.0,99999,,98987.7,0.0,11160031051023020110399904999051989876600007000080000
1257,LTAB,39.9350013733,32.7407989502,2023-08-16 23:50:00,,,,,24.0,99999,99999,11.0,0.0,0.0,10000.0,99999,,98989.9,0.0,11160000001024020110399904999051989898600007000080000
1262,LTAN,37.9790000916,32.5619010925,2023-08-16 23:50:00,,,,,23.0,99999,99999,2.0,5.0,330.0,10000.0,99999,,98992.2,0.0,1116003305102302020399904999051989921600007000080000
1263,LTAR,39.8138008118,36.9034996033,2023-08-16 23:50:00,,,,,16.0,99999,99999,10.0,5.0,350.0,10000.0,99999,,98988.6,0.0,11160035051016020100399904999051989886600007000080000
1266,LTBG,40.3180007935,27.9776992798,2023-08-16 23:50:00,,,,,24.0,99999,99999,22.0,12.0,50.0,10000.0,99999,,98989.0,0.0,11160005121024020220399904999051989890600007000080000
1267,LTBI,39.7840995789,30.5820999146,2023-08-16 23:50:00,,,,,23.0,99999,99999,21.0,5.0,250.0,10000.0,99999,,98988.1,0.0,11160025051023020210399904999051989881600007000080000
1269,LTBL,38.5130004883,27.010099411,2023-08-16 23:50:00,,,,,24.0,99999,99999,22.0,0.0,0.0,10000.0,99999,,98991.0,0.0,11160000001024020220399904999051989910600007000080000
1270,LTBQ,40.7350006104,30.0832996368,2023-08-16 23:50:00,,,,,22.0,99999,99999,21.0,0.0,0.0,8000.0,99999,4.0,98988.2,0.0,11140400001022020210399904999051989881600007000084000
1272,LTCI,38.4682006836,43.3322982788,2023-08-16 23:50:00,,,,,25.0,99999,99999,-7.0,6.0,,10000.0,99999,,98992.5,0.0,1116003606102502170399904999051989925600007000080000
1289,LGPZ,38.9254989624,20.7653007507,2023-08-16 23:50:00,,,,,23.0,99999,99999,23.0,0.0,0.0,10000.0,99999,,98986.9,0.0,11160000001023020230399904999051989868600007000080000
1290,LGRX,38.1511001587,21.4256000519,2023-08-16 23:50:00,,,,,23.0,99999,99999,19.0,0.0,0.0,10000.0,99999,,98986.9,0.0,11160000001023020190399904999051989868600007000080000
1291,LTAE,40.0788993835,32.5656013489,2023-08-16 23:50:00,,,,,24.0,99999,99999,12.0,6.0,20.0,10000.0,99999,,98989.3,0.0,11160002061024020120399904999051989893600007000080000
1557,LTBF,39.6193008423,27.9260005951,2023-08-16 23:50:00,,,,,25.0,99999,99999,22.0,6.0,350.0,10000.0,99999,3.0,98989.3,0.0,11160335061025020220399904999051989893600007000083000
1560,LTCA,38.6068992615,39.2914009094,2023-08-16 23:50:00,,,,,20.0,99999,99999,1.0,4.0,270.0,10000.0,99999,,98994.1,0.0,1116002704102002010399904999051989941600007000080000
2011,UMGG,52.5270004272,31.0167007446,2023-08-17 00:00:00,,,,,19.0,99999,99999,16.0,1.0,,6000.0,99999,,98976.2,0.0,11130036011019020160399904999051989761600007000080000
2022,URMN,43.5129013062,43.6366004944,2023-08-17 00:00:00,,,,,20.0,99999,99999,16.0,2.0,260.0,10000.0,99999,,98985.0,0.0,11160026021020020160399904999051989850600007000080000
2035,UWLW,54.4010009766,48.8027000427,2023-08-17 00:00:00,,,,,19.0,99999,99999,18.0,2.0,310.0,10000.0,99999,,98983.2,0.0,11160031021019020180399904999051989831600007000080000
2044,LEGE,41.9010009766,2.7605500221,2023-08-17 00:00:00,,,,,22.0,99999,99999,21.0,4.0,30.0,10000.0,99999,1.0,98984.0,0.0,11160103041022020210399904999051989840600007000081000
2070,EGUL,52.4093017578,0.5609999895,2023-08-16 23:55:00,,,,,15.6,99999,99999,15.4,5.0,40.0,10000.0,99999,,98978.0,0.0,11160004051015520155399904999051989780600007000080000
2102,EGVN,51.75,-1.5836199522,2023-08-16 23:50:00,,,,,16.0,99999,99999,11.0,5.0,60.0,10000.0,99999,,98979.0,0.0,11160006051016020110399904999051989790600007000080000
2159,LKKB,50.1213989258,14.5436000824,2023-08-17 00:00:00,,,,,19.0,99999,99999,17.0,3.0,180.0,10000.0,99999,,0.0,0.0,11160018031019020170399904999051000600007000080000
2160,LKKV,50.202999115,12.9149999619,2023-08-17 00:00:00,41.0,36.0,J,yellow,19.0,99999,99999,18.0,4.0,70.0,10000.0,99999,,98979.3,0.0,11160007041019020180399904999051989793600007410080000
2161,LKLN,49.675201416,13.274600029,2023-08-17 00:00:00,,,,,16.0,99999,99999,15.0,1.0,,10000.0,99999,,98979.7,0.0,11160036011016020150399904999051989796600007000080000
2166,LOXZ,47.2028007507,14.7441997528,2023-08-16 23:50:00,,,,,16.0,99999,99999,15.0,2.0,,10000.0,99999,3.0,98977.9,0.0,11160336021016020150399904999051989778600007000083000
2176,LTCD,39.7102012634,39.5270004272,2023-08-16 23:50:00,,,,,16.0,99999,99999,9.0,2.0,,10000.0,99999,,98989.7,0.0,1116003602101602090399904999051989896600007000080000
2177,LTCF,40.5621986389,43.1150016785,2023-08-16 23:50:00,,,,,13.0,99999,99999,7.0,4.0,320.0,10000.0,99999,,98983.4,0.0,1116003204101302070399904999051989833600007000080000
2180,LTFH,41.2545013428,36.5671005249,2023-08-16 23:50:00,,,,,20.0,99999,99999,20.0,2.0,160.0,10000.0,99999,,0.0,0.0,11160016021020020200399904999051000600007000080000
2200,EGXC,53.0929985046,-0.1660140008,2023-08-16 23:50:00,10.0,36.0,+,yellow,16.0,99999,99999,15.0,7.0,90.0,8000.0,99999,6.0,98976.5,0.0,11140609071016020150399904999051989765600007100086000
2207,EGYM,52.648399353,0.5506920218,2023-08-16 23:50:00,,,,,16.0,99999,99999,14.0,5.0,80.0,10000.0,99999,8.0,98976.7,0.0,11160808051016020140399904999051989766600007000088000
2251,LPBJ,38.0788993835,-7.9324002266,2023-08-17 00:00:00,,,,,19.0,99999,99999,13.0,7.0,300.0,10000.0,99999,,98983.8,0.0,11160030071019020130399904999051989838600007000080000
2259,EIME,53.301700592,-6.4513301849,2023-08-17 00:00:00,,,,,14.0,99999,99999,10.0,5.0,90.0,10000.0,99999,1.0,98977.3,0.0,11160109051014020100399904999051989773600007000081000
2275,LICT,37.9113998413,12.4879999161,2023-08-16 23:55:00,,,,,22.0,99999,99999,19.0,2.0,150.0,10000.0,99999,,98982.4,0.0,11160015021022020190399904999051989823600007000080000
2278,LIBA,41.5414009094,15.7180995941,2023-08-16 23:55:00,,,,,22.0,99999,99999,20.0,5.0,280.0,10000.0,99999,,98983.0,0.0,11160028051022020200399904999051989830600007000080000
2280,LIBN,40.239200592,18.1333007813,2023-08-16 23:55:00,,,,,22.0,99999,99999,22.0,4.0,330.0,10000.0,99999,,98984.1,0.0,11160033041022020220399904999051989841600007000080000
2285,LIED,39.3541984558,8.9724798203,2023-08-16 23:55:00,,,,,23.0,99999,99999,20.0,3.0,350.0,10000.0,99999,,98984.0,0.0,11160035031023020200399904999051989840600007000080000
2288,LIPI,45.9786987305,13.0493001938,2023-08-16 23:55:00,,,,,22.0,99999,99999,20.0,99999.0,,10000.0,99999,,98982.8,0.0,11160036999991022020200399904999051989828600007000080000
2294,LICZ,37.4016990662,14.9224004745,2023-08-16 23:55:00,,,,,24.0,99999,99999,20.0,6.0,270.0,10000.0,99999,,98984.0,0.0,11160027061024020200399904999051989840600007000080000
2297,LIRM,41.060798645,14.0818996429,2023-08-16 23:55:00,,,,,21.0,99999,99999,21.0,3.0,280.0,10000.0,99999,,98982.5,0.0,11160028031021020210399904999051989825600007000080000
2301,ETAR,49.4369010925,7.600279808,2023-08-17 00:05:00,,,,,16.0,99999,99999,16.0,0.0,0.0,10000.0,99999,,98980.6,1.2,11160000001016020160399904999051989806601107000080000
2335,LIBV,40.7677993774,16.9333000183,2023-08-16 23:55:00,,,,,22.0,99999,99999,19.0,3.0,330.0,10000.0,99999,,98982.9,0.0,11160033031022020190399904999051989828600007000080000
2336,LIPC,44.2242012024,12.3072004318,2023-08-16 23:55:00,,,,,21.0,99999,99999,16.0,2.0,220.0,10000.0,99999,,98982.7,0.0,11160022021021020160399904999051989826600007000080000
2337,LIPL,45.4322013855,10.2677001953,2023-08-16 23:55:00,,,,,26.0,99999,99999,24.0,2.0,30.0,10000.0,99999,,98983.1,0.0,11160003021026020240399904999051989831600007000080000
2338,LIPS,45.6848983765,12.0829000473,2023-08-16 23:55:00,,,,,23.0,99999,99999,19.0,3.0,10.0,10000.0,99999,1.0,98982.8,0.0,11160101031023020190399904999051989828600007000081000
2339,LIRE,41.654499054,12.4451999664,2023-08-16 23:55:00,,,,,23.0,99999,99999,21.0,2.0,30.0,10000.0,99999,,98982.2,0.0,11160003021023020210399904999051989821600007000080000
2340,LIRS,42.7597007751,11.0719003677,2023-08-16 23:55:00,,,,,22.0,99999,99999,19.0,4.0,20.0,10000.0,99999,,98982.5,0.0,11160002041022020190399904999051989825600007000080000
2341,LBPG,42.2904014587,24.7140007019,2023-08-17 00:00:00,,,,,19.0,99999,99999,14.0,4.0,350.0,10000.0,99999,,98984.0,0.0,11160035041019020140399904999051989840600007000080000
2351,ULOO,57.7839012146,28.3955993652,2023-08-17 00:00:00,,,,,20.0,99999,99999,18.0,2.0,160.0,10000.0,99999,,98979.6,0.0,11160016021020020180399904999051989796600007000080000
2352,ULPB,61.8852005005,34.1547012329,2023-08-17 00:00:00,,,,,16.0,99999,99999,16.0,1.0,,10000.0,99999,,98980.2,0.0,11160036011016020160399904999051989801600007000080000
2362,LRBC,46.521900177,26.9102993011,2023-08-17 00:00:00,,,,,19.0,99999,99999,15.0,3.0,20.0,10000.0,99999,,98979.3,0.0,11160002031019020150399904999051989793600007000080000
2371,EVGA,56.778301239,24.8539009094,2023-08-17 00:20:00,,,,,19.0,99999,99999,17.0,5.0,330.0,10000.0,99999,,98980.0,0.0,11160033051019020170399904999051989800600007000080000
2377,LATI,41.4146995544,19.7206001282,2023-08-17 00:20:00,,,,,19.0,99999,99999,19.0,4.0,130.0,10000.0,99999,,98984.1,0.0,11160013041019020190399904999051989841600007000080000
2410,EVVA,57.35779953,21.5442008972,2023-08-17 00:20:00,44.0,36.0,M,yellow,13.0,99999,99999,13.0,0.0,0.0,2200.0,99999,,0.0,0.0,11110000001013020130399904999051000600007440080000
2420,LSZC,46.9744444444,8.3969444444,2023-08-17 00:20:00,,,,,19.0,99999,99999,16.0,2.0,270.0,10000.0,99999,,98981.2,0.0,11160027021019020160399904999051989811600007000080000
2428,EKRS,55.4258003235,11.8066997528,2023-08-17 00:20:00,,,,,13.0,99999,99999,13.0,2.0,,10000.0,99999,,98977.0,0.0,11160036021013020130399904999051989770600007000080000
2438,LSMD,47.398601532,8.648229599,2023-08-17 00:20:00,,,,,19.0,99999,99999,15.0,3.0,130.0,10000.0,99999,1.0,98981.0,0.0,11160113031019020150399904999051989810600007000081000
2439,LSME,47.0923995972,8.3051204681,2023-08-17 00:20:00,,,,,20.0,99999,99999,17.0,1.0,,10000.0,99999,,98982.8,0.0,11160036011020020170399904999051989828600007000080000
2440,LSMM,46.7433013916,8.1099996567,2023-08-17 00:20:00,,,,,18.0,99999,99999,17.0,4.0,100.0,10000.0,99999,3.0,98979.6,0.0,11160310041018020170399904999051989796600007000083000
2441,LSMP,46.8432006836,6.9150600433,2023-08-17 00:20:00,,,,,20.0,99999,99999,15.0,3.0,200.0,10000.0,99999,,98982.6,0.0,11160020031020020150399904999051989826600007000080000
2509,ESTA,56.2961006165,12.8471002579,2023-08-17 00:20:00,,,,,14.0,99999,99999,14.0,0.0,0.0,10000.0,99999,6.0,98977.0,0.0,11160600001014020140399904999051989770600007000086000
2510,ESTL,56.0828018188,13.2124996185,2023-08-17 00:20:00,41.0,36.0,J,yellow,10.0,99999,99999,10.0,0.0,0.0,650.0,99999,,98977.0,0.0,11100000001010020100399904999051989770600007410080000
2511,EGHQ,50.4406013489,-4.9954099655,2023-08-17 00:20:00,,,,,15.0,99999,99999,14.0,6.0,60.0,10000.0,99999,,98978.7,0.0,11160006061015020140399904999051989786600007000080000
2513,EGCK,53.1041984558,-4.340280056,2023-08-17 00:20:00,,,,,14.0,99999,99999,11.0,7.0,40.0,10000.0,99999,,98977.4,0.0,11160004071014020110399904999051989773600007000080000
2553,ESOH,60.0200996399,13.5789003372,2023-08-17 00:20:00,,,,,14.0,99999,99999,14.0,4.0,360.0,10000.0,99999,5.0,98979.9,0.0,11160536041014020140399904999051989798600007000085000
2561,ESNZ,63.1944007874,14.5003004074,2023-08-17 00:20:00,,,,,11.0,99999,99999,10.0,15.0,300.0,10000.0,99999,1.0,98978.9,0.0,11160130151011020100399904999051989788600007000081000
2563,ESCF,58.4023017883,15.5256996155,2023-08-17 00:20:00,,,,,15.0,99999,99999,14.0,5.0,220.0,10000.0,99999,8.0,98978.8,0.0,11160822051015020140399904999051989788600007000088000
2565,ESIB,58.426399231,12.7144002914,2023-08-17 00:20:00,,,,,16.0,99999,99999,14.0,8.0,250.0,10000.0,99999,8.0,98978.5,0.0,11160825081016020140399904999051989785600007000088000
2566,ESMV,57.2921981812,14.1372003555,2023-08-17 00:20:00,,,,,13.0,99999,99999,12.0,2.0,,10000.0,99999,6.0,98977.0,0.0,11160636021013020120399904999051989770600007000086000
2568,ESPE,65.8752975464,20.1499004364,2023-08-17 00:20:00,,,,,12.0,99999,99999,11.0,4.0,310.0,10000.0,99999,3.0,98985.5,0.0,11160331041012020110399904999051989855600007000083000
2570,ESIA,58.5138015747,14.5071001053,2023-08-17 00:20:00,,,,,16.0,99999,99999,13.0,6.0,270.0,10000.0,99999,8.0,98979.4,0.0,11160827061016020130399904999051989793600007000088000
2571,ESCM,59.8973007202,17.5886001587,2023-08-17 00:20:00,,,,,14.0,99999,99999,14.0,5.0,250.0,10000.0,99999,,98980.6,0.0,11160025051014020140399904999051989806600007000080000
2613,LIMZ,44.547000885,7.6232199669,2023-08-17 00:20:00,,,,,21.0,99999,99999,17.0,3.0,190.0,10000.0,99999,6.0,0.0,0.0,11160619031021020170399904999051000600007000086000
2617,LIPO,45.4289016724,10.3305997849,2023-08-17 00:20:00,,,,,26.0,99999,99999,18.0,1.0,310.0,10000.0,99999,6.0,0.0,0.0,11160631011026020180399904999051000600007000086000
2660,EFKS,65.9876022339,29.2394008636,2023-08-17 00:20:00,,,,,16.0,99999,99999,15.0,7.0,200.0,10000.0,99999,6.0,98986.0,0.0,11160620071016020150399904999051989860600007000086000
2661,EFLP,61.0446014404,28.1443996429,2023-08-17 00:20:00,,,,,17.0,99999,99999,17.0,3.0,190.0,10000.0,99999,,98980.9,0.0,11160019031017020170399904999051989808600007000080000
2673,ESGT,58.3180999756,12.345000267,2023-08-17 00:20:00,,,,,15.0,99999,99999,13.0,5.0,220.0,10000.0,99999,8.0,98978.0,0.0,11160822051015020130399904999051989780600007000088000
2683,ESNV,64.5791015625,16.8335990906,2023-08-17 00:20:00,,,,,10.0,99999,99999,8.0,4.0,310.0,10000.0,99999,,98981.9,0.0,1116003104101002080399904999051989818600007000080000
2685,ESST,60.1576004028,12.9912996292,2023-08-17 00:20:00,,,,,13.0,99999,99999,13.0,2.0,,10000.0,99999,6.0,0.0,0.0,11160636021013020130399904999051000600007000086000
2686,ESUP,67.2455978394,23.0688991547,2023-08-17 00:20:00,,,,,13.0,99999,99999,12.0,8.0,320.0,10000.0,99999,4.0,98988.0,0.0,11160432081013020120399904999051989880600007000084000
2687,ESND,62.0477981567,14.4229001999,2023-08-17 00:20:00,,,,,10.0,99999,99999,8.0,5.0,260.0,10000.0,99999,,98979.2,0.0,1116002605101002080399904999051989791600007000080000
2715,EEKE,58.2299003601,22.5095005035,2023-08-17 00:20:00,,,,,16.0,99999,99999,15.0,2.0,280.0,7000.0,99999,,98980.4,0.0,11140028021016020150399904999051989803600007000080000
2717,EEPU,58.4189987183,24.4727993011,2023-08-17 00:20:00,,,,,19.0,99999,99999,19.0,8.0,300.0,10000.0,99999,8.0,0.0,0.0,11160830081019020190399904999051000600007000088000
2724,EDBC,51.8563995361,11.42029953,2023-08-17 00:20:00,,,,,19.0,99999,99999,18.0,6.0,360.0,10000.0,99999,5.0,98979.0,0.0,11160536061019020180399904999051989790600007000085000
2781,EFET,68.3626022339,23.4242992401,2023-08-17 00:20:00,,,,,11.0,99999,99999,9.0,14.0,350.0,10000.0,99999,8.0,0.0,0.0,1116083514101102090399904999051000600007000088000
2782,EFHA,61.8559989929,24.7866001129,2023-08-17 00:20:00,,,,,16.0,99999,99999,15.0,4.0,220.0,10000.0,99999,1.0,98982.2,0.0,11160122041016020150399904999051989821600007000081000
2783,EFJO,62.6628990173,29.6075000763,2023-08-17 00:20:00,,,,,19.0,99999,99999,17.0,4.0,220.0,10000.0,99999,,98982.4,0.0,11160022041019020170399904999051989823600007000080000
2788,EFKT,67.7009963989,24.8467998505,2023-08-17 00:20:00,,,,,12.0,99999,99999,11.0,10.0,340.0,10000.0,99999,8.0,98990.0,0.0,11160834101012020110399904999051989900600007000088000
2790,EFMI,61.6865997314,27.2017993927,2023-08-17 00:20:00,,,,,18.0,99999,99999,17.0,3.0,230.0,10000.0,99999,6.0,98981.9,0.0,11160623031018020170399904999051989818600007000086000
2792,EFSA,61.9430999756,28.9451007843,2023-08-17 00:20:00,80.0,36.0,q,green,19.0,99999,99999,17.0,3.0,210.0,10000.0,99999,,98982.1,0.0,11160021031019020170399904999051989821600007800080000
2793,EFSI,62.6921005249,22.8323001862,2023-08-17 00:20:00,,,,,14.0,99999,99999,13.0,4.0,200.0,10000.0,99999,,0.0,0.0,11160020041014020130399904999051000600007000080000
2794,EFUT,60.8964004517,26.9384002686,2023-08-17 00:20:00,,,,,18.0,99999,99999,17.0,5.0,210.0,10000.0,99999,8.0,98981.4,0.0,11160821051018020170399904999051989813600007000088000
2800,ESMQ,56.6855010986,16.2875995636,2023-08-17 00:20:00,,,,,12.0,99999,99999,11.0,2.0,280.0,10000.0,99999,,98977.9,0.0,11160028021012020110399904999051989778600007000080000
2802,ESMT,56.6911010742,12.8201999664,2023-08-17 00:20:00,,,,,14.0,99999,99999,14.0,0.0,0.0,10000.0,99999,1.0,98977.2,0.0,11160100001014020140399904999051989771600007000081000
2858,EETU,58.3074989319,26.6903991699,2023-08-17 00:20:00,,,,,18.0,99999,99999,16.0,5.0,270.0,10000.0,99999,,98981.0,0.0,11160027051018020160399904999051989810600007000080000
2860,EVLA,56.5175018311,21.0969009399,2023-08-17 00:20:00,,,,,13.0,99999,99999,13.0,2.0,120.0,10000.0,99999,,98978.3,0.0,11160012021013020130399904999051989783600007000080000
2862,EYKA,54.9639015198,24.0848007202,2023-08-17 00:20:00,,,,,21.0,99999,99999,16.0,3.0,160.0,10000.0,99999,,0.0,0.0,11160016031021020160399904999051000600007000080000
2863,EYPA,55.9732017517,21.0939006805,2023-08-17 00:20:00,,,,,16.0,99999,99999,15.0,1.0,,10000.0,99999,,98978.0,0.0,11160036011016020150399904999051989780600007000080000
2908,EDJA,47.9888000488,10.2395000458,2023-08-17 00:20:00,,,,,16.0,99999,99999,15.0,2.0,,10000.0,99999,1.0,0.0,0.0,11160136021016020150399904999051000600007000081000
2915,EDTY,49.1183319092,9.7838888168,2023-08-17 00:20:00,,,,,19.0,99999,99999,18.0,2.0,280.0,10000.0,99999,4.0,98980.8,0.0,11160428021019020180399904999051989808600007000084000
2919,EDWE,53.3911094666,7.2274999619,2023-08-17 00:20:00,,,,,14.0,99999,99999,12.0,4.0,10.0,10000.0,99999,4.0,98976.2,0.0,11160401041014020120399904999051989761600007000084000
2922,EKBI,55.7402992249,9.1517801285,2023-08-17 00:20:00,,,,,14.0,99999,99999,12.0,4.0,280.0,10000.0,99999,8.0,98975.4,0.0,11160828041014020120399904999051989753600007000088000
2923,EKCH,55.6179008484,12.6560001373,2023-08-17 00:20:00,,,,,16.0,99999,99999,14.0,6.0,340.0,10000.0,99999,,98976.4,0.0,11160034061016020140399904999051989763600007000080000
2924,EKEB,55.5259017944,8.5534000397,2023-08-17 00:20:00,,,,,14.0,99999,99999,12.0,3.0,300.0,10000.0,99999,8.0,98976.0,0.0,11160830031014020120399904999051989760600007000088000
2926,EKRK,55.5856018066,12.1314001083,2023-08-17 00:20:00,,,,,11.0,99999,99999,11.0,2.0,320.0,10000.0,99999,,98976.0,0.0,11160032021011020110399904999051989760600007000080000
2927,EKRN,55.0633010864,14.7595996857,2023-08-17 00:20:00,,,,,13.0,99999,99999,13.0,1.0,360.0,10000.0,99999,,98977.0,0.0,11160036011013020130399904999051989770600007000080000
2928,EKSB,54.9644012451,9.7917299271,2023-08-17 00:20:00,,,,,14.0,99999,99999,13.0,6.0,350.0,10000.0,99999,,98975.6,0.0,11160035061014020130399904999051989756600007000080000
2930,EKSP,55.2256011963,9.2639303207,2023-08-17 00:20:00,41.0,36.0,J,yellow,9.0,99999,99999,9.0,0.0,0.0,700.0,99999,,98976.0,0.0,1110000000100902090399904999051989760600007410080000
2931,EKVD,55.4362983704,9.3309202194,2023-08-17 00:20:00,,,,,12.0,99999,99999,11.0,0.0,0.0,10000.0,99999,,98975.6,0.0,11160000001012020110399904999051989756600007000080000
2940,EETN,59.4132995605,24.8327999115,2023-08-17 00:20:00,,,,,19.0,99999,99999,16.0,8.0,270.0,10000.0,99999,4.0,98980.4,0.0,11160427081019020160399904999051989803600007000084000
2941,EFHK,60.317199707,24.963300705,2023-08-17 00:20:00,,,,,17.0,99999,99999,17.0,6.0,210.0,10000.0,99999,2.0,98980.9,1.8,11160221061017020170399904999051989808601807000082000
2942,EFIV,68.6072998047,27.4053001404,2023-08-17 00:20:00,80.0,36.0,q,green,15.0,99999,99999,15.0,1.0,,7000.0,99999,8.0,98989.7,0.5,11140836011015020150399904999051989896600507800088000
2943,EFJY,62.3995018005,25.6783008575,2023-08-17 00:20:00,,,,,17.0,99999,99999,16.0,5.0,220.0,10000.0,99999,1.0,98982.4,0.0,11160122051017020160399904999051989823600007000081000
2944,EFKE,65.7787017822,24.5820999146,2023-08-17 00:20:00,,,,,17.0,99999,99999,16.0,8.0,210.0,10000.0,99999,8.0,98987.4,0.0,11160821081017020160399904999051989873600007000088000
2945,EFKK,63.7211990356,23.1431007385,2023-08-17 00:20:00,,,,,15.0,99999,99999,14.0,8.0,200.0,10000.0,99999,8.0,98984.9,0.0,11160820081015020140399904999051989848600007000088000
2947,EFMA,60.1222000122,19.8981990814,2023-08-17 00:20:00,,,,,15.0,99999,99999,14.0,4.0,250.0,10000.0,99999,,98981.0,0.0,11160025041015020140399904999051989810600007000080000
2948,EFOU,64.9300994873,25.3546009064,2023-08-17 00:20:00,,,,,16.0,99999,99999,14.0,6.0,200.0,10000.0,99999,8.0,98985.7,0.0,11160820061016020140399904999051989856600007000088000
2949,EFPO,61.4617004395,21.7999992371,2023-08-17 00:20:00,,,,,15.0,99999,99999,14.0,4.0,180.0,10000.0,99999,,98982.5,0.0,11160018041015020140399904999051989825600007000080000
2950,EFRO,66.5647964478,25.8304004669,2023-08-17 00:20:00,80.0,36.0,q,green,16.0,99999,99999,15.0,11.0,200.0,10000.0,99999,8.0,98988.0,0.0,11160820111016020150399904999051989880600007800088000
2951,EFTP,61.414100647,23.6044006348,2023-08-17 00:20:00,,,,,16.0,99999,99999,15.0,7.0,220.0,10000.0,99999,6.0,98981.6,0.0,11160622071016020150399904999051989816600007000086000
2952,EFTU,60.5140991211,22.2628002167,2023-08-17 00:20:00,,,,,16.0,99999,99999,15.0,5.0,230.0,10000.0,99999,3.0,98981.0,0.0,11160323051016020150399904999051989810600007000083000
2953,EFVA,63.0507011414,21.7621994019,2023-08-17 00:20:00,,,,,14.0,99999,99999,14.0,2.0,230.0,10000.0,99999,1.0,98984.9,0.0,11160123021014020140399904999051989848600007000081000
2954,ENBR,60.2933998108,5.2181401253,2023-08-17 00:20:00,,,,,12.0,99999,99999,12.0,3.0,340.0,10000.0,99999,3.0,0.0,0.0,11160334031012020120399904999051000600007000083000
2955,ENCN,58.2042007446,8.0853700638,2023-08-17 00:20:00,,,,,11.0,99999,99999,10.0,5.0,60.0,10000.0,99999,,98980.0,0.0,11160006051011020100399904999051989800600007000080000
2957,ENHD,59.3452987671,5.2083601952,2023-08-17 00:20:00,,,,,13.0,99999,99999,11.0,9.0,340.0,10000.0,99999,6.0,98976.0,0.0,11160634091013020110399904999051989760600007000086000
2960,ENVA,63.4578018188,10.9239997864,2023-08-17 00:20:00,,,,,13.0,99999,99999,11.0,9.0,250.0,10000.0,99999,3.0,98975.7,0.0,11160325091013020110399904999051989756600007000083000
2961,ENZV,58.876701355,5.6377801895,2023-08-17 00:20:00,,,,,14.0,99999,99999,11.0,6.0,340.0,10000.0,99999,4.0,0.0,0.0,11160434061014020110399904999051000600007000084000
2962,EVRA,56.9235992432,23.9710998535,2023-08-17 00:20:00,,,,,19.0,99999,99999,18.0,2.0,330.0,10000.0,99999,,0.0,0.0,11160033021019020180399904999051000600007000080000
2963,EYVI,54.6341018677,25.2858009338,2023-08-17 00:20:00,,,,,20.0,99999,99999,17.0,4.0,160.0,10000.0,99999,,98978.0,0.0,11160016041020020170399904999051989780600007000080000
2966,LGIR,35.3396987915,25.1802997589,2023-08-17 00:20:00,,,,,24.0,99999,99999,20.0,5.0,170.0,10000.0,99999,,98988.4,0.0,11160017051024020200399904999051989883600007000080000
2968,LGKR,39.6018981934,19.911699295,2023-08-17 00:20:00,,,,,23.0,99999,99999,20.0,0.0,0.0,10000.0,99999,,98987.1,0.0,11160000001023020200399904999051989871600007000080000
2970,LGRP,36.4053993225,28.0862007141,2023-08-17 00:20:00,,,,,26.0,99999,99999,25.0,11.0,230.0,8000.0,99999,1.0,98992.2,0.0,11140123111026020250399904999051989921600007000081000
2997,ENAL,62.5625,6.119699955,2023-08-17 00:20:00,,,,,13.0,99999,99999,12.0,13.0,40.0,10000.0,99999,8.0,98975.5,0.0,11160804131013020120399904999051989755600007000088000
3003,ENDU,69.0558013916,18.5403995514,2023-08-17 00:20:00,16.0,36.0,1,,11.0,99999,99999,10.0,6.0,280.0,10000.0,99999,3.0,0.0,0.0,11160328061011020100399904999051000600007160083000
3017,ENRO,62.5783996582,11.342300415,2023-08-17 00:20:00,,,,,5.0,99999,99999,4.0,0.0,0.0,10000.0,99999,6.0,98976.0,0.0,1116060000100502040399904999051989760600007000086000
3019,ENRY,59.3788986206,10.7855997086,2023-08-17 00:20:00,45.0,36.0,N,yellow,15.0,99999,99999,15.0,0.0,0.0,250.0,99999,,0.0,0.0,11100000001015020150399904999051000600007450080000
3024,ENTO,59.1866989136,10.258600235,2023-08-17 00:20:00,,,,,16.0,99999,99999,16.0,3.0,50.0,8000.0,99999,5.0,0.0,0.0,11140505031016020160399904999051000600007000085000
3026,ESDF,56.2667007446,15.2650003433,2023-08-17 00:20:00,,,,,10.0,99999,99999,10.0,2.0,10.0,10000.0,99999,,98977.0,0.0,11160001021010020100399904999051989770600007000080000
3027,ESGG,57.6627998352,12.279800415,2023-08-17 00:20:00,,,,,12.0,99999,99999,11.0,3.0,230.0,10000.0,99999,1.0,98978.0,0.0,11160123031012020110399904999051989780600007000081000
3028,ESGJ,57.757598877,14.0686998367,2023-08-17 00:20:00,,,,,13.0,99999,99999,13.0,4.0,270.0,10000.0,99999,,98977.9,0.0,11160027041013020130399904999051989778600007000080000
3029,ESGP,57.7747001648,11.8704004288,2023-08-17 00:20:00,,,,,12.0,99999,99999,11.0,3.0,170.0,10000.0,99999,,98978.4,0.0,11160017031012020110399904999051989783600007000080000
3030,ESKN,58.7886009216,16.9122009277,2023-08-17 00:20:00,,,,,15.0,99999,99999,14.0,4.0,270.0,10000.0,99999,,98979.0,0.0,11160027041015020140399904999051989790600007000080000
3031,ESMK,55.9216995239,14.0854997635,2023-08-17 00:20:00,,,,,11.0,99999,99999,11.0,2.0,290.0,200.0,99999,,98976.9,0.0,11100029021011020110399904999051989768600007000080000
3032,ESMS,55.536305364,13.3761978149,2023-08-17 00:20:00,41.0,36.0,J,yellow,11.0,99999,99999,11.0,2.0,70.0,350.0,99999,,98976.5,0.0,11100007021011020110399904999051989765600007410080000
3033,ESMX,56.9291000366,14.7279996872,2023-08-17 00:20:00,,,,,13.0,99999,99999,13.0,0.0,0.0,10000.0,99999,6.0,98977.4,0.0,11160600001013020130399904999051989773600007000086000
3034,ESNN,62.5280990601,17.4438991547,2023-08-17 00:20:00,,,,,14.0,99999,99999,10.0,12.0,320.0,10000.0,99999,,98982.5,0.0,11160032121014020100399904999051989825600007000080000
3037,ESNS,64.6248016357,21.0769004822,2023-08-17 00:20:00,,,,,13.0,99999,99999,13.0,6.0,290.0,10000.0,99999,1.0,98987.0,0.0,11160129061013020130399904999051989870600007000081000
3038,ESNU,63.7918014526,20.2828006744,2023-08-17 00:20:00,,,,,13.0,99999,99999,12.0,7.0,300.0,10000.0,99999,,98986.0,0.0,11160030071013020120399904999051989860600007000080000
3040,ESOW,59.5894012451,16.633600235,2023-08-17 00:20:00,,,,,15.0,99999,99999,13.0,3.0,270.0,10000.0,99999,,98980.2,0.0,11160027031015020130399904999051989801600007000080000
3043,ESSB,59.3544006348,17.9416999817,2023-08-17 00:20:00,,,,,16.0,99999,99999,14.0,4.0,250.0,10000.0,99999,,98980.1,0.0,11160025041016020140399904999051989801600007000080000
3044,ESSD,60.422000885,15.5151996613,2023-08-17 00:20:00,,,,,15.0,99999,99999,11.0,8.0,350.0,10000.0,99999,1.0,98980.7,0.0,11160135081015020110399904999051989806600007000081000
3045,ESSP,58.5862998962,16.2506008148,2023-08-17 00:20:00,,,,,16.0,99999,99999,14.0,4.0,250.0,10000.0,99999,4.0,98979.4,0.0,11160425041016020140399904999051989793600007000084000
3047,LSGC,47.0839004517,6.792840004,2023-08-17 00:20:00,,,,,16.0,99999,99999,14.0,2.0,260.0,10000.0,99999,,98981.4,0.0,11160026021016020140399904999051989813600007000080000
3048,LSGG,46.2380981445,6.1089501381,2023-08-17 00:20:00,,,,,20.0,99999,99999,13.0,1.0,,10000.0,99999,,98982.8,0.0,11160036011020020130399904999051989828600007000080000
3049,LSGS,46.2196006775,7.3267598152,2023-08-17 00:20:00,,,,,20.0,99999,99999,15.0,4.0,70.0,10000.0,99999,1.0,98980.9,0.0,11160107041020020150399904999051989808600007000081000
3050,LSZA,46.0042991638,8.9105796814,2023-08-17 00:20:00,,,,,23.0,99999,99999,18.0,2.0,,10000.0,99999,6.0,98981.6,0.0,11160636021023020180399904999051989816600007000086000
3051,LSZB,46.914100647,7.4971499443,2023-08-17 00:20:00,,,,,18.0,99999,99999,16.0,3.0,110.0,10000.0,99999,,98980.4,1.2,11160011031018020160399904999051989803601107000080000
3052,LSZG,47.1815986633,7.4171900749,2023-08-17 00:20:00,,,,,19.0,99999,99999,19.0,2.0,70.0,10000.0,99999,,98981.9,0.0,11160007021019020190399904999051989818600007000080000
3053,LSZH,47.4646987915,8.5491695404,2023-08-17 00:20:00,,,,,18.0,99999,99999,16.0,1.0,,10000.0,99999,,98981.9,0.0,11160036011018020160399904999051989818600007000080000
3054,LSZR,47.4850006104,9.5607700348,2023-08-17 00:20:00,,,,,22.0,99999,99999,20.0,7.0,260.0,10000.0,99999,,98983.1,0.0,11160026071022020200399904999051989831600007000080000
3055,LSZS,46.5340995789,9.8841104507,2023-08-17 00:20:00,45.0,36.0,N,yellow,10.0,99999,99999,10.0,0.0,0.0,550.0,99999,,98975.7,0.0,11100000001010020100399904999051989756600007450080000
3067,EGLL,51.4706001282,-0.4619410038,2023-08-17 00:20:00,,,,,17.0,99999,99999,14.0,3.0,40.0,10000.0,99999,,98978.3,0.0,11160004031017020140399904999051989783600007000080000
3076,EGPD,57.2019004822,-2.1977798939,2023-08-17 00:20:00,,,,,11.0,99999,99999,10.0,1.0,,10000.0,99999,6.0,98974.5,0.0,11160636011011020100399904999051989745600007000086000
3100,EDGS,50.707698822,8.0829696655,2023-08-17 00:20:00,,,,,15.0,99999,99999,15.0,4.0,100.0,10000.0,99999,6.0,98979.1,0.0,11160610041015020150399904999051989791600007000086000
3101,EDLV,51.6024017334,6.1421699524,2023-08-17 00:20:00,,,,,19.0,99999,99999,14.0,5.0,40.0,10000.0,99999,6.0,0.0,0.0,11160604051019020140399904999051000600007000086000
3104,EGPI,55.6819000244,-6.2566699982,2023-08-17 00:20:00,,,,,12.0,99999,99999,11.0,3.0,140.0,10000.0,99999,,98976.6,0.0,11160014031012020110399904999051989766600007000080000
3110,ESNK,63.0485992432,17.7688999176,2023-08-17 00:20:00,,,,,14.0,99999,99999,10.0,8.0,330.0,10000.0,99999,,98982.4,0.0,11160033081014020100399904999051989823600007000080000
3111,ESNL,64.5483016968,18.7161998749,2023-08-17 00:20:00,,,,,13.0,99999,99999,11.0,11.0,300.0,10000.0,99999,3.0,0.0,0.0,11160330111013020110399904999051000600007000083000
3112,ESNX,65.5903015137,19.2819004059,2023-08-17 00:20:00,53.0,36.0,V,green,12.0,99999,99999,11.0,9.0,300.0,7000.0,99999,7.0,0.0,0.0,11140730091012020110399904999051000600007530087000
3114,ESSL,58.4062004089,15.6805000305,2023-08-17 00:20:00,,,,,15.0,99999,99999,14.0,3.0,210.0,10000.0,99999,6.0,98979.4,0.0,11160621031015020140399904999051989793600007000086000
3115,ESUT,65.806098938,15.0827999115,2023-08-17 00:20:00,,,,,11.0,99999,99999,9.0,8.0,290.0,10000.0,99999,8.0,98980.4,0.0,1116082908101102090399904999051989803600007000088000
3119,EGAC,54.6180992126,-5.8724999428,2023-08-17 00:20:00,,,,,14.0,99999,99999,11.0,1.0,,10000.0,99999,,98976.9,0.0,11160036011014020110399904999051989768600007000080000
3120,EGBB,52.4538993835,-1.7480299473,2023-08-17 00:20:00,,,,,17.0,99999,99999,14.0,5.0,110.0,10000.0,99999,,98977.0,0.0,11160011051017020140399904999051989770600007000080000
3121,EGCC,53.3536987305,-2.2749500275,2023-08-17 00:20:00,,,,,13.0,99999,99999,12.0,5.0,60.0,10000.0,99999,,98976.8,0.0,11160006051013020120399904999051989768600007000080000
3123,EGGD,51.3827018738,-2.7190899849,2023-08-17 00:20:00,,,,,15.0,99999,99999,11.0,8.0,70.0,10000.0,99999,,98978.0,0.0,11160007081015020110399904999051989780600007000080000
3124,EGGP,53.3335990906,-2.8497200012,2023-08-17 00:20:00,51.0,36.0,T,green,14.0,99999,99999,12.0,3.0,30.0,10000.0,99999,,0.0,0.0,11160003031014020120399904999051000600007510080000
3125,EGGW,51.8746986389,-0.3683330119,2023-08-17 00:20:00,,,,,14.0,99999,99999,12.0,4.0,80.0,10000.0,99999,,98977.0,0.0,11160008041014020120399904999051989770600007000080000
3127,EGKK,51.1481018066,-0.1902779937,2023-08-17 00:20:00,,,,,14.0,99999,99999,14.0,3.0,90.0,9000.0,99999,,98977.9,0.0,11150009031014020140399904999051989778600007000080000
3128,EGLC,51.5052986145,0.0552779995,2023-08-17 00:20:00,,,,,17.0,99999,99999,15.0,4.0,60.0,10000.0,99999,,98978.0,0.0,11160006041017020150399904999051989780600007000080000
3129,EGLF,51.2757987976,-0.7763329744,2023-08-17 00:20:00,,,,,14.0,99999,99999,12.0,4.0,70.0,10000.0,99999,,98977.6,0.0,11160007041014020120399904999051989776600007000080000
3130,EGMD,50.9561004639,0.9391670227,2023-08-17 00:20:00,,,,,14.0,99999,99999,13.0,5.0,20.0,8000.0,99999,,0.0,0.0,11140002051014020130399904999051000600007000080000
3131,EGNM,53.8658981323,-1.6605700254,2023-08-17 00:20:00,10.0,36.0,+,yellow,14.0,99999,99999,14.0,6.0,70.0,1500.0,99999,5.0,98976.0,0.0,11100507061014020140399904999051989760600007100085000
3134,EGPC,58.4589004517,-3.0930600166,2023-08-17 00:20:00,,,,,12.0,99999,99999,10.0,7.0,100.0,10000.0,99999,,98973.9,0.0,11160010071012020100399904999051989738600007000080000
3135,EGPE,57.5424995422,-4.0475001335,2023-08-17 00:20:00,45.0,36.0,N,yellow,11.0,99999,99999,11.0,1.0,,450.0,99999,,98976.0,0.0,11100036011011020110399904999051989760600007450080000
3136,EGPF,55.8718986511,-4.4330601692,2023-08-17 00:20:00,,,,,14.0,99999,99999,13.0,4.0,70.0,9000.0,99999,6.0,98976.2,0.0,11150607041014020130399904999051989761600007000086000
3139,EGPL,57.481098175,-7.3627800941,2023-08-17 00:20:00,,,,,11.0,99999,99999,10.0,5.0,110.0,10000.0,99999,,98977.0,0.0,11160011051011020100399904999051989770600007000080000
3143,EGSS,51.8849983215,0.2349999994,2023-08-17 00:20:00,,,,,14.0,99999,99999,13.0,6.0,40.0,9000.0,99999,,98977.4,0.0,11150004061014020130399904999051989773600007000080000
3173,ESKM,60.957901001,14.5114002228,2023-08-17 00:20:00,,,,,99999.0,99999,99999,99999.0,5.0,320.0,10000.0,99999,1.0,98980.4,0.0,11160132051099999020999990399904999051989803600007000081000
3174,ESNG,67.1324005127,20.8145999908,2023-08-17 00:20:00,,,,,13.0,99999,99999,10.0,9.0,320.0,10000.0,99999,8.0,98985.9,0.3,11160832091013020100399904999051989858600307000088000
3175,ESNO,63.4082984924,18.9899997711,2023-08-17 00:20:00,,,,,13.0,99999,99999,12.0,11.0,290.0,10000.0,99999,,98985.0,0.0,11160029111013020120399904999051989850600007000080000
3176,ESNQ,67.8219985962,20.3367996216,2023-08-17 00:20:00,,,,,11.0,99999,99999,9.0,6.0,350.0,10000.0,99999,8.0,98985.0,0.5,1116083506101102090399904999051989850600507000088000
3177,ESOE,59.2237014771,15.0380001068,2023-08-17 00:20:00,45.0,36.0,N,yellow,14.0,99999,99999,13.0,2.0,,600.0,99999,1.0,98979.7,0.0,11100136021014020130399904999051989796600007450081000
3178,ESOK,59.4446983337,13.3374004364,2023-08-17 00:20:00,,,,,13.0,99999,99999,13.0,2.0,240.0,350.0,99999,6.0,98980.0,0.0,11100624021013020130399904999051989800600007000086000
3179,ESPA,65.543800354,22.1219997406,2023-08-17 00:20:00,,,,,15.0,99999,99999,14.0,12.0,320.0,10000.0,99999,4.0,98988.1,0.0,11160432121015020140399904999051989881600007000084000
3180,ESSV,57.6627998352,18.346200943,2023-08-17 00:20:00,,,,,16.0,99999,99999,14.0,6.0,250.0,10000.0,99999,6.0,98978.1,0.0,11160625061016020140399904999051989781600007000086000
3197,ENBV,70.8713989258,29.0342006683,2023-08-17 00:20:00,51.0,36.0,T,green,10.0,99999,99999,9.0,20.0,40.0,6000.0,99999,,98985.6,3.7,1113000420101002090399904999051989856603707510080000
3198,ENHF,70.6797027588,23.6686000824,2023-08-17 00:20:00,61.0,36.0,^,green,9.0,99999,99999,9.0,13.0,40.0,10000.0,99999,6.0,0.0,0.0,1116060413100902090399904999051000600007610086000
3199,ENMS,65.783996582,13.2149000168,2023-08-17 00:20:00,,,,,12.0,99999,99999,10.0,1.0,,10000.0,99999,8.0,0.0,0.0,11160836011012020100399904999051000600007000088000
3200,ENRA,66.363899231,14.3014001846,2023-08-17 00:20:00,,,,,12.0,99999,99999,10.0,9.0,250.0,10000.0,99999,8.0,0.0,0.0,11160825091012020100399904999051000600007000088000
3201,ENRS,67.5278015137,12.1033000946,2023-08-17 00:20:00,,,,,11.0,99999,99999,7.0,16.0,350.0,10000.0,99999,8.0,0.0,0.0,1116083516101102070399904999051000600007000088000
3202,ENSK,68.5788269043,15.033416748,2023-08-17 00:20:00,,,,,11.0,99999,99999,7.0,5.0,340.0,10000.0,99999,8.0,98980.2,0.0,1116083405101102070399904999051989801600007000088000
3203,ENVD,70.0652999878,29.8446998596,2023-08-17 00:20:00,,,,,13.0,99999,99999,12.0,10.0,20.0,10000.0,99999,8.0,0.0,0.0,11160802101013020120399904999051000600007000088000
3204,LGMT,39.0567016602,26.5983009338,2023-08-17 00:20:00,,,,,26.0,99999,99999,22.0,5.0,320.0,10000.0,99999,,98989.9,0.0,11160032051026020220399904999051989898600007000080000
3210,ENBN,65.4610977173,12.217499733,2023-08-17 00:20:00,61.0,36.0,^,green,12.0,99999,99999,11.0,6.0,310.0,10000.0,99999,5.0,0.0,0.0,11160531061012020110399904999051000600007610085000
3211,ENRM,64.8383026123,11.1461000443,2023-08-17 00:20:00,,,,,12.0,99999,99999,11.0,2.0,260.0,10000.0,99999,4.0,98976.9,0.0,11160426021012020110399904999051989768600007000084000
3212,LGEL,38.0638008118,23.5559997559,2023-08-17 00:20:00,,,,,25.0,99999,99999,13.0,0.0,0.0,10000.0,99999,1.0,98987.6,0.0,11160100001025020130399904999051989876600007000081000
3213,LIEA,40.6320991516,8.290769577,2023-08-17 00:20:00,,,,,19.0,99999,99999,16.0,3.0,60.0,10000.0,99999,,98982.4,0.0,11160006031019020160399904999051989823600007000080000
3214,LIEE,39.251499176,9.0542802811,2023-08-17 00:20:00,,,,,23.0,99999,99999,21.0,4.0,360.0,10000.0,99999,,98981.9,0.0,11160036041023020210399904999051989818600007000080000
3215,LIEO,40.8987007141,9.5176296234,2023-08-17 00:20:00,,,,,22.0,99999,99999,16.0,2.0,,10000.0,99999,,98982.3,0.0,11160036021022020160399904999051989823600007000080000
3216,LIME,45.6739006042,9.7041702271,2023-08-17 00:20:00,,,,,23.0,99999,99999,16.0,5.0,10.0,10000.0,99999,,98981.4,0.0,11160001051023020160399904999051989813600007000080000
3217,LIML,45.445098877,9.2767400742,2023-08-17 00:20:00,17.0,36.0,2,red,26.0,99999,99999,16.0,3.0,320.0,10000.0,99999,3.0,98982.4,0.0,11160332031026020160399904999051989823600007170083000
3218,LIRA,41.7994003296,12.5949001312,2023-08-17 00:20:00,,,,,23.0,99999,99999,20.0,1.0,190.0,10000.0,99999,,98982.0,0.0,11160019011023020200399904999051989820600007000080000
3219,LIRF,41.8045005798,12.2508001328,2023-08-17 00:20:00,,,,,24.0,99999,99999,24.0,3.0,110.0,10000.0,99999,6.0,98982.0,0.0,11160611031024020240399904999051989820600007000086000
3221,LIRP,43.6838989258,10.3927001953,2023-08-17 00:15:00,,,,,23.0,99999,99999,22.0,3.0,120.0,10000.0,99999,,98982.0,0.0,11160012031023020220399904999051989820600007000080000
3222,LIRQ,43.8100013733,11.2051000595,2023-08-17 00:20:00,,,,,23.0,99999,99999,18.0,2.0,80.0,10000.0,99999,,98982.3,0.0,11160008021023020180399904999051989823600007000080000
3223,EGAA,54.6575012207,-6.2158298492,2023-08-17 00:20:00,,,,,12.0,99999,99999,11.0,5.0,80.0,10000.0,99999,,98976.3,0.0,11160008051012020110399904999051989763600007000080000
3224,EGFF,51.3967018127,-3.3433299065,2023-08-17 00:20:00,,,,,17.0,99999,99999,12.0,9.0,50.0,10000.0,99999,,98978.1,0.0,11160005091017020120399904999051989781600007000080000
3228,EGNX,52.8311004639,-1.3280600309,2023-08-17 00:20:00,,,,,16.0,99999,99999,14.0,5.0,40.0,10000.0,99999,,98977.0,0.0,11160004051016020140399904999051989770600007000080000
3230,EGPB,59.8788986206,-1.2955600023,2023-08-17 00:20:00,,,,,13.0,99999,99999,10.0,6.0,70.0,10000.0,99999,8.0,98973.3,0.0,11160807061013020100399904999051989733600007000088000
3232,ENEV,68.4913024902,16.6781005859,2023-08-17 00:20:00,10.0,36.0,+,yellow,11.0,99999,99999,9.0,13.0,360.0,9000.0,99999,4.0,0.0,0.0,1115043613101102090399904999051000600007100084000
3233,ENHK,70.4867019653,22.1396999359,2023-08-17 00:20:00,61.0,36.0,^,green,10.0,99999,99999,8.0,5.0,,10000.0,99999,3.0,98983.5,0.5,1116033605101002080399904999051989835600507610083000
3234,ENML,62.7447013855,7.2624998093,2023-08-17 00:20:00,,,,,14.0,99999,99999,11.0,6.0,30.0,10000.0,99999,4.0,98975.8,0.0,11160403061014020110399904999051989758600007000084000
3235,ENNA,70.0688018799,24.9734992981,2023-08-17 00:20:00,61.0,36.0,^,green,10.0,99999,99999,9.0,20.0,350.0,3600.0,99999,,98985.0,1.3,1112003520101002090399904999051989850601307610080000
3236,ENSG,61.1561012268,7.1377801895,2023-08-17 00:20:00,,,,,11.0,99999,99999,11.0,0.0,0.0,10000.0,99999,8.0,98977.8,0.0,11160800001011020110399904999051989778600007000088000
3237,LGKO,36.7933006287,27.0916996002,2023-08-17 00:20:00,,,,,24.0,99999,99999,21.0,12.0,310.0,10000.0,99999,,98991.5,0.0,11160031121024020210399904999051989915600007000080000
3238,LGTS,40.5196990967,22.9708995819,2023-08-17 00:20:00,,,,,23.0,99999,99999,19.0,3.0,120.0,10000.0,99999,1.0,98986.9,0.0,11160112031023020190399904999051989868600007000081000
3239,LOWG,46.9911003113,15.4395999908,2023-08-17 00:20:00,,,,,18.0,99999,99999,17.0,4.0,330.0,10000.0,99999,,98979.6,0.5,11160033041018020170399904999051989796600507000080000
3240,LOWK,46.6425018311,14.3376998901,2023-08-17 00:20:00,,,,,17.0,99999,99999,16.0,2.0,,10000.0,99999,,98979.6,0.0,11160036021017020160399904999051989796600007000080000
3241,LOWW,48.1102981567,16.5697002411,2023-08-17 00:20:00,,,,,18.0,99999,99999,16.0,3.0,180.0,10000.0,99999,,98980.1,0.0,11160018031018020160399904999051989801600007000080000
3244,ENAT,69.9760971069,23.3717002869,2023-08-17 00:20:00,61.0,36.0,^,green,11.0,99999,99999,9.0,11.0,340.0,10000.0,99999,7.0,98984.1,1.8,1116073411101102090399904999051989841601807610087000
3245,ENBL,61.3911018372,5.756939888,2023-08-17 00:20:00,,,,,12.0,99999,99999,11.0,0.0,0.0,10000.0,99999,8.0,98977.7,0.0,11160800001012020110399904999051989776600007000088000
3246,ENBS,70.6005020142,29.691400528,2023-08-17 00:20:00,,,,,10.0,99999,99999,10.0,24.0,30.0,450.0,99999,,98986.0,2.0,11100003241010020100399904999051989860602007000080000
3247,ENFL,61.5835990906,5.024720192,2023-08-17 00:20:00,,,,,13.0,99999,99999,12.0,3.0,,10000.0,99999,1.0,98977.6,0.0,11160136031013020120399904999051989776600007000081000
3248,ENHV,71.0096969604,25.9836006165,2023-08-17 00:20:00,,,,,10.0,99999,99999,9.0,20.0,20.0,4800.0,99999,8.0,98983.0,1.2,1112080220101002090399904999051989830601107000088000
3249,ENKB,63.1118011475,7.8245201111,2023-08-17 00:20:00,,,,,13.0,99999,99999,11.0,4.0,10.0,10000.0,99999,5.0,0.0,0.0,11160501041013020110399904999051000600007000085000
3250,ENKR,69.7257995605,29.8913002014,2023-08-17 00:20:00,10.0,36.0,+,yellow,15.0,99999,99999,14.0,0.0,0.0,10000.0,99999,8.0,0.0,0.0,11160800001015020140399904999051000600007100088000
3251,ENMH,71.0297012329,27.8267002106,2023-08-17 00:20:00,61.0,36.0,^,green,10.0,99999,99999,10.0,15.0,30.0,6000.0,99999,7.0,98985.0,2.0,11130703151010020100399904999051989850602007610087000
3252,ENNM,64.4721984863,11.5785999298,2023-08-17 00:20:00,,,,,12.0,99999,99999,11.0,4.0,220.0,10000.0,99999,4.0,98977.1,0.0,11160422041012020110399904999051989771600007000084000
3253,ENOV,62.1800003052,6.0741000175,2023-08-17 00:20:00,,,,,13.0,99999,99999,12.0,0.0,0.0,10000.0,99999,8.0,0.0,0.0,11160800001013020120399904999051000600007000088000
3254,ENSD,61.8300018311,6.1058301926,2023-08-17 00:20:00,,,,,14.0,99999,99999,12.0,0.0,0.0,10000.0,99999,4.0,0.0,0.0,11160400001014020120399904999051000600007000084000
3255,ENSR,69.7867965698,20.959400177,2023-08-17 00:20:00,61.0,36.0,^,green,11.0,99999,99999,10.0,11.0,350.0,3900.0,99999,3.0,98982.9,0.5,11120335111011020100399904999051989828600507610083000
3256,ENSS,70.3554000854,31.0449008942,2023-08-17 00:20:00,10.0,36.0,+,yellow,12.0,99999,99999,12.0,6.0,330.0,4700.0,99999,8.0,98987.1,0.8,11120833061012020120399904999051989871600807100088000
3257,LGAD,37.9207000732,21.2926006317,2023-08-17 00:20:00,,,,,20.0,99999,99999,18.0,0.0,0.0,10000.0,99999,,98986.3,0.0,11160000001020020180399904999051989863600007000080000
3258,LGMK,37.4351005554,25.3481006622,2023-08-17 00:20:00,,,,,25.0,99999,99999,21.0,12.0,350.0,10000.0,99999,1.0,98990.1,0.0,11160135121025020210399904999051989901600007000081000
3259,LGSA,35.5317001343,24.1497001648,2023-08-17 00:20:00,,,,,24.0,99999,99999,20.0,4.0,260.0,10000.0,99999,,98987.9,0.0,11160026041024020200399904999051989878600007000080000
3260,LOWI,47.2602005005,11.3439998627,2023-08-17 00:20:00,,,,,19.0,99999,99999,16.0,2.0,,10000.0,99999,3.0,98981.8,0.0,11160336021019020160399904999051989818600007000083000
3261,LOWL,48.2332000732,14.1875,2023-08-17 00:20:00,,,,,19.0,99999,99999,17.0,4.0,80.0,10000.0,99999,,98980.3,0.0,11160008041019020170399904999051989803600007000080000
3262,LOWS,47.7933006287,13.0043001175,2023-08-17 00:20:00,,,,,18.0,99999,99999,17.0,3.0,120.0,10000.0,99999,,98980.8,0.0,11160012031018020170399904999051989808600007000080000
3287,EGJJ,49.207901001,-2.1955099106,2023-08-17 00:20:00,,,,,17.0,99999,99999,13.0,7.0,40.0,10000.0,99999,6.0,98979.8,0.0,11160604071017020130399904999051989798600007000086000
3324,EDAC,50.9819450378,12.5063886642,2023-08-17 00:20:00,,,,,19.0,99999,99999,18.0,2.0,,10000.0,99999,1.0,98980.6,1.2,11160136021019020180399904999051989806601107000081000
3325,EDAH,53.8787002563,14.152299881,2023-08-17 00:20:00,,,,,15.0,99999,99999,15.0,2.0,30.0,10000.0,99999,1.0,98977.1,0.0,11160103021015020150399904999051989771600007000081000
3326,EDDB,52.362167,13.500667,2023-08-17 00:20:00,,,,,19.0,99999,99999,16.0,7.0,60.0,10000.0,99999,,98978.4,1.4,11160006071019020160399904999051989783601307000080000
3327,EDDC,51.1328010559,13.76720047,2023-08-17 00:20:00,,,,,20.0,99999,99999,18.0,2.0,,10000.0,99999,,98979.4,0.0,11160036021020020180399904999051989793600007000080000
3328,EDDE,50.979801178,10.9581003189,2023-08-17 00:20:00,,,,,17.0,99999,99999,17.0,3.0,230.0,7000.0,99999,1.0,98979.6,0.0,11140123031017020170399904999051989796600007000081000
3329,EDDF,50.0264015198,8.543129921,2023-08-17 00:20:00,,,,,18.0,99999,99999,18.0,4.0,60.0,10000.0,99999,3.0,98981.3,0.0,11160306041018020180399904999051989813600007000083000
3330,EDDG,52.134601593,7.6848301888,2023-08-17 00:20:00,,,,,17.0,99999,99999,14.0,8.0,20.0,10000.0,99999,6.0,98978.2,0.0,11160602081017020140399904999051989781600007000086000
3331,EDDH,53.6304016113,9.9882297516,2023-08-17 00:20:00,,,,,17.0,99999,99999,14.0,4.0,30.0,10000.0,99999,,98976.4,0.0,11160003041017020140399904999051989763600007000080000
3332,EDDK,50.8658981323,7.1427397728,2023-08-17 00:20:00,,,,,18.0,99999,99999,18.0,3.0,190.0,8000.0,99999,1.0,98979.8,0.0,11140119031018020180399904999051989798600007000081000
3333,EDDL,51.2895011902,6.7667798996,2023-08-17 00:20:00,81.0,36.0,r,green,17.0,99999,99999,16.0,8.0,10.0,7000.0,99999,1.0,98979.4,0.0,11140101081017020160399904999051989793600007810081000
3334,EDDM,48.3538017273,11.7861003876,2023-08-17 00:20:00,,,,,16.0,99999,99999,16.0,2.0,90.0,10000.0,99999,,98981.1,0.0,11160009021016020160399904999051989811600007000080000
3335,EDDN,49.4986991882,11.0669002533,2023-08-17 00:20:00,,,,,20.0,99999,99999,17.0,4.0,110.0,10000.0,99999,,98981.6,0.4,11160011041020020170399904999051989816600407000080000
3336,EDDP,51.4323997498,12.2416000366,2023-08-17 00:20:00,,,,,20.0,99999,99999,18.0,5.0,50.0,10000.0,99999,,98979.1,0.0,11160005051020020180399904999051989791600007000080000
3337,EDDR,49.2145996094,7.1095099449,2023-08-17 00:20:00,45.0,36.0,N,yellow,16.0,99999,99999,16.0,3.0,70.0,900.0,99999,1.0,98981.2,0.4,11100107031016020160399904999051989811600407450081000
3338,EDDS,48.6898994446,9.2219600677,2023-08-17 00:20:00,16.0,36.0,1,,18.0,99999,99999,17.0,1.0,340.0,10000.0,99999,1.0,98981.7,0.0,11160134011018020170399904999051989816600007160081000
3339,EDDV,52.461101532,9.6850795746,2023-08-17 00:20:00,,,,,18.0,99999,99999,15.0,3.0,30.0,10000.0,99999,,98977.7,0.0,11160003031018020150399904999051989776600007000080000
3340,EDDW,53.0475006104,8.7866697311,2023-08-17 00:20:00,,,,,16.0,99999,99999,13.0,10.0,20.0,10000.0,99999,8.0,98976.9,0.0,11160802101016020130399904999051989768600007000088000
3341,EDHI,53.5352783203,9.8355560303,2023-08-17 00:20:00,,,,,17.0,99999,99999,14.0,8.0,50.0,10000.0,99999,6.0,98976.4,0.0,11160605081017020140399904999051989763600007000086000
3342,EDHK,54.3794441223,10.145277977,2023-08-17 00:20:00,,,,,14.0,99999,99999,13.0,5.0,350.0,10000.0,99999,,98976.0,0.0,11160035051014020130399904999051989760600007000080000
3343,EDMA,48.42527771,10.9316673279,2023-08-17 00:20:00,,,,,18.0,99999,99999,16.0,2.0,,10000.0,99999,,98982.0,0.0,11160036021018020160399904999051989820600007000080000
3344,EDMO,48.081401825,11.2831001282,2023-08-17 00:20:00,,,,,16.0,99999,99999,15.0,4.0,220.0,10000.0,99999,,98980.9,0.0,11160022041016020150399904999051989808600007000080000
3345,EDNY,47.6712989807,9.5114898682,2023-08-17 00:20:00,,,,,18.0,99999,99999,14.0,2.0,,10000.0,99999,,98982.4,0.0,11160036021018020140399904999051989823600007000080000
3346,EDQM,50.2886123657,11.8563890457,2023-08-17 00:20:00,,,,,16.0,99999,99999,16.0,1.0,,10000.0,99999,,98980.2,0.0,11160036011016020160399904999051989801600007000080000
3347,EDTL,48.3693008423,7.8277201653,2023-08-17 00:20:00,,,,,19.0,99999,99999,18.0,3.0,30.0,10000.0,99999,,98981.6,0.9,11160003031019020180399904999051989816600907000080000
3348,EDXW,54.9132003784,8.340470314,2023-08-17 00:20:00,,,,,15.0,99999,99999,12.0,5.0,20.0,10000.0,99999,4.0,98975.3,0.0,11160402051015020120399904999051989753600007000084000
3349,EDFH,49.9486999512,7.2638897896,2023-08-17 00:20:00,,,,,15.0,99999,99999,15.0,1.0,,10000.0,99999,,98980.3,0.3,11160036011015020150399904999051989803600307000080000
3350,EDFM,49.4730567932,8.514166832,2023-08-17 00:20:00,,,,,19.0,99999,99999,17.0,4.0,330.0,10000.0,99999,,98980.9,0.0,11160033041019020170399904999051989808600007000080000
3351,EDHL,53.8054008484,10.7192001343,2023-08-17 00:20:00,,,,,16.0,99999,99999,15.0,1.0,,10000.0,99999,4.0,98976.4,0.0,11160436011016020150399904999051989763600007000084000
3352,EDLN,51.2302780151,6.5044441223,2023-08-17 00:20:00,,,,,17.0,99999,99999,17.0,3.0,,5000.0,99999,6.0,98979.3,0.0,11130636031017020170399904999051989793600007000086000
3353,EDLP,51.6141014099,8.6163196564,2023-08-17 00:20:00,61.0,36.0,^,green,17.0,99999,99999,16.0,2.0,,10000.0,99999,3.0,98979.0,0.0,11160336021017020160399904999051989790600007610083000
3354,EDLW,51.5182991028,7.6122398377,2023-08-17 00:20:00,,,,,17.0,99999,99999,15.0,7.0,20.0,10000.0,99999,4.0,98980.0,0.0,11160402071017020150399904999051989800600007000084000
3355,EDSB,48.7793998718,8.0804996491,2023-08-17 00:20:00,,,,,19.0,99999,99999,17.0,8.0,30.0,10000.0,99999,,98981.3,0.0,11160003081019020170399904999051989813600007000080000
3356,EDVE,52.3191986084,10.5560998917,2023-08-17 00:20:00,,,,,19.0,99999,99999,14.0,3.0,50.0,10000.0,99999,5.0,98978.0,0.0,11160505031019020140399904999051989780600007000085000
3357,EDVK,51.4083328247,9.3774995804,2023-08-17 00:20:00,,,,,18.0,99999,99999,17.0,4.0,20.0,7000.0,99999,2.0,98980.0,0.4,11140202041018020170399904999051989800600407000082000
3369,EBCI,50.4592018127,4.4538202286,2023-08-17 00:20:00,,,,,17.0,99999,99999,15.0,7.0,30.0,10000.0,99999,6.0,98979.1,0.0,11160603071017020150399904999051989791600007000086000
3370,EBLG,50.6374015808,5.4432201385,2023-08-17 00:20:00,,,,,18.0,99999,99999,16.0,5.0,10.0,10000.0,99999,6.0,98979.5,0.0,11160601051018020160399904999051989795600007000086000
3371,EBOS,51.1988983154,2.8622200489,2023-08-17 00:20:00,,,,,17.0,99999,99999,15.0,9.0,50.0,10000.0,99999,,98978.1,0.0,11160005091017020150399904999051989781600007000080000
3374,LIBD,41.1389007568,16.7605991364,2023-08-17 00:20:00,,,,,23.0,99999,99999,18.0,5.0,260.0,10000.0,99999,,98983.1,0.0,11160026051023020180399904999051989831600007000080000
3376,LIBR,40.6576004028,17.9470005035,2023-08-17 00:20:00,,,,,25.0,99999,99999,22.0,8.0,330.0,10000.0,99999,1.0,98983.4,0.0,11160133081025020220399904999051989833600007000081000
3378,LICC,37.4668006897,15.0663995743,2023-08-17 00:20:00,,,,,23.0,99999,99999,17.0,7.0,240.0,10000.0,99999,,98982.8,0.0,11160024071023020170399904999051989828600007000080000
3381,LIMC,45.6305999756,8.7281103134,2023-08-17 00:20:00,95.0,36.0,2,red,24.0,99999,99999,20.0,3.0,150.0,10000.0,99999,3.0,98981.2,0.0,11160315031024020200399904999051989811600007950083000
3382,LIMF,45.2008018494,7.6496300697,2023-08-17 00:20:00,,,,,18.0,99999,99999,18.0,6.0,110.0,10000.0,99999,4.0,98980.6,0.0,11160411061018020180399904999051989806600007000084000
3383,LIMJ,44.4132995605,8.8374996185,2023-08-17 00:20:00,,,,,25.0,99999,99999,20.0,4.0,350.0,10000.0,99999,,98982.3,0.0,11160035041025020200399904999051989823600007000080000
3384,LIPE,44.5354003906,11.2887001038,2023-08-17 00:20:00,,,,,23.0,99999,99999,18.0,7.0,200.0,10000.0,99999,,98983.0,0.0,11160020071023020180399904999051989830600007000080000
3385,LIPH,45.648399353,12.1943998337,2023-08-17 00:20:00,,,,,23.0,99999,99999,18.0,2.0,,10000.0,99999,,98982.0,0.0,11160036021023020180399904999051989820600007000080000
3386,LIPQ,45.8274993896,13.4722003937,2023-08-17 00:20:00,,,,,20.0,99999,99999,18.0,3.0,330.0,10000.0,99999,,98982.5,0.0,11160033031020020180399904999051989825600007000080000
3387,LIPR,44.0203018188,12.611700058,2023-08-17 00:20:00,,,,,20.0,99999,99999,15.0,2.0,,10000.0,99999,,98983.0,0.0,11160036021020020150399904999051989830600007000080000
3388,LIPX,45.3956985474,10.8885002136,2023-08-17 00:20:00,,,,,24.0,99999,99999,19.0,4.0,220.0,10000.0,99999,,98983.0,0.0,11160022041024020190399904999051989830600007000080000
3390,LIPZ,45.5052986145,12.3519001007,2023-08-17 00:20:00,,,,,23.0,99999,99999,18.0,5.0,40.0,10000.0,99999,,98982.6,0.0,11160004051023020180399904999051989826600007000080000
3392,EBAW,51.1893997192,4.4602799416,2023-08-17 00:20:00,,,,,18.0,99999,99999,14.0,6.0,10.0,10000.0,99999,8.0,98978.6,0.0,11160801061018020140399904999051989786600007000088000
3393,EBBR,50.9014015198,4.4844398499,2023-08-17 00:20:00,,,,,17.0,99999,99999,14.0,4.0,20.0,10000.0,99999,4.0,98979.1,0.0,11160402041017020140399904999051989791600007000084000
3394,EGPH,55.9500007629,-3.3724999428,2023-08-17 00:20:00,,,,,14.0,99999,99999,13.0,4.0,50.0,10000.0,99999,3.0,98975.7,0.0,11160305041014020130399904999051989756600007000083000
3395,EGPK,55.5093994141,-4.5866699219,2023-08-17 00:20:00,,,,,11.0,99999,99999,10.0,2.0,,10000.0,99999,,98976.1,0.0,11160036021011020100399904999051989761600007000080000
3396,EGPO,58.2155990601,-6.3311100006,2023-08-17 00:20:00,,,,,15.0,99999,99999,13.0,1.0,,10000.0,99999,,98976.2,0.0,11160036011015020130399904999051989761600007000080000
3397,EGPU,56.4991989136,-6.8691701889,2023-08-17 00:20:00,45.0,36.0,N,yellow,10.0,99999,99999,10.0,0.0,0.0,250.0,99999,3.0,98975.7,0.0,11100300001010020100399904999051989756600007450083000
3398,EKAH,56.2999992371,10.6190004349,2023-08-17 00:20:00,,,,,14.0,99999,99999,12.0,0.0,0.0,10000.0,99999,8.0,98975.9,0.0,11160800001014020120399904999051989758600007000088000
3399,EKKA,56.2975006104,9.1246299744,2023-08-17 00:20:00,,,,,14.0,99999,99999,11.0,4.0,270.0,10000.0,99999,8.0,98976.0,0.0,11160827041014020110399904999051989760600007000088000
3400,EKYT,57.0927589138,9.8492431641,2023-08-17 00:20:00,,,,,15.0,99999,99999,12.0,11.0,250.0,10000.0,99999,8.0,98978.0,0.0,11160825111015020120399904999051989780600007000088000
3401,ENAN,69.2925033569,16.1441993713,2023-08-17 00:20:00,,,,,10.0,99999,99999,6.0,15.0,10.0,10000.0,99999,8.0,0.0,0.0,1116080115101002060399904999051000600007000088000
3402,ENGM,60.193901062,11.100399971,2023-08-17 00:20:00,,,,,14.0,99999,99999,10.0,6.0,360.0,10000.0,99999,,0.0,0.0,11160036061014020100399904999051000600007000080000
3403,ENTC,69.6832962036,18.9188995361,2023-08-17 00:20:00,16.0,36.0,1,,10.0,99999,99999,8.0,11.0,360.0,10000.0,99999,4.0,98981.4,0.0,1116043611101002080399904999051989813600007160084000
3410,EGSH,52.6758003235,1.2827800512,2023-08-17 00:20:00,,,,,15.0,99999,99999,14.0,4.0,50.0,10000.0,99999,,98976.0,0.0,11160005041015020140399904999051989760600007000080000
3418,LIBP,42.4317016602,14.1810998917,2023-08-17 00:20:00,,,,,21.0,99999,99999,19.0,4.0,240.0,10000.0,99999,,98982.5,0.0,11160024041021020190399904999051989825600007000080000
3419,LICA,38.9053993225,16.2423000336,2023-08-17 00:20:00,,,,,24.0,99999,99999,20.0,5.0,190.0,10000.0,99999,8.0,98983.0,0.0,11160819051024020200399904999051989830600007000088000
3420,LICR,38.0712013245,15.651599884,2023-08-17 00:20:00,,,,,25.0,99999,99999,20.0,13.0,360.0,10000.0,99999,,98983.0,0.0,11160036131025020200399904999051989830600007000080000
3421,LIPY,43.6162986755,13.3622999191,2023-08-17 00:20:00,,,,,20.0,99999,99999,17.0,3.0,190.0,10000.0,99999,,98982.1,0.0,11160019031020020170399904999051989821600007000080000
3423,LICD,35.4978981018,12.6181001663,2023-08-17 00:20:00,,,,,25.0,99999,99999,20.0,3.0,280.0,10000.0,99999,,98982.4,0.0,11160028031025020200399904999051989823600007000080000
3424,LIRZ,43.0959014893,12.5131998062,2023-08-17 00:20:00,,,,,21.0,99999,99999,17.0,3.0,360.0,10000.0,99999,1.0,98982.4,0.0,11160136031021020170399904999051989823600007000081000
3427,EHDL,52.0606002808,5.8730602264,2023-08-17 00:25:00,,,,,17.0,99999,99999,14.0,8.0,30.0,10000.0,99999,8.0,98977.8,0.0,11160803081017020140399904999051989778600007000088000
3430,EHGR,51.567401886,4.9318299294,2023-08-17 00:25:00,,,,,18.0,99999,99999,14.0,9.0,20.0,10000.0,99999,8.0,98978.4,0.0,11160802091018020140399904999051989783600007000088000
3432,EHLE,52.4603004456,5.5272197723,2023-08-17 00:25:00,,,,,16.0,99999,99999,13.0,11.0,50.0,10000.0,99999,,98976.9,0.0,11160005111016020130399904999051989768600007000080000
3433,EHLW,53.2285995483,5.7605600357,2023-08-17 00:25:00,,,,,14.0,99999,99999,13.0,7.0,40.0,10000.0,99999,,98976.0,0.0,11160004071014020130399904999051989760600007000080000
3435,EHVK,51.6563987732,5.7086100578,2023-08-17 00:25:00,,,,,18.0,99999,99999,14.0,7.0,30.0,10000.0,99999,8.0,98978.5,0.0,11160803071018020140399904999051989785600007000088000
3436,EHWO,51.4491004944,4.3420300484,2023-08-17 00:25:00,,,,,18.0,99999,99999,14.0,9.0,40.0,10000.0,99999,4.0,98978.1,0.0,11160404091018020140399904999051989781600007000084000
3440,ETHS,52.9193992615,10.1975002289,2023-08-17 00:20:00,,,,,17.0,99999,99999,13.0,10.0,60.0,10000.0,99999,3.0,98976.7,0.0,11160306101017020130399904999051989766600007000083000
3443,ETNN,50.831199646,6.6581702232,2023-08-17 00:20:00,,,,,19.0,99999,99999,18.0,4.0,290.0,6000.0,99999,3.0,98980.4,0.0,11130329041019020180399904999051989803600007000083000
3449,LSMA,46.943901062,8.2841701508,2023-08-17 00:20:00,,,,,19.0,99999,99999,18.0,1.0,,10000.0,99999,,98979.7,0.0,11160036011019020180399904999051989796600007000080000
3470,ETNW,52.4572982788,9.4271697998,2023-08-17 00:20:00,,,,,18.0,99999,99999,14.0,5.0,40.0,10000.0,99999,3.0,98977.9,0.0,11160304051018020140399904999051989778600007000083000
3472,ETSN,48.7109985352,11.2115001678,2023-08-17 00:20:00,,,,,19.0,99999,99999,17.0,1.0,340.0,10000.0,99999,2.0,98981.7,0.0,11160234011019020170399904999051989816600007000082000
3498,EFKI,64.2854995728,27.6923999786,2023-08-17 00:20:00,,,,,15.0,99999,99999,14.0,5.0,200.0,10000.0,99999,,98984.5,0.0,11160020051015020140399904999051989845600007000080000
3499,EFKU,63.0070991516,27.7978000641,2023-08-17 00:20:00,,,,,19.0,99999,99999,17.0,5.0,220.0,10000.0,99999,8.0,98983.0,0.0,11160822051019020170399904999051989830600007000088000
3500,ETHN,49.3919448853,9.9588890076,2023-08-17 00:20:00,,,,,20.0,99999,99999,17.0,7.0,10.0,10000.0,99999,6.0,98981.8,0.0,11160601071020020170399904999051989818600007000086000
3502,ETNL,53.9182014465,12.2783002853,2023-08-17 00:20:00,,,,,16.0,99999,99999,14.0,2.0,350.0,10000.0,99999,6.0,98976.5,0.0,11160635021016020140399904999051989765600007000086000
3520,EYSA,55.893901825,23.3950004578,2023-08-17 00:20:00,,,,,19.0,99999,99999,18.0,6.0,340.0,10000.0,99999,,0.0,0.0,11160034061019020180399904999051000600007000080000
3521,LGAV,37.9364013672,23.9444999695,2023-08-17 00:20:00,,,,,25.0,99999,99999,19.0,5.0,320.0,10000.0,99999,1.0,0.0,0.0,11160132051025020190399904999051000600007000081000
3541,EGNJ,53.5744018555,-0.3508329988,2023-08-17 00:20:00,,,,,17.0,99999,99999,15.0,4.0,80.0,9000.0,99999,8.0,98976.1,0.0,11150808041017020150399904999051989761600007000088000
3542,EGNT,55.0374984741,-1.6916699409,2023-08-17 00:20:00,,,,,15.0,99999,99999,14.0,4.0,120.0,10000.0,99999,4.0,98975.1,0.0,11160412041015020140399904999051989751600007000084000
3544,EGPA,58.9578018188,-2.9049999714,2023-08-17 00:20:00,,,,,9.0,99999,99999,8.0,3.0,150.0,10000.0,99999,,98974.0,0.0,1116001503100902080399904999051989740600007000080000
3545,EGTE,50.7344017029,-3.4138898849,2023-08-17 00:20:00,,,,,13.0,99999,99999,12.0,2.0,330.0,10000.0,99999,1.0,98978.4,0.0,11160133021013020120399904999051989783600007000081000
3565,ESSA,59.6519012451,17.9186000824,2023-08-17 00:20:00,,,,,13.0,99999,99999,13.0,5.0,250.0,10000.0,99999,,98980.7,0.0,11160025051013020130399904999051989806600007000080000
3570,LIRN,40.8860015869,14.2908000946,2023-08-17 00:20:00,,,,,24.0,99999,99999,19.0,1.0,,10000.0,99999,,98981.7,0.0,11160036011024020190399904999051989816600007000080000
3572,EHBK,50.9117012024,5.7701401711,2023-08-17 00:25:00,,,,,19.0,99999,99999,16.0,8.0,30.0,10000.0,99999,8.0,98979.5,0.0,11160803081019020160399904999051989795600007000088000
3573,EHEH,51.4500999451,5.3745298386,2023-08-17 00:25:00,,,,,19.0,99999,99999,15.0,9.0,20.0,10000.0,99999,7.0,98978.7,0.0,11160702091019020150399904999051989786600007000087000
3574,EHGG,53.1197013855,6.5794401169,2023-08-17 00:25:00,,,,,15.0,99999,99999,13.0,6.0,30.0,10000.0,99999,,98976.3,0.0,11160003061015020130399904999051989763600007000080000
3575,EHKD,52.9234008789,4.7806200981,2023-08-17 00:25:00,,,,,17.0,99999,99999,14.0,13.0,60.0,10000.0,99999,8.0,98976.4,0.0,11160806131017020140399904999051989763600007000088000
3576,EHRD,51.9569015503,4.4372200966,2023-08-17 00:25:00,,,,,17.0,99999,99999,14.0,8.0,40.0,10000.0,99999,,98977.6,0.0,11160004081017020140399904999051989776600007000080000
3577,ETHC,52.5912017822,10.0221004486,2023-08-17 00:20:00,,,,,19.0,99999,99999,15.0,6.0,40.0,10000.0,99999,4.0,98977.8,0.0,11160404061019020150399904999051989778600007000084000
3578,ETMN,53.7677001953,8.6584997177,2023-08-17 00:20:00,,,,,15.0,99999,99999,13.0,7.0,50.0,10000.0,99999,6.0,98975.9,0.0,11160605071015020130399904999051989758600007000086000
3580,ETSH,51.7677993774,13.1676998138,2023-08-17 00:20:00,,,,,20.0,99999,99999,17.0,6.0,40.0,10000.0,99999,1.0,98978.8,0.5,11160104061020020170399904999051989788600507000081000
3610,LTCS,37.4456634521,38.8955917358,2023-08-17 00:20:00,,,,,30.0,99999,99999,4.0,6.0,350.0,10000.0,99999,,98994.9,0.0,1116003506103002040399904999051989948600007000080000
3614,LTFM,41.275333,28.752,2023-08-17 00:20:00,,,,,25.0,99999,99999,22.0,14.0,30.0,10000.0,99999,4.0,0.0,0.0,11160403141025020220399904999051000600007000084000
3631,ETAD,49.9726982117,6.6925001144,2023-08-17 00:28:00,45.0,36.0,N,yellow,16.0,99999,99999,16.0,4.0,50.0,800.0,99999,,98979.9,0.1,11100005041016020160399904999051989798600107450080000
3636,LTAZ,38.771900177,34.5345001221,2023-08-17 00:20:00,,,,,19.0,99999,99999,10.0,0.0,0.0,10000.0,99999,,0.0,0.0,11160000001019020100399904999051000600007000080000
3637,LTBR,40.2551994324,29.5625991821,2023-08-17 00:20:00,10.0,36.0,+,yellow,21.0,99999,99999,21.0,3.0,60.0,4500.0,99999,,98989.0,0.0,11120006031021020210399904999051989890600007100080000
3639,LTFC,37.8554000854,30.3684005737,2023-08-17 00:20:00,,,,,24.0,99999,99999,18.0,7.0,30.0,10000.0,99999,,98990.7,0.0,11160003071024020180399904999051989906600007000080000
3640,LTFJ,40.898601532,29.3092002869,2023-08-17 00:20:00,,,,,25.0,99999,99999,22.0,9.0,60.0,10000.0,99999,3.0,98988.0,0.0,11160306091025020220399904999051989880600007000083000
3650,EPBY,53.0968017578,17.9776992798,2023-08-17 00:30:00,,,,,19.0,99999,99999,13.0,10.0,50.0,10000.0,99999,,0.0,0.0,11160005101019020130399904999051000600007000080000
3655,EPSY,53.481944,20.937778,2023-08-17 00:30:00,,,,,19.0,99999,99999,17.0,7.0,360.0,10000.0,99999,,98979.0,0.0,11160036071019020170399904999051989790600007000080000
3658,EHAM,52.3086013794,4.7638897896,2023-08-17 00:25:00,,,,,17.0,99999,99999,14.0,10.0,40.0,10000.0,99999,,98977.2,0.0,11160004101017020140399904999051989771600007000080000
3714,LFCK,43.5563011169,2.2891800404,2023-08-17 00:30:00,,,,,21.0,99999,99999,16.0,4.0,130.0,10000.0,99999,,0.0,0.0,11160013041021020160399904999051000600007000080000
3715,LFLP,45.9291992188,6.098760128,2023-08-17 00:30:00,,,,,20.0,99999,99999,13.0,7.0,20.0,10000.0,99999,4.0,98982.1,0.0,11160402071020020130399904999051989821600007000084000
3719,LFQA,49.2086982727,4.1565799713,2023-08-17 00:30:00,10.0,36.0,+,yellow,17.0,99999,99999,16.0,2.0,,5000.0,99999,,98981.0,0.0,11130036021017020160399904999051989810600007100080000
3727,LFAQ,49.9715003967,2.6976599693,2023-08-17 00:30:00,,,,,15.0,99999,99999,14.0,4.0,10.0,10000.0,99999,,98979.6,0.0,11160001041015020140399904999051989796600007000080000
3729,LFBU,45.7291984558,0.2214560062,2023-08-17 00:30:00,,,,,21.0,99999,99999,17.0,3.0,70.0,10000.0,99999,,98982.9,0.0,11160007031021020170399904999051989828600007000080000
3730,LFGA,48.1099014282,7.3590102196,2023-08-17 00:30:00,,,,,19.0,99999,99999,18.0,2.0,350.0,10000.0,99999,,98980.8,1.3,11160035021019020180399904999051989808601307000080000
3731,LFJR,47.5602989197,-0.3122220039,2023-08-17 00:30:00,,,,,20.0,99999,99999,17.0,4.0,70.0,10000.0,99999,,98981.7,0.0,11160007041020020170399904999051989816600007000080000
3738,LHKE,46.9174995422,19.7492008209,2023-08-17 00:15:00,80.0,36.0,q,green,19.0,99999,99999,18.0,2.0,,10000.0,99999,3.0,98980.0,0.0,11160336021019020180399904999051989800600007800083000
3739,LHPA,47.3636016846,17.5007991791,2023-08-17 00:15:00,,,,,18.0,99999,99999,18.0,4.0,100.0,10000.0,99999,,98980.2,0.0,11160010041018020180399904999051989801600007000080000
3741,LHPR,47.6244010925,17.8136005402,2023-08-17 00:15:00,,,,,18.0,99999,99999,17.0,2.0,,10000.0,99999,,98980.7,0.0,11160036021018020170399904999051989806600007000080000
3742,LHSM,46.6864013672,17.1590995789,2023-08-17 00:15:00,,,,,17.0,99999,99999,17.0,2.0,,9000.0,99999,,0.0,0.0,11150036021017020170399904999051000600007000080000
3743,LHSN,47.1228981018,20.2355003357,2023-08-17 00:15:00,80.0,36.0,q,green,20.0,99999,99999,18.0,2.0,,10000.0,99999,4.0,98981.2,0.0,11160436021020020180399904999051989811600007800084000
3749,LTAG,37.0021018982,35.4258995056,2023-08-17 00:20:00,,,,,26.0,99999,99999,24.0,2.0,30.0,10000.0,99999,3.0,98992.3,0.0,11160303021026020240399904999051989923600007000083000
3750,LTAJ,36.9472007751,37.4786987305,2023-08-17 00:20:00,,,,,30.0,99999,99999,13.0,5.0,360.0,10000.0,99999,,98997.4,0.0,11160036051030020130399904999051989973600007000080000
3751,LTAT,38.4352989197,38.0909996033,2023-08-17 00:20:00,,,,,21.0,99999,99999,3.0,5.0,180.0,10000.0,99999,,98994.4,0.0,1116001805102102030399904999051989943600007000080000
3752,LTAU,38.770401001,35.4953994751,2023-08-17 00:20:00,,,,,14.0,99999,99999,6.0,2.0,50.0,10000.0,99999,,98992.9,0.0,1116000502101402060399904999051989928600007000080000
3753,LTBJ,38.2924003601,27.156999588,2023-08-17 00:20:00,,,,,25.0,99999,99999,22.0,0.0,0.0,10000.0,99999,,98991.1,0.0,11160000001025020220399904999051989911600007000080000
3754,LTBS,36.7131004333,28.7924995422,2023-08-17 00:20:00,,,,,25.0,99999,99999,23.0,3.0,20.0,10000.0,99999,,98992.1,0.0,11160002031025020230399904999051989921600007000080000
3756,LTCE,39.9565010071,41.1702003479,2023-08-17 00:20:00,,,,,12.0,99999,99999,1.0,2.0,,10000.0,99999,,98992.0,0.0,1116003602101202010399904999051989920600007000080000
3757,LTCG,40.995098114,39.7896995544,2023-08-17 00:20:00,,,,,26.0,99999,99999,23.0,1.0,,10000.0,99999,3.0,98987.7,0.0,11160336011026020230399904999051989876600007000083000
3758,LTCJ,37.9290008545,41.1166000366,2023-08-17 00:20:00,,,,,21.0,99999,99999,9.0,5.0,10.0,10000.0,99999,,98995.3,0.0,1116000105102102090399904999051989953600007000080000
3762,EGDR,50.086101532,-5.255710125,2023-08-17 00:20:00,,,,,14.0,99999,99999,12.0,5.0,20.0,10000.0,99999,,98980.0,0.0,11160002051014020120399904999051989800600007000080000
3763,EGOS,52.7981987,-2.6680400372,2023-08-17 00:20:00,,,,,13.0,99999,99999,12.0,6.0,340.0,10000.0,99999,,98976.9,0.0,11160034061013020120399904999051989768600007000080000
3778,LGKP,35.4213981628,27.1459999084,2023-08-17 00:30:00,,,,,25.0,99999,99999,23.0,19.0,310.0,10000.0,99999,,98991.3,0.0,11160031191025020230399904999051989913600007000080000
3786,LYBT,44.935299,20.2575,2023-08-17 00:30:00,,,,,18.0,99999,99999,18.0,4.0,10.0,8000.0,99999,,98981.0,0.0,11140001041018020180399904999051989810600007000080000
3787,LYKV,43.818298,20.5872,2023-08-17 00:30:00,,,,,19.0,99999,99999,19.0,2.0,,7000.0,99999,,98981.2,0.0,11140036021019020190399904999051989811600007000080000
3790,LYVR,45.1469,21.3099,2023-08-17 00:30:00,,,,,19.0,99999,99999,19.0,1.0,,10000.0,99999,,98981.6,0.0,11160036011019020190399904999051989816600007000080000
3854,EGXV,53.8758010864,-0.4350000024,2023-08-17 00:20:00,,,,,16.0,99999,99999,15.0,6.0,90.0,10000.0,99999,8.0,98975.7,0.0,11160809061016020150399904999051989756600007000088000
3876,LTAC,40.1281013489,32.995098114,2023-08-17 00:20:00,,,,,23.0,99999,99999,11.0,6.0,50.0,10000.0,99999,,98992.7,0.0,11160005061023020110399904999051989926600007000080000
3877,LTAF,36.9822006226,35.2803993225,2023-08-17 00:20:00,,,,,26.0,99999,99999,25.0,0.0,0.0,10000.0,99999,6.0,98992.4,0.0,11160600001026020250399904999051989923600007000086000
3878,LTAI,36.8987007141,30.8005008698,2023-08-17 00:20:00,,,,,28.0,99999,99999,25.0,4.0,100.0,10000.0,99999,,98992.5,0.0,11160010041028020250399904999051989925600007000080000
3879,LTAP,40.8293991089,35.5219993591,2023-08-17 00:20:00,,,,,16.0,99999,99999,13.0,0.0,0.0,10000.0,99999,,98987.6,0.0,11160000001016020130399904999051989876600007000080000
3880,LTBA,40.9768981934,28.8145999908,2023-08-17 00:20:00,,,,,25.0,99999,99999,22.0,11.0,40.0,10000.0,99999,4.0,98987.5,0.0,11160404111025020220399904999051989875600007000084000
3881,LTBU,41.1381988525,27.9190998077,2023-08-17 00:20:00,,,,,24.0,99999,99999,21.0,11.0,50.0,10000.0,99999,2.0,98987.7,0.0,11160205111024020210399904999051989876600007000082000
3882,LTCC,37.893901825,40.2010002136,2023-08-17 00:20:00,,,,,22.0,99999,99999,7.0,4.0,240.0,10000.0,99999,,98998.9,0.0,1116002404102202070399904999051989988600007000080000
3883,LTFE,37.2505989075,27.6643009186,2023-08-17 00:20:00,,,,,23.0,99999,99999,21.0,2.0,,10000.0,99999,,0.0,0.0,11160036021023020210399904999051000600007000080000
3906,EPLL,51.7219009399,19.3980998993,2023-08-17 00:30:00,,,,,24.0,99999,99999,18.0,3.0,10.0,10000.0,99999,,98979.7,0.0,11160001031024020180399904999051989796600007000080000
3916,LFOK,48.7761001587,4.1844902039,2023-08-17 00:30:00,10.0,36.0,+,yellow,18.0,99999,99999,17.0,7.0,20.0,5000.0,99999,4.0,0.0,0.0,11130402071018020170399904999051000600007100084000
3918,LHPP,45.9908981323,18.2409992218,2023-08-17 00:15:00,,,,,20.0,99999,99999,16.0,4.0,70.0,10000.0,99999,,98980.0,0.0,11160007041020020160399904999051989800600007000080000
3919,LKCV,49.9397010803,15.3817996979,2023-08-17 00:30:00,,,,,19.0,99999,99999,17.0,4.0,220.0,10000.0,99999,,98980.0,0.1,11160022041019020170399904999051989800600107000080000
3920,LKNA,49.1657981873,16.1249008179,2023-08-17 00:30:00,,,,,20.0,99999,99999,16.0,6.0,40.0,10000.0,99999,,98979.9,0.0,11160004061020020160399904999051989798600007000080000
3921,LKPD,50.0134010315,15.7385997772,2023-08-17 00:30:00,17.0,36.0,2,red,20.0,99999,99999,16.0,6.0,70.0,10000.0,99999,2.0,98979.4,0.0,11160207061020020160399904999051989793600007170082000
3925,LZPP,48.6251983643,17.8283996582,2023-08-17 00:30:00,,,,,19.0,99999,99999,18.0,1.0,,10000.0,99999,,0.0,0.0,11160036011019020180399904999051000600007000080000
3926,LZZI,49.2314987183,18.6135005951,2023-08-17 00:30:00,,,,,19.0,99999,99999,18.0,2.0,,10000.0,99999,,0.0,0.0,11160036021019020180399904999051000600007000080000
3940,UUDL,57.5606994629,40.1573982239,2023-08-17 00:30:00,,,,,12.0,99999,99999,12.0,0.0,0.0,10000.0,99999,,98976.1,0.0,11160000001012020120399904999051989761600007000080000
3943,UUMO,55.5116996765,37.5071983337,2023-08-17 00:30:00,,,,,13.0,99999,99999,12.0,1.0,220.0,6000.0,99999,,98975.6,0.0,11130022011013020120399904999051989756600007000080000
3946,URMG,43.3883018494,45.698600769,2023-08-17 00:30:00,,,,,25.0,99999,99999,16.0,1.0,140.0,10000.0,99999,,98988.5,0.0,11160014011025020160399904999051989885600007000080000
3949,URMO,43.2051010132,44.6066017151,2023-08-17 00:30:00,,,,,18.0,99999,99999,16.0,2.0,130.0,10000.0,99999,3.0,98984.7,0.0,11160313021018020160399904999051989846600007000083000
3951,URRP,47.50083333,39.93361111,2023-08-17 00:30:00,,,,,22.0,99999,99999,14.0,5.0,70.0,10000.0,99999,,0.0,0.0,11160007051022020140399904999051000600007000080000
3956,UUBW,55.5532989502,38.1500015259,2023-08-17 00:30:00,,,,,16.0,99999,99999,16.0,2.0,300.0,10000.0,99999,,98975.9,0.0,11160030021016020160399904999051989758600007000080000
3957,UUOL,52.7028007507,39.5377998352,2023-08-17 00:30:00,,,,,16.0,99999,99999,12.0,3.0,340.0,10000.0,99999,,0.0,0.0,11160034031016020120399904999051000600007000080000
3968,LFOV,48.0313987732,-0.7429860234,2023-08-17 00:30:00,,,,,19.0,99999,99999,16.0,3.0,10.0,10000.0,99999,,98982.0,0.0,11160001031019020160399904999051989820600007000080000
3970,LFRV,47.7233009338,-2.7185599804,2023-08-17 00:30:00,,,,,16.0,99999,99999,14.0,9.0,20.0,10000.0,99999,1.0,98980.8,0.0,11160102091016020140399904999051989808600007000081000
3971,LFSG,48.3250007629,6.0699801445,2023-08-17 00:30:00,45.0,36.0,N,yellow,16.0,99999,99999,16.0,0.0,0.0,650.0,99999,,98980.8,0.0,11100000001016020160399904999051989808600007450080000
3976,LJCE,45.9000015259,15.5302000046,2023-08-17 00:30:00,,,,,18.0,99999,99999,17.0,2.0,,10000.0,99999,,0.0,0.0,11160036021018020170399904999051000600007000080000
3977,LFOZ,47.896900177,2.1633300781,2023-08-17 00:30:00,,,,,20.0,99999,99999,18.0,5.0,50.0,10000.0,99999,,98982.0,0.0,11160005051020020180399904999051989820600007000080000
3978,LFPT,49.0965995789,2.0408298969,2023-08-17 00:30:00,,,,,19.0,99999,99999,16.0,5.0,60.0,10000.0,99999,,98981.0,0.0,11160006051019020160399904999051989810600007000080000
3998,LECH,40.9000015259,-1.3041199446,2023-08-17 00:30:00,,,,,21.0,99999,99999,19.0,6.0,20.0,10000.0,99999,,98984.4,0.0,11160002061021020190399904999051989843600007000080000
4013,LEMI,37.803,-1.125,2023-08-17 00:30:00,,,,,25.0,99999,99999,23.0,2.0,,10000.0,99999,,0.0,0.0,11160036021025020230399904999051000600007000080000
4050,LHDC,47.488899231,21.6152992249,2023-08-17 00:15:00,,,,,20.0,99999,99999,17.0,8.0,40.0,10000.0,99999,,98980.1,0.0,11160004081020020170399904999051989801600007000080000
4054,EBBE,50.7585983276,4.7683300972,2023-08-17 00:25:00,,,,,17.0,99999,99999,15.0,3.0,20.0,10000.0,99999,2.0,98979.2,0.0,11160202031017020150399904999051989791600007000082000
4055,EBBL,51.1683006287,5.4699997902,2023-08-17 00:25:00,,,,,18.0,99999,99999,14.0,5.0,30.0,10000.0,99999,6.0,98978.7,0.0,11160603051018020140399904999051989786600007000086000
4056,EBCV,50.5758018494,3.8310000896,2023-08-17 00:25:00,,,,,16.0,99999,99999,14.0,3.0,360.0,10000.0,99999,5.0,98979.5,0.0,11160536031016020140399904999051989795600007000085000
4057,EBDT,50.9991989136,5.065559864,2023-08-17 00:25:00,,,,,19.0,99999,99999,14.0,7.0,20.0,10000.0,99999,6.0,98979.0,0.0,11160602071019020140399904999051989790600007000086000
4058,EBFN,51.0903015137,2.652780056,2023-08-17 00:25:00,,,,,17.0,99999,99999,16.0,6.0,50.0,10000.0,99999,,98978.8,0.0,11160005061017020160399904999051989788600007000080000
4059,EBFS,50.2433013916,4.6458301544,2023-08-17 00:25:00,,,,,17.0,99999,99999,16.0,5.0,360.0,10000.0,99999,8.0,98979.0,0.0,11160836051017020160399904999051989790600007000088000
4062,EPWR,51.1026992798,16.885799408,2023-08-17 00:30:00,,,,,20.0,99999,99999,18.0,6.0,320.0,10000.0,99999,6.0,98979.1,0.0,11160632061020020180399904999051989791600007000086000
4063,LFBE,44.8252983093,0.5186110139,2023-08-17 00:30:00,,,,,20.0,99999,99999,19.0,1.0,150.0,10000.0,99999,,98984.0,0.0,11160015011020020190399904999051989840600007000080000
4068,LFLN,46.4124984741,4.0132598877,2023-08-17 00:30:00,,,,,17.0,99999,99999,16.0,2.0,40.0,10000.0,99999,,98982.8,0.0,11160004021017020160399904999051989828600007000080000
4069,LFMK,43.2159996033,2.306319952,2023-08-17 00:30:00,,,,,23.0,99999,99999,19.0,4.0,60.0,10000.0,99999,,98983.3,0.0,11160006041023020190399904999051989833600007000080000
4078,LFYR,47.3208007813,1.6888899803,2023-08-17 00:30:00,,,,,19.0,99999,99999,19.0,2.0,60.0,10000.0,99999,,98981.7,0.0,11160006021019020190399904999051989816600007000080000
4083,LFBY,43.689201355,-1.0688899755,2023-08-17 00:30:00,,,,,20.0,99999,99999,18.0,3.0,250.0,10000.0,99999,,98982.0,0.0,11160025031020020180399904999051989820600007000080000
4093,LFMU,43.3235015869,3.3538999557,2023-08-17 00:30:00,,,,,21.0,99999,99999,16.0,2.0,50.0,10000.0,99999,,98982.5,0.0,11160005021021020160399904999051989825600007000080000
4096,LFPM,48.6046981812,2.6711199284,2023-08-17 00:30:00,,,,,20.0,99999,99999,17.0,3.0,10.0,10000.0,99999,,98981.0,0.0,11160001031020020170399904999051989810600007000080000
4099,LFRJ,48.5303001404,-4.1516399384,2023-08-17 00:30:00,45.0,36.0,N,yellow,13.0,99999,99999,13.0,4.0,60.0,700.0,99999,,98980.0,0.0,11100006041013020130399904999051989800600007450080000
4100,LFRL,48.2817001343,-4.4450201988,2023-08-17 00:30:00,,,,,14.0,99999,99999,13.0,4.0,40.0,10000.0,99999,,98979.6,0.0,11160004041014020130399904999051989796600007000080000
4105,UWKS,56.0903015137,47.3473014832,2023-08-17 00:30:00,,,,,18.0,99999,99999,18.0,3.0,360.0,10000.0,99999,,98980.9,0.0,11160036031018020180399904999051989808600007000080000
4134,LQMO,43.2829017639,17.8458995819,2023-08-17 00:30:00,,,,,21.0,99999,99999,18.0,2.0,,10000.0,99999,,98983.4,0.0,11160036021021020180399904999051989833600007000080000
4144,LEHC,42.0760993958,-0.3166669905,2023-08-17 00:30:00,,,,,22.0,99999,99999,11.0,5.0,100.0,10000.0,99999,,98985.0,0.0,11160010051022020110399904999051989850600007000080000
4147,LESB,39.5988998413,2.7027800083,2023-08-17 00:30:00,,,,,27.0,99999,99999,18.0,6.0,40.0,10000.0,99999,,98984.6,0.0,11160004061027020180399904999051989846600007000080000
4148,LUKK,46.9277000427,28.9309997559,2023-08-17 00:30:00,,,,,23.0,99999,99999,15.0,5.0,40.0,10000.0,99999,,98980.4,0.0,11160004051023020150399904999051989803600007000080000
4178,LRSB,45.7855987549,24.091299057,2023-08-17 00:30:00,,,,,14.0,99999,99999,14.0,2.0,100.0,2000.0,99999,,98978.8,0.0,11110010021014020140399904999051989788600007000080000
4184,LFBG,45.6582984924,-0.3174999952,2023-08-17 00:30:00,,,,,21.0,99999,99999,15.0,1.0,,10000.0,99999,,98983.0,0.0,11160036011021020150399904999051989830600007000080000
4189,LFJL,48.9821014404,6.2513198853,2023-08-17 00:30:00,,,,,17.0,99999,99999,16.0,6.0,80.0,10000.0,99999,,98980.9,0.0,11160008061017020160399904999051989808600007000080000
4192,LFMO,44.140499115,4.8667201996,2023-08-17 00:30:00,,,,,20.0,99999,99999,14.0,2.0,,10000.0,99999,,98981.8,0.0,11160036021020020140399904999051989818600007000080000
4232,GEML,35.279800415,-2.9562599659,2023-08-17 00:30:00,,,,,25.0,99999,99999,21.0,0.0,0.0,10000.0,99999,,98985.0,0.0,11160000001025020210399904999051989850600007000080000
4233,EPGD,54.3776016235,18.4661998749,2023-08-17 00:30:00,,,,,17.0,99999,99999,13.0,2.0,,10000.0,99999,6.0,98977.1,0.0,11160636021017020130399904999051989771600007000086000
4234,EPKK,50.0777015686,19.7847995758,2023-08-17 00:30:00,,,,,22.0,99999,99999,18.0,3.0,20.0,10000.0,99999,,98979.4,0.0,11160002031022020180399904999051989793600007000080000
4235,EPKT,50.4743003845,19.0799999237,2023-08-17 00:30:00,,,,,23.0,99999,99999,18.0,4.0,210.0,10000.0,99999,,98979.2,0.0,11160021041023020180399904999051989791600007000080000
4236,EPLB,51.240278,22.713611,2023-08-17 00:30:00,,,,,21.0,99999,99999,20.0,3.0,50.0,10000.0,99999,,0.0,0.0,11160005031021020200399904999051000600007000080000
4237,EPMO,52.4510993958,20.6518001556,2023-08-17 00:30:00,,,,,22.0,99999,99999,18.0,3.0,330.0,10000.0,99999,,98980.2,0.0,11160033031022020180399904999051989801600007000080000
4238,EPPO,52.4210014343,16.8262996674,2023-08-17 00:30:00,,,,,19.0,99999,99999,15.0,5.0,20.0,10000.0,99999,,98979.0,0.0,11160002051019020150399904999051989790600007000080000
4239,EPRZ,50.1100006104,22.0189990997,2023-08-17 00:30:00,,,,,20.0,99999,99999,19.0,5.0,100.0,10000.0,99999,1.0,98978.1,0.0,11160110051020020190399904999051989781600007000081000
4240,EPSC,53.5847015381,14.9021997452,2023-08-17 00:30:00,,,,,14.0,99999,99999,13.0,3.0,290.0,10000.0,99999,,98977.0,0.0,11160029031014020130399904999051989770600007000080000
4241,EPWA,52.1656990051,20.9671001434,2023-08-17 00:30:00,,,,,23.0,99999,99999,19.0,1.0,,10000.0,99999,,98979.8,0.0,11160036011023020190399904999051989798600007000080000
4247,LHBP,47.4369010925,19.2555999756,2023-08-17 00:30:00,,,,,19.0,99999,99999,18.0,2.0,,10000.0,99999,,98980.1,0.0,11160036021019020180399904999051989801600007000080000
4250,LRCK,44.3622016907,28.4883003235,2023-08-17 00:30:00,,,,,24.0,99999,99999,20.0,7.0,40.0,10000.0,99999,,98983.0,0.0,11160004071024020200399904999051989830600007000080000
4251,LROP,44.5722007751,26.1021995544,2023-08-17 00:30:00,,,,,21.0,99999,99999,16.0,3.0,10.0,10000.0,99999,,98980.6,0.0,11160001031021020160399904999051989806600007000080000
4255,LDDU,42.5614013672,18.2681999207,2023-08-17 00:30:00,,,,,25.0,99999,99999,16.0,11.0,30.0,10000.0,99999,,98984.7,0.0,11160003111025020160399904999051989846600007000080000
4256,LDOS,45.4626998901,18.8101997375,2023-08-17 00:30:00,,,,,17.0,99999,99999,17.0,0.0,0.0,10000.0,99999,,98981.0,0.0,11160000001017020170399904999051989810600007000080000
4257,LDPL,44.8935012817,13.9222002029,2023-08-17 00:30:00,,,,,22.0,99999,99999,16.0,4.0,80.0,10000.0,99999,,98982.3,0.0,11160008041022020160399904999051989823600007000080000
4258,LDRI,45.2168998718,14.5703001022,2023-08-17 00:30:00,,,,,25.0,99999,99999,16.0,8.0,340.0,10000.0,99999,,98982.2,0.0,11160034081025020160399904999051989821600007000080000
4259,LDSP,43.538898468,16.2980003357,2023-08-17 00:30:00,,,,,24.0,99999,99999,15.0,5.0,330.0,10000.0,99999,,98984.0,0.0,11160033051024020150399904999051989840600007000080000
4260,LDZA,45.7429008484,16.0687999725,2023-08-17 00:30:00,,,,,18.0,99999,99999,16.0,4.0,260.0,10000.0,99999,,98980.7,0.0,11160026041018020160399904999051989806600007000080000
4261,LDZD,44.1082992554,15.3466997147,2023-08-17 00:30:00,,,,,20.0,99999,99999,16.0,4.0,140.0,10000.0,99999,,98983.0,0.0,11160014041020020160399904999051989830600007000080000
4262,LJLJ,46.2237014771,14.4575996399,2023-08-17 00:30:00,,,,,16.0,99999,99999,16.0,2.0,270.0,10000.0,99999,,98979.0,0.0,11160027021016020160399904999051989790600007000080000
4264,LJPZ,45.473400116,13.6149997711,2023-08-17 00:30:00,,,,,20.0,99999,99999,16.0,5.0,130.0,10000.0,99999,,98983.0,0.0,11160013051020020160399904999051989830600007000080000
4265,LKMT,49.6963005066,18.1110992432,2023-08-17 00:30:00,,,,,18.0,99999,99999,17.0,0.0,0.0,10000.0,99999,,98979.7,0.0,11160000001018020170399904999051989796600007000080000
4266,LKPR,50.1007995605,14.2600002289,2023-08-17 00:30:00,,,,,17.0,99999,99999,16.0,3.0,250.0,10000.0,99999,,98979.6,0.0,11160025031017020160399904999051989796600007000080000
4267,LKTB,49.1512985229,16.6944007874,2023-08-17 00:30:00,,,,,20.0,99999,99999,17.0,7.0,100.0,10000.0,99999,3.0,98980.2,0.0,11160310071020020170399904999051989801600007000083000
4268,LQSA,43.8246002197,18.3314990997,2023-08-17 00:30:00,,,,,16.0,99999,99999,16.0,1.0,,8000.0,99999,,98980.3,0.0,11140036011016020160399904999051989803600007000080000
4269,LWSK,41.9616012573,21.6214008331,2023-08-17 00:30:00,,,,,19.0,99999,99999,17.0,0.0,0.0,10000.0,99999,,98983.6,0.0,11160000001019020170399904999051989836600007000080000
4270,LYBE,44.8184013367,20.3090991974,2023-08-17 00:30:00,,,,,18.0,99999,99999,18.0,4.0,350.0,7000.0,99999,,98980.6,0.0,11140035041018020180399904999051989806600007000080000
4271,LYNI,43.337299,21.853701,2023-08-17 00:30:00,,,,,21.0,99999,99999,20.0,4.0,340.0,10000.0,99999,6.0,98982.5,0.0,11160634041021020200399904999051989825600007000086000
4272,LYPG,42.3594017029,19.2518997192,2023-08-17 00:30:00,,,,,23.0,99999,99999,19.0,5.0,350.0,10000.0,99999,,0.0,0.0,11160035051023020190399904999051000600007000080000
4273,LYTV,42.4047012329,18.7233009338,2023-08-17 00:30:00,,,,,19.0,99999,99999,19.0,1.0,,9000.0,99999,,98984.3,0.0,11150036011019020190399904999051989843600007000080000
4274,LZIB,48.1702003479,17.2126998901,2023-08-17 00:30:00,,,,,20.0,99999,99999,18.0,4.0,40.0,10000.0,99999,,98980.1,0.1,11160004041020020180399904999051989801600107000080000
4275,LZKZ,48.6631011963,21.2411003113,2023-08-17 00:30:00,,,,,20.0,99999,99999,17.0,6.0,360.0,10000.0,99999,,0.0,0.0,11160036061020020170399904999051000600007000080000
4276,LZTT,49.073600769,20.2411003113,2023-08-17 00:30:00,,,,,17.0,99999,99999,16.0,2.0,,10000.0,99999,1.0,98977.7,0.0,11160136021017020160399904999051989776600007000081000
4281,LFAT,50.5173988342,1.6205899715,2023-08-17 00:30:00,,,,,18.0,99999,99999,14.0,7.0,80.0,10000.0,99999,,98979.1,0.0,11160008071018020140399904999051989791600007000080000
4282,LFBD,44.8283004761,-0.7155560255,2023-08-17 00:30:00,,,,,21.0,99999,99999,15.0,3.0,280.0,10000.0,99999,4.0,98981.8,0.0,11160428031021020150399904999051989818600007000084000
4283,LFBH,46.1791992188,-1.1952799559,2023-08-17 00:30:00,,,,,21.0,99999,99999,19.0,5.0,310.0,10000.0,99999,,98982.4,0.0,11160031051021020190399904999051989823600007000080000
4284,LFBI,46.5876998901,0.3066659868,2023-08-17 00:30:00,,,,,21.0,99999,99999,18.0,2.0,,10000.0,99999,,98982.5,0.0,11160036021021020180399904999051989825600007000080000
4285,LFBO,43.6291007996,1.3638199568,2023-08-17 00:30:00,,,,,22.0,99999,99999,20.0,5.0,190.0,10000.0,99999,,98983.7,0.0,11160019051022020200399904999051989836600007000080000
4286,LFBP,43.3800010681,-0.41861099,2023-08-17 00:30:00,,,,,19.0,99999,99999,18.0,4.0,260.0,10000.0,99999,3.0,98982.0,0.0,11160326041019020180399904999051989820600007000083000
4287,LFBT,43.1786994934,-0.0064389999,2023-08-17 00:30:00,,,,,19.0,99999,99999,18.0,7.0,260.0,10000.0,99999,3.0,98982.5,0.0,11160326071019020180399904999051989825600007000083000
4288,LFBZ,43.4683990479,-1.5233199596,2023-08-17 00:30:00,,,,,21.0,99999,99999,17.0,3.0,240.0,10000.0,99999,4.0,98981.5,0.0,11160424031021020170399904999051989815600007000084000
4290,LFKB,42.5527000427,9.4837303162,2023-08-17 00:30:00,,,,,21.0,99999,99999,16.0,4.0,230.0,10000.0,99999,,98982.3,0.0,11160023041021020160399904999051989823600007000080000
4291,LFKC,42.5307998657,8.7931900024,2023-08-17 00:30:00,,,,,22.0,99999,99999,11.0,3.0,,10000.0,99999,,98982.1,0.0,11160036031022020110399904999051989821600007000080000
4292,LFKJ,41.9235992432,8.8029203415,2023-08-17 00:30:00,,,,,21.0,99999,99999,13.0,3.0,,10000.0,99999,,98982.2,0.0,11160036031021020130399904999051989821600007000080000
4294,LFLC,45.7867012024,3.1691699028,2023-08-17 00:30:00,,,,,20.0,99999,99999,17.0,0.0,0.0,10000.0,99999,,98983.1,0.0,11160000001020020170399904999051989831600007000080000
4295,LFLL,45.726398468,5.0908298492,2023-08-17 00:30:00,,,,,21.0,99999,99999,17.0,3.0,220.0,10000.0,99999,,98984.0,0.0,11160022031021020170399904999051989840600007000080000
4296,LFLS,45.3628997803,5.3293700218,2023-08-17 00:30:00,,,,,18.0,99999,99999,15.0,5.0,80.0,10000.0,99999,,98982.9,0.0,11160008051018020150399904999051989828600007000080000
4297,LFLY,45.7271995544,4.944270134,2023-08-17 00:30:00,,,,,20.0,99999,99999,18.0,1.0,,10000.0,99999,,98983.8,0.0,11160036011020020180399904999051989838600007000080000
4298,LFMD,43.5419998169,6.9534797668,2023-08-17 00:30:00,,,,,22.0,99999,99999,19.0,3.0,20.0,10000.0,99999,,98982.0,0.0,11160002031022020190399904999051989820600007000080000
4299,LFMH,45.540599823,4.2963900566,2023-08-17 00:30:00,,,,,19.0,99999,99999,17.0,3.0,170.0,10000.0,99999,,98983.0,0.0,11160017031019020170399904999051989830600007000080000
4300,LFML,43.439271922,5.2214241028,2023-08-17 00:30:00,,,,,24.0,99999,99999,16.0,3.0,130.0,10000.0,99999,,98982.2,0.0,11160013031024020160399904999051989821600007000080000
4301,LFMN,43.6584014893,7.2158699036,2023-08-17 00:30:00,,,,,25.0,99999,99999,21.0,5.0,30.0,10000.0,99999,,98982.2,0.0,11160003051025020210399904999051989821600007000080000
4302,LFMP,42.740398407,2.8706700802,2023-08-17 00:30:00,,,,,23.0,99999,99999,21.0,4.0,70.0,10000.0,99999,5.0,98983.4,0.0,11160507041023020210399904999051989833600007000085000
4304,LFOB,49.4543991089,2.1127800941,2023-08-17 00:30:00,,,,,17.0,99999,99999,14.0,3.0,30.0,10000.0,99999,,98980.0,0.0,11160003031017020140399904999051989800600007000080000
4305,LFOT,47.4322013855,0.7276059985,2023-08-17 00:30:00,,,,,21.0,99999,99999,18.0,2.0,,10000.0,99999,,98982.3,0.0,11160036021021020180399904999051989823600007000080000
4308,LFPN,48.7518997192,2.1061899662,2023-08-17 00:30:00,,,,,20.0,99999,99999,16.0,4.0,50.0,10000.0,99999,6.0,98981.0,0.0,11160605041020020160399904999051989810600007000086000
4309,LFPO,48.7252998352,2.3594400883,2023-08-17 00:30:00,,,,,21.0,99999,99999,16.0,7.0,30.0,10000.0,99999,4.0,98981.1,0.0,11160403071021020160399904999051989811600007000084000
4314,LFRG,49.3652992249,0.1543059945,2023-08-17 00:30:00,,,,,18.0,99999,99999,15.0,6.0,80.0,10000.0,99999,,98979.5,0.0,11160008061018020150399904999051989795600007000080000
4315,LFRK,49.1733016968,-0.4499999881,2023-08-17 00:30:00,,,,,17.0,99999,99999,15.0,2.0,,10000.0,99999,,98979.1,0.0,11160036021017020150399904999051989791600007000080000
4316,LFRN,48.0694999695,-1.7347899675,2023-08-17 00:30:00,,,,,18.0,99999,99999,16.0,5.0,320.0,10000.0,99999,6.0,98980.8,0.0,11160632051018020160399904999051989808600007000086000
4317,LFRQ,47.9749984741,-4.1677899361,2023-08-17 00:30:00,,,,,14.0,99999,99999,12.0,6.0,20.0,10000.0,99999,,98979.8,0.0,11160002061014020120399904999051989798600007000080000
4318,LFRS,47.1531982422,-1.610730052,2023-08-17 00:30:00,,,,,20.0,99999,99999,17.0,3.0,,10000.0,99999,,98982.3,0.0,11160036031020020170399904999051989823600007000080000
4320,LFSB,47.5895996094,7.5299100876,2023-08-17 00:30:00,,,,,20.0,99999,99999,18.0,5.0,300.0,10000.0,99999,,98982.1,0.0,11160030051020020180399904999051989821600007000080000
4321,LFST,48.5382995605,7.6282300949,2023-08-17 00:30:00,,,,,19.0,99999,99999,18.0,5.0,340.0,10000.0,99999,,98981.9,0.3,11160034051019020180399904999051989818600307000080000
4322,LFTW,43.7574005127,4.4163498878,2023-08-17 00:30:00,,,,,20.0,99999,99999,14.0,0.0,0.0,10000.0,99999,,98982.2,0.0,11160000001020020140399904999051989821600007000080000
4323,LFBC,44.5332984924,-1.125,2023-08-17 00:30:00,,,,,19.0,99999,99999,17.0,2.0,320.0,10000.0,99999,,98982.5,0.0,11160032021019020170399904999051989825600007000080000
4324,LFBL,45.8628005981,1.1794400215,2023-08-17 00:30:00,,,,,21.0,99999,99999,18.0,4.0,40.0,10000.0,99999,,98983.2,0.0,11160004041021020180399904999051989831600007000080000
4325,LFBM,43.9117012024,-0.5074999928,2023-08-17 00:30:00,,,,,20.0,99999,99999,19.0,5.0,240.0,10000.0,99999,,98983.0,0.0,11160024051020020190399904999051989830600007000080000
4326,LFKF,41.5005989075,9.0977802277,2023-08-17 00:30:00,,,,,19.0,99999,99999,16.0,2.0,,10000.0,99999,,98982.1,0.0,11160036021019020160399904999051989821600007000080000
4327,LFOE,49.0287017822,1.2198599577,2023-08-17 00:30:00,,,,,19.0,99999,99999,16.0,6.0,70.0,10000.0,99999,,98980.4,0.0,11160007061019020160399904999051989803600007000080000
4328,LFPB,48.9693984985,2.4413900375,2023-08-17 00:30:00,,,,,20.0,99999,99999,16.0,5.0,10.0,10000.0,99999,,98980.6,0.0,11160001051020020160399904999051989806600007000080000
4329,LFPG,49.0127983093,2.5499999523,2023-08-17 00:30:00,,,,,19.0,99999,99999,16.0,6.0,30.0,10000.0,99999,,98981.0,0.0,11160003061019020160399904999051989810600007000080000
4330,LFPV,48.7743988037,2.2015399933,2023-08-17 00:30:00,,,,,20.0,99999,99999,16.0,8.0,50.0,10000.0,99999,6.0,98980.6,0.0,11160605081020020160399904999051989806600007000086000
4331,LFQQ,50.5619010925,3.0894401073,2023-08-17 00:30:00,,,,,17.0,99999,99999,14.0,7.0,20.0,10000.0,99999,,98979.1,0.0,11160002071017020140399904999051989791600007000080000
4332,LFRH,47.7606010437,-3.4400000572,2023-08-17 00:30:00,,,,,15.0,99999,99999,13.0,6.0,30.0,10000.0,99999,1.0,98980.5,0.0,11160103061015020130399904999051989805600007000081000
4333,LFSD,47.268901825,5.0900001526,2023-08-17 00:30:00,,,,,19.0,99999,99999,18.0,6.0,330.0,10000.0,99999,,98982.4,0.0,11160033061019020180399904999051989823600007000080000
4334,LFSI,48.6360015869,4.8994197845,2023-08-17 00:30:00,,,,,17.0,99999,99999,16.0,2.0,60.0,10000.0,99999,,98981.5,0.0,11160006021017020160399904999051989815600007000080000
4335,LFSL,48.7799987793,5.9800000191,2023-08-17 00:30:00,,,,,21.0,99999,99999,19.0,0.0,0.0,10000.0,99999,,98980.8,2.1,11160000001021020190399904999051989808602107000080000
4336,LFSO,48.5830993652,5.9549999237,2023-08-17 00:30:00,,,,,16.0,99999,99999,15.0,3.0,,10000.0,99999,,98980.7,0.0,11160036031016020150399904999051989806600007000080000
4337,LFSX,47.7831001282,6.3640599251,2023-08-17 00:30:00,,,,,17.0,99999,99999,16.0,2.0,290.0,8000.0,99999,,98981.0,0.0,11140029021017020160399904999051989810600007000080000
4338,LFTH,43.0973014832,6.1460299492,2023-08-17 00:30:00,,,,,20.0,99999,99999,14.0,4.0,320.0,10000.0,99999,,98982.2,0.0,11160032041020020140399904999051989821600007000080000
4343,LPMA,32.6978988647,-16.7744998932,2023-08-17 00:30:00,,,,,24.0,99999,99999,18.0,12.0,30.0,10000.0,99999,3.0,98978.4,0.0,11160303121024020180399904999051989783600007000083000
4351,ULLI,59.8003005981,30.2625007629,2023-08-17 00:30:00,,,,,20.0,99999,99999,18.0,3.0,120.0,10000.0,99999,4.0,98979.4,0.0,11160412031020020180399904999051989793600007000084000
4356,URKA,45.0021018982,37.3473014832,2023-08-17 00:30:00,,,,,23.0,99999,99999,16.0,7.0,70.0,10000.0,99999,,98986.3,0.0,11160007071023020160399904999051989863600007000080000
4357,URKK,45.0346984863,39.170501709,2023-08-17 00:30:00,,,,,26.0,99999,99999,14.0,7.0,60.0,10000.0,99999,,98991.1,0.0,11160006071026020140399904999051989911600007000080000
4358,URMM,44.2251014709,43.0819015503,2023-08-17 00:30:00,,,,,17.0,99999,99999,14.0,1.0,310.0,10000.0,99999,,98984.9,0.0,11160031011017020140399904999051989848600007000080000
4359,URMT,45.1091995239,42.1128005981,2023-08-17 00:30:00,,,,,21.0,99999,99999,13.0,3.0,60.0,10000.0,99999,,98984.5,0.0,11160006031021020130399904999051989845600007000080000
4360,URSS,43.4499015808,39.9566001892,2023-08-17 00:30:00,,,,,25.0,99999,99999,22.0,4.0,40.0,10000.0,99999,4.0,98988.1,0.0,11160404041025020220399904999051989881600007000084000
4361,URWA,46.2832984924,48.0063018799,2023-08-17 00:30:00,,,,,21.0,99999,99999,13.0,1.0,290.0,10000.0,99999,,98985.5,0.0,11160029011021020130399904999051989855600007000080000
4362,URWI,46.3739013672,44.3308982849,2023-08-17 00:30:00,,,,,22.0,99999,99999,10.0,3.0,40.0,10000.0,99999,,98984.2,0.0,11160004031022020100399904999051989841600007000080000
4363,URWW,48.7825012207,44.345500946,2023-08-17 00:30:00,,,,,17.0,99999,99999,12.0,2.0,300.0,10000.0,99999,,98982.1,0.0,11160030021017020120399904999051989821600007000080000
4364,UUEE,55.9725990295,37.4146003723,2023-08-17 00:30:00,,,,,17.0,99999,99999,14.0,2.0,320.0,10000.0,99999,,98975.6,0.0,11160032021017020140399904999051989756600007000080000
4366,UUWW,55.5914993286,37.2615013123,2023-08-17 00:30:00,,,,,14.0,99999,99999,14.0,1.0,240.0,10000.0,99999,,98975.5,0.0,11160024011014020140399904999051989755600007000080000
4369,UWKD,55.6062011719,49.2787017822,2023-08-17 00:30:00,10.0,36.0,+,yellow,18.0,99999,99999,17.0,2.0,20.0,10000.0,99999,,98983.6,0.0,11160002021018020170399904999051989836600007100080000
4370,UWKE,55.5647010803,52.0924987793,2023-08-17 00:30:00,,,,,18.0,99999,99999,15.0,2.0,80.0,10000.0,99999,,98984.2,0.0,11160008021018020150399904999051989841600007000080000
4371,UWWW,53.504901886,50.1642990112,2023-08-17 00:30:00,,,,,19.0,99999,99999,16.0,4.0,340.0,10000.0,99999,,98984.2,0.0,11160034041019020160399904999051989841600007000080000
4372,LEAL,38.2821998596,-0.5581560135,2023-08-17 00:30:00,,,,,26.0,99999,99999,23.0,0.0,0.0,10000.0,99999,,98986.0,0.0,11160000001026020230399904999051989860600007000080000
4373,LEAM,36.8438987732,-2.3701000214,2023-08-17 00:30:00,,,,,25.0,99999,99999,22.0,2.0,,10000.0,99999,,98985.7,0.0,11160036021025020220399904999051989856600007000080000
4374,LEAS,43.5635986328,-6.0346198082,2023-08-17 00:30:00,,,,,18.0,99999,99999,18.0,1.0,,10000.0,99999,6.0,98981.5,0.0,11160636011018020180399904999051989815600007000086000
4375,LEBB,43.3011016846,-2.9106099606,2023-08-17 00:30:00,,,,,20.0,99999,99999,19.0,2.0,,10000.0,99999,8.0,98981.0,0.0,11160836021020020190399904999051989810600007000088000
4376,LEBL,41.2971000671,2.0784599781,2023-08-17 00:30:00,,,,,26.0,99999,99999,23.0,9.0,70.0,10000.0,99999,3.0,98984.0,0.0,11160307091026020230399904999051989840600007000083000
4377,LECO,43.3021011353,-8.3772602081,2023-08-17 00:30:00,,,,,17.0,99999,99999,17.0,0.0,0.0,10000.0,99999,,98982.0,0.0,11160000001017020170399904999051989820600007000080000
4378,LEDA,41.728185,0.535023,2023-08-17 00:30:00,,,,,24.0,99999,99999,10.0,12.0,60.0,10000.0,99999,,98985.2,0.0,11160006121024020100399904999051989851600007000080000
4379,LEGR,37.1887016296,-3.7773599625,2023-08-17 00:30:00,,,,,24.0,99999,99999,11.0,3.0,130.0,10000.0,99999,,98986.1,0.0,11160013031024020110399904999051989861600007000080000
4380,LEIB,38.8728981018,1.3731199503,2023-08-17 00:30:00,,,,,26.0,99999,99999,24.0,5.0,310.0,10000.0,99999,2.0,98986.0,0.0,11160231051026020240399904999051989860600007000082000
4381,LEJR,36.7445983887,-6.0601100922,2023-08-17 00:30:00,,,,,19.0,99999,99999,18.0,3.0,180.0,10000.0,99999,,98985.0,0.0,11160018031019020180399904999051989850600007000080000
